{"type":"FeatureCollection","features":[{"type":"Feature","id":0,"geometry":{"type":"Point","coordinates":[-122.79647287403183,53.90239981949313]},"properties":{"FID":0,"Bldng_ID":"B0067974","Bldng_Type":"Office","Address":"3990 22nd Ave.","City":"PRINCE GEORGE"}},{"type":"Feature","id":1,"geometry":{"type":"Point","coordinates":[-132.09667513256142,53.25493657267611]},"properties":{"FID":1,"Bldng_ID":"B0084327","Bldng_Type":"Mobile Home","Address":"3507 2 - 3rd Ave.","City":"QUEEN CHARLOTTE CITY"}},{"type":"Feature","id":2,"geometry":{"type":"Point","coordinates":[-122.98579320103559,49.18586673366728]},"properties":{"FID":2,"Bldng_ID":"B0078174","Bldng_Type":"Jail","Address":"7900 Fraser Park Dr.","City":"BURNABY"}},{"type":"Feature","id":3,"geometry":{"type":"Point","coordinates":[-119.27343177244944,50.28264499797485]},"properties":{"FID":3,"Bldng_ID":"B0091966","Bldng_Type":"Other","Address":"3115 48th Ave.","City":"VERNON"}},{"type":"Feature","id":4,"geometry":{"type":"Point","coordinates":[-126.75477764724643,52.37183161925678]},"properties":{"FID":4,"Bldng_ID":"B0082834","Bldng_Type":"Storage Small","Address":"636 Cliff St.","City":"BELLA COOLA"}},{"type":"Feature","id":5,"geometry":{"type":"Point","coordinates":[-127.1698089097993,54.78062926279349]},"properties":{"FID":5,"Bldng_ID":"B0091909","Bldng_Type":"Office","Address":"3842 3rd Ave.","City":"SMITHERS"}},{"type":"Feature","id":6,"geometry":{"type":"Point","coordinates":[-119.26238816949956,50.279147103371436]},"properties":{"FID":6,"Bldng_ID":"B0092595","Bldng_Type":"Storage Small","Address":"4607 23rd St","City":"VERNON"}},{"type":"Feature","id":7,"geometry":{"type":"Point","coordinates":[-122.80976538163367,49.23020007852112]},"properties":{"FID":7,"Bldng_ID":"B0090421","Bldng_Type":"Dormitory","Address":"70 Colony Farm Rd.","City":"COQUITLAM"}},{"type":"Feature","id":8,"geometry":{"type":"Point","coordinates":[-123.27198301377487,52.083433483129994]},"properties":{"FID":8,"Bldng_ID":"B0082149","Bldng_Type":"Residential Detached","Address":"Stum Lake Rd.","City":"ALEXIS CREEK"}},{"type":"Feature","id":9,"geometry":{"type":"Point","coordinates":[-119.59575380024272,49.477719909857626]},"properties":{"FID":9,"Bldng_ID":"B0092228","Bldng_Type":"Warehouse","Address":"102 Industrial Pl","City":"PENTICTON"}},{"type":"Feature","id":10,"geometry":{"type":"Point","coordinates":[-128.6489318138831,54.05054005204733]},"properties":{"FID":10,"Bldng_ID":"B0091619","Bldng_Type":"Office","Address":"564 Mountain View Sq.","City":"KITIMAT"}},{"type":"Feature","id":11,"geometry":{"type":"Point","coordinates":[-121.63412075600193,49.105008551623946]},"properties":{"FID":11,"Bldng_ID":"B0076661","Bldng_Type":"Storage Small","Address":"57657 Chilliwack Lake Rd.","City":"CHILLIWACK"}},{"type":"Feature","id":12,"geometry":{"type":"Point","coordinates":[-121.29353083891415,51.64546293218693]},"properties":{"FID":12,"Bldng_ID":"B0067295","Bldng_Type":"Office","Address":"170 Cedar Ave. S.","City":"HUNDRED MILE HOUSE"}},{"type":"Feature","id":13,"geometry":{"type":"Point","coordinates":[-119.45876499208096,49.87964494830676]},"properties":{"FID":13,"Bldng_ID":"B0067420","Bldng_Type":"Office","Address":"1726 Dolphin Ave.","City":"KELOWNA"}},{"type":"Feature","id":14,"geometry":{"type":"Point","coordinates":[-121.95379303065697,49.17072796076145]},"properties":{"FID":14,"Bldng_ID":"B0091782","Bldng_Type":"Courthouse","Address":"46085 Yale Rd.","City":"CHILLIWACK"}},{"type":"Feature","id":15,"geometry":{"type":"Point","coordinates":[-122.80883869130373,50.32127568819749]},"properties":{"FID":15,"Bldng_ID":"B0090035","Bldng_Type":"Office","Address":"1366 Aster St.","City":"PEMBERTON"}},{"type":"Feature","id":16,"geometry":{"type":"Point","coordinates":[-124.05474247107324,48.82817347871496]},"properties":{"FID":16,"Bldng_ID":"B0092129","Bldng_Type":"Ambulance","Address":"3 North Shore Road","City":"COWICHAN LAKE"}},{"type":"Feature","id":17,"geometry":{"type":"Point","coordinates":[-116.03423670269123,50.505978704937434]},"properties":{"FID":17,"Bldng_ID":"B0077988","Bldng_Type":"Ambulance","Address":"1116 10th St.","City":"INVERMERE"}},{"type":"Feature","id":18,"geometry":{"type":"Point","coordinates":[-123.09176748259836,55.32200582947098]},"properties":{"FID":18,"Bldng_ID":"B0078088","Bldng_Type":"Storage Small","Address":"1 Cicada Rd.","City":"MACKENZIE"}},{"type":"Feature","id":19,"geometry":{"type":"Point","coordinates":[-118.22293177288887,50.99694515194713]},"properties":{"FID":19,"Bldng_ID":"B0086918","Bldng_Type":"Trailer Other","Address":"1761 Big Eddy Rd.","City":"REVELSTOKE"}},{"type":"Feature","id":20,"geometry":{"type":"Point","coordinates":[-122.74961286385559,53.917088834666764]},"properties":{"FID":20,"Bldng_ID":"B0092494","Bldng_Type":"Office","Address":"1488 4th Ave","City":"PRINCE GEORGE"}},{"type":"Feature","id":21,"geometry":{"type":"Point","coordinates":[-120.33092536952843,50.67127599739977]},"properties":{"FID":21,"Bldng_ID":"B0092418","Bldng_Type":"Office","Address":"447 Columbia St","City":"KAMLOOPS"}},{"type":"Feature","id":22,"geometry":{"type":"Point","coordinates":[-120.32860146380531,50.66956433044477]},"properties":{"FID":22,"Bldng_ID":"B0092502","Bldng_Type":"Office","Address":"561 Columbia St.","City":"KAMLOOPS"}},{"type":"Feature","id":23,"geometry":{"type":"Point","coordinates":[-122.81062648822257,49.228477859401124]},"properties":{"FID":23,"Bldng_ID":"B0090423","Bldng_Type":"Dormitory","Address":"70 Colony Farm Rd.","City":"COQUITLAM"}},{"type":"Feature","id":24,"geometry":{"type":"Point","coordinates":[-122.79695296571984,53.90328638104978]},"properties":{"FID":24,"Bldng_ID":"B0078566","Bldng_Type":"Storage Small","Address":"3980 22nd Ave.","City":"PRINCE GEORGE"}},{"type":"Feature","id":25,"geometry":{"type":"Point","coordinates":[-122.73490233989303,49.10810364612786]},"properties":{"FID":25,"Bldng_ID":"B0067105","Bldng_Type":"Ambulance","Address":"5833 176th St.","City":"SURREY"}},{"type":"Feature","id":26,"geometry":{"type":"Point","coordinates":[-122.80508656817184,49.24986206082279]},"properties":{"FID":26,"Bldng_ID":"B0078477","Bldng_Type":"Site Service","Address":"2601 Lougheed Hwy.","City":"COQUITLAM"}},{"type":"Feature","id":27,"geometry":{"type":"Point","coordinates":[-121.29904362746022,51.644228149123585]},"properties":{"FID":27,"Bldng_ID":"B0076984","Bldng_Type":"Storage Small","Address":"300 Cariboo Hwy.","City":"HUNDRED MILE HOUSE"}},{"type":"Feature","id":28,"geometry":{"type":"Point","coordinates":[-123.36345965793348,48.42219998459101]},"properties":{"FID":28,"Bldng_ID":"B0092150","Bldng_Type":"Office","Address":"810 Blanshard St.","City":"VICTORIA"}},{"type":"Feature","id":29,"geometry":{"type":"Point","coordinates":[-123.14403374037614,49.26370970207592]},"properties":{"FID":29,"Bldng_ID":"B1002362","Bldng_Type":"Office","Address":"1727 West Broadway","City":"VANCOUVER"}},{"type":"Feature","id":30,"geometry":{"type":"Point","coordinates":[-123.14107102001641,49.17236671342822]},"properties":{"FID":30,"Bldng_ID":"B0092075","Bldng_Type":"Courthouse","Address":"7577 Elmbridge Way","City":"RICHMOND"}},{"type":"Feature","id":31,"geometry":{"type":"Point","coordinates":[-120.1695161808212,53.3035061391103]},"properties":{"FID":31,"Bldng_ID":"B0083196","Bldng_Type":"Office","Address":"852 2nd Ave.","City":"MCBRIDE"}},{"type":"Feature","id":32,"geometry":{"type":"Point","coordinates":[-122.74734696409466,53.91786233032935]},"properties":{"FID":32,"Bldng_ID":"B1002337","Bldng_Type":"Office","Address":"325 Brunswick Street","City":"PRINCE GEORGE"}},{"type":"Feature","id":33,"geometry":{"type":"Point","coordinates":[-124.99760385099954,49.68777640320289]},"properties":{"FID":33,"Bldng_ID":"B0092031","Bldng_Type":"Office","Address":"961 England Ave.","City":"COURTENAY"}},{"type":"Feature","id":34,"geometry":{"type":"Point","coordinates":[-123.40208832337152,48.650122547515124]},"properties":{"FID":34,"Bldng_ID":"B0092333","Bldng_Type":"Health Unit","Address":"2357 James White Boulevard","City":"SIDNEY"}},{"type":"Feature","id":35,"geometry":{"type":"Point","coordinates":[-117.70607945453416,49.094910214741994]},"properties":{"FID":35,"Bldng_ID":"B0067368","Bldng_Type":"Office","Address":"Bay Ave. & Helena S","City":"TRAIL"}},{"type":"Feature","id":36,"geometry":{"type":"Point","coordinates":[-129.07804414826077,55.206480637482215]},"properties":{"FID":36,"Bldng_ID":"B0091647","Bldng_Type":"Office","Address":"50896 Nass Rd.","City":"NEW AIYANSH"}},{"type":"Feature","id":37,"geometry":{"type":"Point","coordinates":[-120.2347671363598,55.750450662357686]},"properties":{"FID":37,"Bldng_ID":"B0078129","Bldng_Type":"Health Unit","Address":"1001 110th Ave.","City":"DAWSON CREEK"}},{"type":"Feature","id":38,"geometry":{"type":"Point","coordinates":[-123.93923854826458,49.16522550632229]},"properties":{"FID":38,"Bldng_ID":"B0091829","Bldng_Type":"Office","Address":"345 Wallace St.","City":"NANAIMO"}},{"type":"Feature","id":39,"geometry":{"type":"Point","coordinates":[-118.22195117017795,50.9974201548026]},"properties":{"FID":39,"Bldng_ID":"B0086868","Bldng_Type":"Yard Office","Address":"1761 Big Eddy Rd.","City":"REVELSTOKE"}},{"type":"Feature","id":40,"geometry":{"type":"Point","coordinates":[-121.57434006180024,50.22381313199691]},"properties":{"FID":40,"Bldng_ID":"B0091557","Bldng_Type":"Residential Detached","Address":"136 Loring Way","City":"LYTTON"}},{"type":"Feature","id":41,"geometry":{"type":"Point","coordinates":[-123.36427626577304,48.43039854027904]},"properties":{"FID":41,"Bldng_ID":"B1002347","Bldng_Type":"Office","Address":"1803 Douglas Street","City":"VICTORIA"}},{"type":"Feature","id":42,"geometry":{"type":"Point","coordinates":[-119.26747845168788,52.82945273415487]},"properties":{"FID":42,"Bldng_ID":"B0091333","Bldng_Type":"Residential Detached","Address":"1300 8th Ave.","City":"VALEMOUNT"}},{"type":"Feature","id":43,"geometry":{"type":"Point","coordinates":[-122.82598754792345,49.10728896561363]},"properties":{"FID":43,"Bldng_ID":"B0078169","Bldng_Type":"Jail","Address":"14323 57th Ave.","City":"SURREY"}},{"type":"Feature","id":44,"geometry":{"type":"Point","coordinates":[-119.38837608391995,49.88867273697201]},"properties":{"FID":44,"Bldng_ID":"B0067414","Bldng_Type":"Other","Address":"125 Park Road","City":"KELOWNA"}},{"type":"Feature","id":45,"geometry":{"type":"Point","coordinates":[-120.24874775477375,55.7737756561811]},"properties":{"FID":45,"Bldng_ID":"B0078051","Bldng_Type":"Storage Small","Address":"9000 17th St.","City":"DAWSON CREEK"}},{"type":"Feature","id":46,"geometry":{"type":"Point","coordinates":[-133.7021753396768,59.574987140394626]},"properties":{"FID":46,"Bldng_ID":"B0078095","Bldng_Type":"Warehouse","Address":"Mcbride Blvd.","City":"ATLIN"}},{"type":"Feature","id":47,"geometry":{"type":"Point","coordinates":[-120.84963046255326,56.24836615002338]},"properties":{"FID":47,"Bldng_ID":"B0092667","Bldng_Type":"Office","Address":"10123 102 Avenue","City":"FORT ST. JOHN"}},{"type":"Feature","id":48,"geometry":{"type":"Point","coordinates":[-120.2375391460306,55.76156121957394]},"properties":{"FID":48,"Bldng_ID":"B0067256","Bldng_Type":"Ambulance","Address":"10101 13th St.","City":"DAWSON CREEK"}},{"type":"Feature","id":49,"geometry":{"type":"Point","coordinates":[-119.25951015152087,52.829438534921856]},"properties":{"FID":49,"Bldng_ID":"B0091331","Bldng_Type":"Residential Detached","Address":"1045 8th Ave.","City":"VALEMOUNT"}},{"type":"Feature","id":50,"geometry":{"type":"Point","coordinates":[-116.96431022051958,51.2980551316408]},"properties":{"FID":50,"Bldng_ID":"B0092410","Bldng_Type":"Storage Small","Address":"800 9th St. N","City":"GOLDEN"}},{"type":"Feature","id":51,"geometry":{"type":"Point","coordinates":[-122.84344536806974,49.17698863817836]},"properties":{"FID":51,"Bldng_ID":"B0067895","Bldng_Type":"Ambulance","Address":"13700 96th Ave.","City":"SURREY"}},{"type":"Feature","id":52,"geometry":{"type":"Point","coordinates":[-117.80369097704992,50.23910356995025]},"properties":{"FID":52,"Bldng_ID":"B0092432","Bldng_Type":"Courthouse","Address":"415 Broadways St.","City":"NAKUSP"}},{"type":"Feature","id":53,"geometry":{"type":"Point","coordinates":[-132.1436258421946,54.007858070945154]},"properties":{"FID":53,"Bldng_ID":"B0091279","Bldng_Type":"Residential Detached","Address":"1631 Delkatla St.","City":"MASSET"}},{"type":"Feature","id":54,"geometry":{"type":"Point","coordinates":[-122.92931539043639,49.18127662683841]},"properties":{"FID":54,"Bldng_ID":"B0091687","Bldng_Type":"Office","Address":"610 Derwent Way","City":"DELTA"}},{"type":"Feature","id":55,"geometry":{"type":"Point","coordinates":[-129.9847553936713,55.943329180127336]},"properties":{"FID":55,"Bldng_ID":"B0091319","Bldng_Type":"Residential Detached","Address":"1410 Raven","City":"STEWART"}},{"type":"Feature","id":56,"geometry":{"type":"Point","coordinates":[-122.98193350637493,53.65231135273357]},"properties":{"FID":56,"Bldng_ID":"B0076646","Bldng_Type":"Office","Address":"15875 Hutda Lake Rd.","City":"HUTDA LAKE"}},{"type":"Feature","id":57,"geometry":{"type":"Point","coordinates":[-117.8041925792873,50.24072293783378]},"properties":{"FID":57,"Bldng_ID":"B0087536","Bldng_Type":"Residential Detached","Address":"109 West 6th Ave.","City":"NAKUSP"}},{"type":"Feature","id":58,"geometry":{"type":"Point","coordinates":[-120.33088237416793,50.67423299729697]},"properties":{"FID":58,"Bldng_ID":"B0067428","Bldng_Type":"Office","Address":"444 St. Paul St.","City":"KAMLOOPS"}},{"type":"Feature","id":59,"geometry":{"type":"Point","coordinates":[-119.49357099932297,49.886450057547485]},"properties":{"FID":59,"Bldng_ID":"B0092547","Bldng_Type":"Office","Address":"478 Bernard Ave","City":"KELOWNA"}},{"type":"Feature","id":60,"geometry":{"type":"Point","coordinates":[-124.28585063041027,54.45650564001898]},"properties":{"FID":60,"Bldng_ID":"B0083360","Bldng_Type":"Storage Small","Address":"Stones Bay Rd.","City":"FORT ST. JAMES"}},{"type":"Feature","id":61,"geometry":{"type":"Point","coordinates":[-122.74535015678812,53.89745027400573]},"properties":{"FID":61,"Bldng_ID":"B0092307","Bldng_Type":"School","Address":"1200 La Salle Ave","City":"PRINCE GEORGE"}},{"type":"Feature","id":62,"geometry":{"type":"Point","coordinates":[-121.96504621694149,49.14805973546368]},"properties":{"FID":62,"Bldng_ID":"B0091696","Bldng_Type":"Office","Address":"45467 Yale Rd.","City":"CHILLIWACK"}},{"type":"Feature","id":63,"geometry":{"type":"Point","coordinates":[-120.7469874786629,50.125361486426456]},"properties":{"FID":63,"Bldng_ID":"B0078234","Bldng_Type":"Storage Small","Address":"Hwy. 5a & Airport Rd.","City":"MERRITT"}},{"type":"Feature","id":64,"geometry":{"type":"Point","coordinates":[-123.71846261521767,48.814558296094255]},"properties":{"FID":64,"Bldng_ID":"B0078297","Bldng_Type":"Weigh Station","Address":"6710 Hwy. 1 S.","City":"DUNCAN"}},{"type":"Feature","id":65,"geometry":{"type":"Point","coordinates":[-119.5840419019998,49.4777250231417]},"properties":{"FID":65,"Bldng_ID":"B0067407","Bldng_Type":"Office","Address":"1873 Main St.","City":"PENTICTON"}},{"type":"Feature","id":66,"geometry":{"type":"Point","coordinates":[-120.3497373700054,50.679117998641516]},"properties":{"FID":66,"Bldng_ID":"B0092398","Bldng_Type":"Office","Address":"301 Victoria St","City":"KAMLOOPS"}},{"type":"Feature","id":67,"geometry":{"type":"Point","coordinates":[-123.37507735942866,48.44025843910907]},"properties":{"FID":67,"Bldng_ID":"B0092643","Bldng_Type":"Office","Address":"410 Garbally Rd.","City":"VICTORIA"}},{"type":"Feature","id":68,"geometry":{"type":"Point","coordinates":[-121.42686799692046,49.374486370174466]},"properties":{"FID":68,"Bldng_ID":"B0092326","Bldng_Type":"Storage Vehicle","Address":"1313 - 6th Ave.","City":"HOPE"}},{"type":"Feature","id":69,"geometry":{"type":"Point","coordinates":[-121.95994112086537,49.12385988486888]},"properties":{"FID":69,"Bldng_ID":"B1002341","Bldng_Type":"Office","Address":"6640 Vedder Road","City":"CHILLIWACK"}},{"type":"Feature","id":70,"geometry":{"type":"Point","coordinates":[-123.36359856671469,48.42736665214654]},"properties":{"FID":70,"Bldng_ID":"B0067622","Bldng_Type":"Office","Address":"722 Johnson St.","City":"VICTORIA"}},{"type":"Feature","id":71,"geometry":{"type":"Point","coordinates":[-123.14002642156186,49.1732046035334]},"properties":{"FID":71,"Bldng_ID":"B0068086","Bldng_Type":"Office","Address":"5760 Minoru Blvd.","City":"RICHMOND"}},{"type":"Feature","id":72,"geometry":{"type":"Point","coordinates":[-123.70840130632612,48.77668661500271]},"properties":{"FID":72,"Bldng_ID":"B0092720","Bldng_Type":"Office","Address":"15 Craig St.","City":"DUNCAN"}},{"type":"Feature","id":73,"geometry":{"type":"Point","coordinates":[-117.29298667727704,49.49664517691711]},"properties":{"FID":73,"Bldng_ID":"B0091851","Bldng_Type":"Storage Open","Address":"110 Cedar St.","City":"NELSON"}},{"type":"Feature","id":74,"geometry":{"type":"Point","coordinates":[-122.8432123821071,49.18605863851368]},"properties":{"FID":74,"Bldng_ID":"B0092263","Bldng_Type":"Office","Address":"10095 Whalley Blvd.","City":"SURREY"}},{"type":"Feature","id":75,"geometry":{"type":"Point","coordinates":[-122.80093934826981,49.10256163558813]},"properties":{"FID":75,"Bldng_ID":"B0092142","Bldng_Type":"Office","Address":"5460 152nd St.,","City":"SURREY"}},{"type":"Feature","id":76,"geometry":{"type":"Point","coordinates":[-122.85004317796322,49.187894526549684]},"properties":{"FID":76,"Bldng_ID":"B0092145","Bldng_Type":"Office","Address":"13450 102nd Ave.","City":"SURREY"}},{"type":"Feature","id":77,"geometry":{"type":"Point","coordinates":[-123.08335445178393,49.31271761373044]},"properties":{"FID":77,"Bldng_ID":"B0092604","Bldng_Type":"Office","Address":"224 W. Esplanade","City":"NORTH VANCOUVER"}},{"type":"Feature","id":78,"geometry":{"type":"Point","coordinates":[-122.85671636724642,49.137066636110454]},"properties":{"FID":78,"Bldng_ID":"B0092540","Bldng_Type":"Office","Address":"2021 7445 - 132 St.","City":"SURREY"}},{"type":"Feature","id":79,"geometry":{"type":"Point","coordinates":[-123.04776043403075,49.26182962099801]},"properties":{"FID":79,"Bldng_ID":"B0091801","Bldng_Type":"Office","Address":"2780 E. Broadway","City":"VANCOUVER"}},{"type":"Feature","id":80,"geometry":{"type":"Point","coordinates":[-119.3831816875554,49.91997829525881]},"properties":{"FID":80,"Bldng_ID":"B0092339","Bldng_Type":"Office","Address":"2355 Acland Rd.","City":"KELOWNA"}},{"type":"Feature","id":81,"geometry":{"type":"Point","coordinates":[-122.81020978135886,49.23028342072777]},"properties":{"FID":81,"Bldng_ID":"B0091356","Bldng_Type":"Hospital","Address":"70 Colony Farm Rd.","City":"COQUITLAM"}},{"type":"Feature","id":82,"geometry":{"type":"Point","coordinates":[-116.85511446367337,49.75981535083758]},"properties":{"FID":82,"Bldng_ID":"B0092081","Bldng_Type":"Ambulance","Address":"1409 Ainsworth","City":"RIONDEL"}},{"type":"Feature","id":83,"geometry":{"type":"Point","coordinates":[-123.27436411149951,52.08325671276225]},"properties":{"FID":83,"Bldng_ID":"B0092505","Bldng_Type":"Mobile Home","Address":"2635 Forest Lane, Lot C","City":"ALEXIS CREEK"}},{"type":"Feature","id":84,"geometry":{"type":"Point","coordinates":[-123.39823752034417,48.65094998514573]},"properties":{"FID":84,"Bldng_ID":"B0092556","Bldng_Type":"Courthouse","Address":"9884 3rd Street","City":"SIDNEY"}},{"type":"Feature","id":85,"geometry":{"type":"Point","coordinates":[-127.58298976349661,55.24406010619955]},"properties":{"FID":85,"Bldng_ID":"B0091289","Bldng_Type":"Residential Detached","Address":"4547 13th Ave.","City":"NEW HAZELTON"}},{"type":"Feature","id":86,"geometry":{"type":"Point","coordinates":[-122.75282187311751,53.9189198336173]},"properties":{"FID":86,"Bldng_ID":"B0091864","Bldng_Type":"Office","Address":"1705 3rd Ave.","City":"PRINCE GEORGE"}},{"type":"Feature","id":87,"geometry":{"type":"Point","coordinates":[-119.4954890964189,49.89737145604531]},"properties":{"FID":87,"Bldng_ID":"B1002356","Bldng_Type":"Office","Address":"1060 Manhattan Dr.","City":"KELOWNA"}},{"type":"Feature","id":88,"geometry":{"type":"Point","coordinates":[-117.70498665925571,49.10497843443741]},"properties":{"FID":88,"Bldng_ID":"B0077845","Bldng_Type":"Ambulance","Address":"1200 Hospital Bench","City":"TRAIL"}},{"type":"Feature","id":89,"geometry":{"type":"Point","coordinates":[-123.36390415902076,48.419061101782034]},"properties":{"FID":89,"Bldng_ID":"B0078317","Bldng_Type":"Office","Address":"835 Humboldt St.","City":"VICTORIA"}},{"type":"Feature","id":90,"geometry":{"type":"Point","coordinates":[-127.17459610525898,54.78011086060458]},"properties":{"FID":90,"Bldng_ID":"B1002259","Bldng_Type":"Office","Address":"3862A BROADWAY AVE.","City":"SMITHERS"}},{"type":"Feature","id":91,"geometry":{"type":"Point","coordinates":[-123.3683763533854,48.41992221352186]},"properties":{"FID":91,"Bldng_ID":"B0092534","Bldng_Type":"Museum","Address":"675 Belleville St.","City":"VICTORIA"}},{"type":"Feature","id":92,"geometry":{"type":"Point","coordinates":[-123.35933525274513,48.42561254400125]},"properties":{"FID":92,"Bldng_ID":"B0067634","Bldng_Type":"Office","Address":"1250 Quadra St.","City":"VICTORIA"}},{"type":"Feature","id":93,"geometry":{"type":"Point","coordinates":[-132.08691893177763,53.255358578999996]},"properties":{"FID":93,"Bldng_ID":"B1002258","Bldng_Type":"Office","Address":"302 - 2ND AVE","City":"QUEEN CHARLOTTE CITY"}},{"type":"Feature","id":94,"geometry":{"type":"Point","coordinates":[-122.99986041046962,49.228445617143414]},"properties":{"FID":94,"Bldng_ID":"B0091359","Bldng_Type":"Office","Address":"4680 Kingsway","City":"BURNABY"}},{"type":"Feature","id":95,"geometry":{"type":"Point","coordinates":[-123.27841960768916,52.0830061739137]},"properties":{"FID":95,"Bldng_ID":"B0091231","Bldng_Type":"Mobile Home","Address":"7714 Hwy 20","City":"ALEXIS CREEK"}},{"type":"Feature","id":96,"geometry":{"type":"Point","coordinates":[-120.9898520178201,55.119527096479324]},"properties":{"FID":96,"Bldng_ID":"B1002450","Bldng_Type":"Ambulance","Address":"103 Becker Rd.","City":"TUMBLER RIDGE"}},{"type":"Feature","id":97,"geometry":{"type":"Point","coordinates":[-123.36621625720473,48.42066154246299]},"properties":{"FID":97,"Bldng_ID":"B1002459","Bldng_Type":"Hospitality","Address":"713 Douglas St.","City":"VICTORIA"}},{"type":"Feature","id":98,"geometry":{"type":"Point","coordinates":[-123.36351525423404,48.42169997764759]},"properties":{"FID":98,"Bldng_ID":"B0092155","Bldng_Type":"Office","Address":"780 Blanshard St.","City":"VICTORIA"}},{"type":"Feature","id":99,"geometry":{"type":"Point","coordinates":[-122.65468833310909,49.118803653257835]},"properties":{"FID":99,"Bldng_ID":"B1002451","Bldng_Type":"Office","Address":"20486 64th Ave.","City":"LANGLEY"}},{"type":"Feature","id":100,"geometry":{"type":"Point","coordinates":[-122.76033186050414,53.90034982889702]},"properties":{"FID":100,"Bldng_ID":"B0092612","Bldng_Type":"Office","Address":"1788 Diefenbaker Drive","City":"PRINCE GEORGE"}},{"type":"Feature","id":101,"geometry":{"type":"Point","coordinates":[-124.3111706393363,49.32005547592024]},"properties":{"FID":101,"Bldng_ID":"B0092104","Bldng_Type":"Office","Address":"154 Middleton St.","City":"PARKSVILLE"}},{"type":"Feature","id":102,"geometry":{"type":"Point","coordinates":[-127.64999836727536,55.26004678284433]},"properties":{"FID":102,"Bldng_ID":"B1002376","Bldng_Type":"Office","Address":"2510 Hwy 62","City":"HAZELTON"}},{"type":"Feature","id":103,"geometry":{"type":"Point","coordinates":[-122.81490078350079,49.24307357530159]},"properties":{"FID":103,"Bldng_ID":"B0021790","Bldng_Type":"Dormitory","Address":"2601 Lougheed Hwy.","City":"COQUITLAM"}},{"type":"Feature","id":104,"geometry":{"type":"Point","coordinates":[-121.63435686347535,49.10518910561997]},"properties":{"FID":104,"Bldng_ID":"B0024000","Bldng_Type":"Storage Small","Address":"57657 Chilliwack Lake Rd.","City":"CHILLIWACK"}},{"type":"Feature","id":105,"geometry":{"type":"Point","coordinates":[-121.76260517312708,49.075769752976335]},"properties":{"FID":105,"Bldng_ID":"B0024208","Bldng_Type":"Dormitory","Address":"53033 Chilliwack Lake Rd.","City":"CHILLIWACK"}},{"type":"Feature","id":106,"geometry":{"type":"Point","coordinates":[-123.00545982228807,49.253755625403194]},"properties":{"FID":106,"Bldng_ID":"B0019604","Bldng_Type":"Hospital","Address":"3405 Willingdon Ave.","City":"BURNABY"}},{"type":"Feature","id":107,"geometry":{"type":"Point","coordinates":[-120.86765392600638,49.114200303040164]},"properties":{"FID":107,"Bldng_ID":"B0022863","Bldng_Type":"Site Service","Address":"7413 Southern Trans Prov Hwy.","City":"ALLISON PASS"}},{"type":"Feature","id":108,"geometry":{"type":"Point","coordinates":[-124.52298802376805,49.8457276842456]},"properties":{"FID":108,"Bldng_ID":"B0015669","Bldng_Type":"Courthouse","Address":"6953 Alberni St.","City":"POWELL RIVER"}},{"type":"Feature","id":109,"geometry":{"type":"Point","coordinates":[-123.37157086555611,48.41764442826973]},"properties":{"FID":109,"Bldng_ID":"B0010595","Bldng_Type":"Office","Address":"515 Superior St.","City":"VICTORIA"}},{"type":"Feature","id":110,"geometry":{"type":"Point","coordinates":[-123.41015418366742,48.4823666513362]},"properties":{"FID":110,"Bldng_ID":"B0011809","Bldng_Type":"Jail","Address":"4216 Wilkinson Rd.","City":"SAANICH"}},{"type":"Feature","id":111,"geometry":{"type":"Point","coordinates":[-122.80162379190467,49.25535765072445]},"properties":{"FID":111,"Bldng_ID":"B0022277","Bldng_Type":"Dormitory","Address":"2601 Lougheed Hwy.","City":"COQUITLAM"}},{"type":"Feature","id":112,"geometry":{"type":"Point","coordinates":[-122.8001217916459,49.25474492192891]},"properties":{"FID":112,"Bldng_ID":"B0022111","Bldng_Type":"Site Service","Address":"2601 Lougheed Hwy.","City":"COQUITLAM"}},{"type":"Feature","id":113,"geometry":{"type":"Point","coordinates":[-121.76260517312708,49.075769752976335]},"properties":{"FID":113,"Bldng_ID":"B0024307","Bldng_Type":"Animal Shelter","Address":"53033 Chilliwack Lake Rd.","City":"CHILLIWACK"}},{"type":"Feature","id":114,"geometry":{"type":"Point","coordinates":[-123.36195966294133,48.42231110068796]},"properties":{"FID":114,"Bldng_ID":"B0010900","Bldng_Type":"Courthouse","Address":"850 Burdett St.","City":"VICTORIA"}},{"type":"Feature","id":115,"geometry":{"type":"Point","coordinates":[-122.80229978554566,49.25319905864464]},"properties":{"FID":115,"Bldng_ID":"B0022061","Bldng_Type":"Dormitory","Address":"2601 Lougheed Hwy.","City":"COQUITLAM"}},{"type":"Feature","id":116,"geometry":{"type":"Point","coordinates":[-121.76260517312708,49.075769752976335]},"properties":{"FID":116,"Bldng_ID":"B0024166","Bldng_Type":"Dormitory","Address":"53033 Chilliwack Lake Rd.","City":"CHILLIWACK"}},{"type":"Feature","id":117,"geometry":{"type":"Point","coordinates":[-122.80320099002164,49.249443613575195]},"properties":{"FID":117,"Bldng_ID":"B0021923","Bldng_Type":"Dormitory","Address":"2601 Lougheed Hwy.","City":"COQUITLAM"}},{"type":"Feature","id":118,"geometry":{"type":"Point","coordinates":[-122.80379108379458,49.25298371789131]},"properties":{"FID":118,"Bldng_ID":"B0021998","Bldng_Type":"Dormitory","Address":"2601 Lougheed Hwy.","City":"COQUITLAM"}},{"type":"Feature","id":119,"geometry":{"type":"Point","coordinates":[-122.79959339835926,49.25982422785093]},"properties":{"FID":119,"Bldng_ID":"B0022350","Bldng_Type":"Storage Small","Address":"2601 Lougheed Hwy.","City":"COQUITLAM"}},{"type":"Feature","id":120,"geometry":{"type":"Point","coordinates":[-123.00859872621588,49.25425562201767]},"properties":{"FID":120,"Bldng_ID":"B0019695","Bldng_Type":"Dormitory","Address":"3405 Willingdon Ave.","City":"BURNABY"}},{"type":"Feature","id":121,"geometry":{"type":"Point","coordinates":[-122.80410218229359,49.24829153326963]},"properties":{"FID":121,"Bldng_ID":"B0021899","Bldng_Type":"Dormitory","Address":"2601 Lougheed Hwy.","City":"COQUITLAM"}},{"type":"Feature","id":122,"geometry":{"type":"Point","coordinates":[-122.80275569515,49.254209211337624]},"properties":{"FID":122,"Bldng_ID":"B0022095","Bldng_Type":"Hospital","Address":"2601 Lougheed Hwy.","City":"COQUITLAM"}},{"type":"Feature","id":123,"geometry":{"type":"Point","coordinates":[-121.56559966124854,53.10064484215159]},"properties":{"FID":123,"Bldng_ID":"B0031179","Bldng_Type":"Industrial Maintenance","Address":"Gardner St.","City":"WELLS"}},{"type":"Feature","id":124,"geometry":{"type":"Point","coordinates":[-123.00770981993955,49.25425561650197]},"properties":{"FID":124,"Bldng_ID":"B0019703","Bldng_Type":"Dormitory","Address":"3405 Willingdon Ave.","City":"BURNABY"}},{"type":"Feature","id":125,"geometry":{"type":"Point","coordinates":[-123.00804322741666,49.252838952773125]},"properties":{"FID":125,"Bldng_ID":"B0019711","Bldng_Type":"Dormitory","Address":"3405 Willingdon Ave.","City":"BURNABY"}},{"type":"Feature","id":126,"geometry":{"type":"Point","coordinates":[-122.9079042875152,49.20264451827008]},"properties":{"FID":126,"Bldng_ID":"B0046979","Bldng_Type":"Courthouse","Address":"651 Carnarvon St.","City":"NEW WESTMINSTER"}},{"type":"Feature","id":127,"geometry":{"type":"Point","coordinates":[-116.03590361412299,50.51557520973051]},"properties":{"FID":127,"Bldng_ID":"B0034231","Bldng_Type":"Storage Small","Address":"Industrial Rd. 1","City":"INVERMERE"}},{"type":"Feature","id":128,"geometry":{"type":"Point","coordinates":[-121.14585261333168,53.728039363621924]},"properties":{"FID":128,"Bldng_ID":"B0036509","Bldng_Type":"Storage Vehicle","Address":"Hwy. 16","City":"SLIM CREEK"}},{"type":"Feature","id":129,"geometry":{"type":"Point","coordinates":[-120.96004530731179,56.27898669491811]},"properties":{"FID":129,"Bldng_ID":"B0037812","Bldng_Type":"Warehouse","Address":"8553 Hwy. 97 N.","City":"CHARLIE LAKE"}},{"type":"Feature","id":130,"geometry":{"type":"Point","coordinates":[-127.17468461263681,54.7780330367111]},"properties":{"FID":130,"Bldng_ID":"B0040535","Bldng_Type":"Courthouse","Address":"3793 Alfred Ave.","City":"SMITHERS"}},{"type":"Feature","id":131,"geometry":{"type":"Point","coordinates":[-116.03082840391154,50.51663982266277]},"properties":{"FID":131,"Bldng_ID":"B0042416","Bldng_Type":"Warehouse","Address":"Industrial Rd. 1","City":"INVERMERE"}},{"type":"Feature","id":132,"geometry":{"type":"Point","coordinates":[-122.73190576161691,53.91331139261123]},"properties":{"FID":132,"Bldng_ID":"B0050492","Bldng_Type":"Warehouse","Address":"410 3rd Ave.","City":"PRINCE GEORGE"}},{"type":"Feature","id":133,"geometry":{"type":"Point","coordinates":[-123.12270985124111,49.28145005142487]},"properties":{"FID":133,"Bldng_ID":"B0045047","Bldng_Type":"Office","Address":"800 Hornby St.","City":"VANCOUVER"}},{"type":"Feature","id":134,"geometry":{"type":"Point","coordinates":[-124.31683424995948,49.321116972855435]},"properties":{"FID":134,"Bldng_ID":"B0055095","Bldng_Type":"Office","Address":"198 Morrison Ave.","City":"PARKSVILLE"}},{"type":"Feature","id":135,"geometry":{"type":"Point","coordinates":[-124.99837095205541,49.68837360348944]},"properties":{"FID":135,"Bldng_ID":"B0059840","Bldng_Type":"Office","Address":"941 England Ave.","City":"COURTENAY"}},{"type":"Feature","id":136,"geometry":{"type":"Point","coordinates":[-123.36683726077504,48.42333053836629]},"properties":{"FID":136,"Bldng_ID":"B0050906","Bldng_Type":"Office","Address":"633 Courtney St.","City":"VICTORIA"}},{"type":"Feature","id":137,"geometry":{"type":"Point","coordinates":[-125.54745072278257,48.937181309211724]},"properties":{"FID":137,"Bldng_ID":"B0051730","Bldng_Type":"Office","Address":"1620 Peninsula Rd.","City":"UCLUELET"}},{"type":"Feature","id":138,"geometry":{"type":"Point","coordinates":[-123.34237655957602,48.41986474283974]},"properties":{"FID":138,"Bldng_ID":"B0049825","Bldng_Type":"Storage Small","Address":"1401 Rockland Ave.","City":"VICTORIA"}},{"type":"Feature","id":139,"geometry":{"type":"Point","coordinates":[-131.80853990116907,53.2420436181709]},"properties":{"FID":139,"Bldng_ID":"B0053603","Bldng_Type":"School","Address":"406 Copper Bay Rd.","City":"SANDSPIT"}},{"type":"Feature","id":140,"geometry":{"type":"Point","coordinates":[-123.36942026547065,48.42553254336385]},"properties":{"FID":140,"Bldng_ID":"B0055657","Bldng_Type":"Office","Address":"31 Bastion Sq.","City":"VICTORIA"}},{"type":"Feature","id":141,"geometry":{"type":"Point","coordinates":[-123.06555043682978,49.25393961361676]},"properties":{"FID":141,"Bldng_ID":"B0057232","Bldng_Type":"Office","Address":"3455 Victoria Dr.","City":"VANCOUVER"}},{"type":"Feature","id":142,"geometry":{"type":"Point","coordinates":[-123.36626526149684,48.42258887521245]},"properties":{"FID":142,"Bldng_ID":"B0054601","Bldng_Type":"Office","Address":"808 Douglas St.","City":"VICTORIA"}},{"type":"Feature","id":143,"geometry":{"type":"Point","coordinates":[-123.36465525909047,48.4272925430819]},"properties":{"FID":143,"Bldng_ID":"B0055756","Bldng_Type":"Office","Address":"1405 Douglas St.","City":"VICTORIA"}},{"type":"Feature","id":144,"geometry":{"type":"Point","coordinates":[-122.935335397401,49.211332631679625]},"properties":{"FID":144,"Bldng_ID":"B0061564","Bldng_Type":"Ambulance","Address":"833 12th St.","City":"NEW WESTMINSTER"}},{"type":"Feature","id":145,"geometry":{"type":"Point","coordinates":[-123.12354324344588,49.28064449705682]},"properties":{"FID":145,"Bldng_ID":"B0046581","Bldng_Type":"Courthouse","Address":"800 Smithe St.","City":"VANCOUVER"}},{"type":"Feature","id":146,"geometry":{"type":"Point","coordinates":[-122.65720971988698,49.10520009283593]},"properties":{"FID":146,"Bldng_ID":"B0060566","Bldng_Type":"Courthouse","Address":"20389 Fraser Hwy.","City":"LANGLEY"}},{"type":"Feature","id":147,"geometry":{"type":"Point","coordinates":[-123.36218195571325,48.428255545657976]},"properties":{"FID":147,"Bldng_ID":"B0063404","Bldng_Type":"Office","Address":"1520 Blanshard St.","City":"VICTORIA"}},{"type":"Feature","id":148,"geometry":{"type":"Point","coordinates":[-120.16084388083053,53.30164534081057]},"properties":{"FID":148,"Bldng_ID":"B0061754","Bldng_Type":"Ambulance","Address":"594 Kings St.","City":"MCBRIDE"}},{"type":"Feature","id":149,"geometry":{"type":"Point","coordinates":[-124.98746784374248,49.6824184086505]},"properties":{"FID":149,"Bldng_ID":"B0067122","Bldng_Type":"Ambulance","Address":"1890 Cliffe Ave.","City":"COURTENAY"}},{"type":"Feature","id":150,"geometry":{"type":"Point","coordinates":[-126.65865725647063,49.924771095815125]},"properties":{"FID":150,"Bldng_ID":"B0092276","Bldng_Type":"Site Service","Address":"105 School House Hill Rd.","City":"TAHSIS"}},{"type":"Feature","id":151,"geometry":{"type":"Point","coordinates":[-123.36752265950498,48.42271604326631]},"properties":{"FID":151,"Bldng_ID":"B0092689","Bldng_Type":"Office","Address":"634 Humboldt St","City":"VICTORIA"}},{"type":"Feature","id":152,"geometry":{"type":"Point","coordinates":[-122.32419225944618,49.05345569344036]},"properties":{"FID":152,"Bldng_ID":"B0067760","Bldng_Type":"Office","Address":"2865 Cruickshank St.","City":"ABBOTSFORD"}},{"type":"Feature","id":153,"geometry":{"type":"Point","coordinates":[-123.72510611117488,48.78475331834099]},"properties":{"FID":153,"Bldng_ID":"B0067812","Bldng_Type":"Trailer Office","Address":"3088 Gibbins Rd.","City":"DUNCAN"}},{"type":"Feature","id":154,"geometry":{"type":"Point","coordinates":[-122.7530446632045,53.91542250156694]},"properties":{"FID":154,"Bldng_ID":"B0091376","Bldng_Type":"Hospital","Address":"1584 7th Ave.","City":"PRINCE GEORGE"}},{"type":"Feature","id":155,"geometry":{"type":"Point","coordinates":[-122.66471934632115,49.17389365573443]},"properties":{"FID":155,"Bldng_ID":"B0092699","Bldng_Type":"Office","Address":"9440 202nd St.","City":"LANGLEY"}},{"type":"Feature","id":156,"geometry":{"type":"Point","coordinates":[-122.53083334684587,49.24727953731157]},"properties":{"FID":156,"Bldng_ID":"B0092661","Bldng_Type":"Jail","Address":"N. 248th St.","City":"MAPLE RIDGE"}},{"type":"Feature","id":157,"geometry":{"type":"Point","coordinates":[-120.36237367813595,50.66508932967683]},"properties":{"FID":157,"Bldng_ID":"B0078232","Bldng_Type":"Storage Small","Address":"1265 Dalhousie Dr.","City":"KAMLOOPS"}},{"type":"Feature","id":158,"geometry":{"type":"Point","coordinates":[-121.00344531097441,56.304858911133735]},"properties":{"FID":158,"Bldng_ID":"B0078294","Bldng_Type":"Weigh Station","Address":"9011 Hwy 97 North","City":"CHARLIE LAKE"}},{"type":"Feature","id":159,"geometry":{"type":"Point","coordinates":[-123.37312456462627,48.41635143960768]},"properties":{"FID":159,"Bldng_ID":"B0092690","Bldng_Type":"Office","Address":"239 Menzies St.","City":"VICTORIA"}},{"type":"Feature","id":160,"geometry":{"type":"Point","coordinates":[-123.4263232744085,48.448222538009354]},"properties":{"FID":160,"Bldng_ID":"B0091976","Bldng_Type":"Office","Address":"1505 Admirals Rd.","City":"VIEW ROYAL"}},{"type":"Feature","id":161,"geometry":{"type":"Point","coordinates":[-122.79915079404667,49.25954852460975]},"properties":{"FID":161,"Bldng_ID":"B0022343","Bldng_Type":"Dormitory","Address":"2601 Lougheed Hwy.","City":"COQUITLAM"}},{"type":"Feature","id":162,"geometry":{"type":"Point","coordinates":[-123.14803656064942,49.70286962266217]},"properties":{"FID":162,"Bldng_ID":"B0091657","Bldng_Type":"Office","Address":"1140 Hunter Place Rd.","City":"SQUAMISH"}},{"type":"Feature","id":163,"geometry":{"type":"Point","coordinates":[-123.27436411149951,52.08325671276225]},"properties":{"FID":163,"Bldng_ID":"B0092506","Bldng_Type":"Mobile Home","Address":"2638 Forest Lane, Lot D","City":"ALEXIS CREEK"}},{"type":"Feature","id":164,"geometry":{"type":"Point","coordinates":[-119.26674019066924,50.70137212455727]},"properties":{"FID":164,"Bldng_ID":"B0092259","Bldng_Type":"Storage Small","Address":"850 16th St. N.E.","City":"SALMON ARM"}},{"type":"Feature","id":165,"geometry":{"type":"Point","coordinates":[-117.8072041813304,50.24293646680645]},"properties":{"FID":165,"Bldng_ID":"B1002357","Bldng_Type":"Ambulance","Address":"300 - 8th Ave.","City":"NAKUSP"}},{"type":"Feature","id":166,"geometry":{"type":"Point","coordinates":[-120.36233206902325,50.664947662181355]},"properties":{"FID":166,"Bldng_ID":"B0078231","Bldng_Type":"Storage Small","Address":"1265 Dalhousie Dr.","City":"KAMLOOPS"}},{"type":"Feature","id":167,"geometry":{"type":"Point","coordinates":[-124.78779349247695,49.263260976218504]},"properties":{"FID":167,"Bldng_ID":"B0091669","Bldng_Type":"Office","Address":"4885 Cherry Creek Rd.","City":"PORT ALBERNI"}},{"type":"Feature","id":168,"geometry":{"type":"Point","coordinates":[-119.27248905670665,50.26298310040091]},"properties":{"FID":168,"Bldng_ID":"B0092085","Bldng_Type":"Office","Address":"3101 29 Avenue","City":"VERNON"}},{"type":"Feature","id":169,"geometry":{"type":"Point","coordinates":[-122.84319037720334,49.198932639672336]},"properties":{"FID":169,"Bldng_ID":"B0092555","Bldng_Type":"Office","Address":"13639 108 Ave.","City":"SURREY"}},{"type":"Feature","id":170,"geometry":{"type":"Point","coordinates":[-124.80418239166825,49.253922080472066]},"properties":{"FID":170,"Bldng_ID":"B0078213","Bldng_Type":"Ambulance","Address":"4760 Roger St.","City":"PORT ALBERNI"}},{"type":"Feature","id":171,"geometry":{"type":"Point","coordinates":[-123.33294026919636,48.45616454964624]},"properties":{"FID":171,"Bldng_ID":"B0067611","Bldng_Type":"Office","Address":"3200 Shelbourne St.","City":"SAANICH"}},{"type":"Feature","id":172,"geometry":{"type":"Point","coordinates":[-121.58084205980597,50.232716435597965]},"properties":{"FID":172,"Bldng_ID":"B0091536","Bldng_Type":"Residential Detached","Address":"625 Main St.","City":"LYTTON"}},{"type":"Feature","id":173,"geometry":{"type":"Point","coordinates":[-123.94207113954106,49.168033291311076]},"properties":{"FID":173,"Bldng_ID":"B0092714","Bldng_Type":"Office","Address":"125 Wallace St","City":"NANAIMO"}},{"type":"Feature","id":174,"geometry":{"type":"Point","coordinates":[-122.75354318071537,49.250588977750404]},"properties":{"FID":174,"Bldng_ID":"B1002331","Bldng_Type":"Jail","Address":"1451 Kingsway","City":"PORT COQUITLAM"}},{"type":"Feature","id":175,"geometry":{"type":"Point","coordinates":[-123.36627825599493,48.42053154371471]},"properties":{"FID":175,"Bldng_ID":"B1002481","Bldng_Type":"Commercial","Address":"709 Douglas Street","City":"VICTORIA"}},{"type":"Feature","id":176,"geometry":{"type":"Point","coordinates":[-123.37465726562667,48.42188354111104]},"properties":{"FID":176,"Bldng_ID":"B1002461","Bldng_Type":"Hospitality","Address":"254 Belleville St.","City":"VICTORIA"}},{"type":"Feature","id":177,"geometry":{"type":"Point","coordinates":[-122.31490026187042,49.05260768866397]},"properties":{"FID":177,"Bldng_ID":"B0092630","Bldng_Type":"Office","Address":"2777 Gladwin Road","City":"ABBOTSFORD"}},{"type":"Feature","id":178,"geometry":{"type":"Point","coordinates":[-123.04038442581123,49.26104461733717]},"properties":{"FID":178,"Bldng_ID":"B1002487","Bldng_Type":"Office","Address":"49.261039","City":"VANCOUVER"}},{"type":"Feature","id":179,"geometry":{"type":"Point","coordinates":[-124.99805284464934,49.690313404425375]},"properties":{"FID":179,"Bldng_ID":"B1002488","Bldng_Type":"Ambulance","Address":"580 Duncan Rd","City":"COURTENAY"}},{"type":"Feature","id":180,"geometry":{"type":"Point","coordinates":[-122.72913015612245,58.80540316983063]},"properties":{"FID":180,"Bldng_ID":"B0092408","Bldng_Type":"Warehouse","Address":"6000 Alaska Highway","City":"FORT NELSON"}},{"type":"Feature","id":181,"geometry":{"type":"Point","coordinates":[-124.0491837712758,49.20848092162125]},"properties":{"FID":181,"Bldng_ID":"B0013763","Bldng_Type":"Dormitory","Address":"3945 Biggs Rd.","City":"NANAIMO"}},{"type":"Feature","id":182,"geometry":{"type":"Point","coordinates":[-123.36790415277369,48.418838868518975]},"properties":{"FID":182,"Bldng_ID":"B0010231","Bldng_Type":"Site Service","Address":"617 Government St.","City":"VICTORIA"}},{"type":"Feature","id":183,"geometry":{"type":"Point","coordinates":[-123.36957085707034,48.41733887492152]},"properties":{"FID":183,"Bldng_ID":"B0010686","Bldng_Type":"Storage Small","Address":"584 Michigan St.","City":"VICTORIA"}},{"type":"Feature","id":184,"geometry":{"type":"Point","coordinates":[-121.76260517312708,49.075769752976335]},"properties":{"FID":184,"Bldng_ID":"B0024190","Bldng_Type":"Dormitory","Address":"53033 Chilliwack Lake Rd.","City":"CHILLIWACK"}},{"type":"Feature","id":185,"geometry":{"type":"Point","coordinates":[-123.71082100532875,48.777533299582366]},"properties":{"FID":185,"Bldng_ID":"B0014639","Bldng_Type":"Office","Address":"238 Government St.","City":"DUNCAN"}},{"type":"Feature","id":186,"geometry":{"type":"Point","coordinates":[-122.80607088962171,49.2476156809985]},"properties":{"FID":186,"Bldng_ID":"B0021659","Bldng_Type":"Hospital","Address":"2601 Lougheed Hwy.","City":"COQUITLAM"}},{"type":"Feature","id":187,"geometry":{"type":"Point","coordinates":[-119.5934871148888,49.501144915161476]},"properties":{"FID":187,"Bldng_ID":"B0027136","Bldng_Type":"Courthouse","Address":"152 Main St.","City":"PENTICTON"}},{"type":"Feature","id":188,"geometry":{"type":"Point","coordinates":[-122.80589929071584,49.24938758423425]},"properties":{"FID":188,"Bldng_ID":"B0021667","Bldng_Type":"Ambulance","Address":"2601 Lougheed Hwy.","City":"COQUITLAM"}},{"type":"Feature","id":189,"geometry":{"type":"Point","coordinates":[-121.75987627433264,49.07892242665383]},"properties":{"FID":189,"Bldng_ID":"B0024133","Bldng_Type":"Industrial Maintenance","Address":"53033 Chilliwack Lake Rd.","City":"CHILLIWACK"}},{"type":"Feature","id":190,"geometry":{"type":"Point","coordinates":[-123.37187635973274,48.416977756872214]},"properties":{"FID":190,"Bldng_ID":"B0010512","Bldng_Type":"Office","Address":"526 Michigan St.","City":"VICTORIA"}},{"type":"Feature","id":191,"geometry":{"type":"Point","coordinates":[-122.80418268605825,49.25255303838491]},"properties":{"FID":191,"Bldng_ID":"B0021972","Bldng_Type":"Dormitory","Address":"2601 Lougheed Hwy.","City":"COQUITLAM"}},{"type":"Feature","id":192,"geometry":{"type":"Point","coordinates":[-119.55323702239062,49.18092268275559]},"properties":{"FID":192,"Bldng_ID":"B0027003","Bldng_Type":"Office","Address":"583 Fairview Rd.","City":"OLIVER"}},{"type":"Feature","id":193,"geometry":{"type":"Point","coordinates":[-122.53210473783818,49.24701339859934]},"properties":{"FID":193,"Bldng_ID":"B0023234","Bldng_Type":"Site Service","Address":"N. 248th St.","City":"MAPLE RIDGE"}},{"type":"Feature","id":194,"geometry":{"type":"Point","coordinates":[-120.32922036344266,50.67127100221787]},"properties":{"FID":194,"Bldng_ID":"B0029769","Bldng_Type":"Office","Address":"515 Columbia St.","City":"KAMLOOPS"}},{"type":"Feature","id":195,"geometry":{"type":"Point","coordinates":[-118.96184830153962,50.249256139705004]},"properties":{"FID":195,"Bldng_ID":"B0026914","Bldng_Type":"Health Unit","Address":"2135 Norris Ave.","City":"LUMBY"}},{"type":"Feature","id":196,"geometry":{"type":"Point","coordinates":[-122.80772319150707,49.24798687807099]},"properties":{"FID":196,"Bldng_ID":"B0022087","Bldng_Type":"Hospital","Address":"2601 Lougheed Hwy.","City":"COQUITLAM"}},{"type":"Feature","id":197,"geometry":{"type":"Point","coordinates":[-123.12040434418194,49.28295005311786]},"properties":{"FID":197,"Bldng_ID":"B0016766","Bldng_Type":"Museum","Address":"800 W. Georgia St.","City":"VANCOUVER"}},{"type":"Feature","id":198,"geometry":{"type":"Point","coordinates":[-122.80788408250918,49.24723748050231]},"properties":{"FID":198,"Bldng_ID":"B0022079","Bldng_Type":"Industrial Maintenance","Address":"2601 Lougheed Hwy.","City":"COQUITLAM"}},{"type":"Feature","id":199,"geometry":{"type":"Point","coordinates":[-122.80467350594719,49.248776529793226]},"properties":{"FID":199,"Bldng_ID":"B0022210","Bldng_Type":"Site Service","Address":"2601 Lougheed Hwy.","City":"COQUITLAM"}},{"type":"Feature","id":200,"geometry":{"type":"Point","coordinates":[-123.3703208543316,48.41786665127484]},"properties":{"FID":200,"Bldng_ID":"B0010611","Bldng_Type":"Office","Address":"545 Superior St.","City":"VICTORIA"}},{"type":"Feature","id":201,"geometry":{"type":"Point","coordinates":[-123.37145965913314,48.41886665495255]},"properties":{"FID":201,"Bldng_ID":"B0010033","Bldng_Type":"Office","Address":"431 Menzies St.","City":"VICTORIA"}},{"type":"Feature","id":202,"geometry":{"type":"Point","coordinates":[-117.27865338317432,49.50614517532545]},"properties":{"FID":202,"Bldng_ID":"B0032979","Bldng_Type":"Ambulance","Address":"820 Nelson Ave.","City":"NELSON"}},{"type":"Feature","id":203,"geometry":{"type":"Point","coordinates":[-123.12170984377269,49.282088938917994]},"properties":{"FID":203,"Bldng_ID":"B0043398","Bldng_Type":"School","Address":"800 Hornby St.","City":"VANCOUVER"}},{"type":"Feature","id":204,"geometry":{"type":"Point","coordinates":[-121.63426515702437,49.10504188298318]},"properties":{"FID":204,"Bldng_ID":"B0024026","Bldng_Type":"Storage Small","Address":"57657 Chilliwack Lake Rd.","City":"CHILLIWACK"}},{"type":"Feature","id":205,"geometry":{"type":"Point","coordinates":[-123.34237655957602,48.41986474283974]},"properties":{"FID":205,"Bldng_ID":"B0049817","Bldng_Type":"Storage Small","Address":"1401 Rockland Ave.","City":"VICTORIA"}},{"type":"Feature","id":206,"geometry":{"type":"Point","coordinates":[-123.62508277799445,52.99730859067205]},"properties":{"FID":206,"Bldng_ID":"B0043992","Bldng_Type":"Storage Small","Address":"9594 Nazko Road\nNazko Black Water","City":"NAZKO"}},{"type":"Feature","id":207,"geometry":{"type":"Point","coordinates":[-121.56548857201929,53.1009503919032]},"properties":{"FID":207,"Bldng_ID":"B0031187","Bldng_Type":"Storage Small","Address":"Gardner St.","City":"WELLS"}},{"type":"Feature","id":208,"geometry":{"type":"Point","coordinates":[-115.28182515544312,49.37884260993061]},"properties":{"FID":208,"Bldng_ID":"B0034538","Bldng_Type":"Storage Vehicle","Address":"2260 Jaffray Shop Rd.","City":"JAFFRAY"}},{"type":"Feature","id":209,"geometry":{"type":"Point","coordinates":[-121.14728871446124,53.72916159151314]},"properties":{"FID":209,"Bldng_ID":"B0047019","Bldng_Type":"Storage Vehicle","Address":"Hwy. 16","City":"SLIM CREEK"}},{"type":"Feature","id":210,"geometry":{"type":"Point","coordinates":[-118.77783963120832,49.00837508767267]},"properties":{"FID":210,"Bldng_ID":"B0059782","Bldng_Type":"Ambulance","Address":"661 8th Ave.","City":"MIDWAY"}},{"type":"Feature","id":211,"geometry":{"type":"Point","coordinates":[-120.16827468455648,53.30158822936343]},"properties":{"FID":211,"Bldng_ID":"B0061945","Bldng_Type":"Office","Address":"Robson Ctr","City":"MCBRIDE"}},{"type":"Feature","id":212,"geometry":{"type":"Point","coordinates":[-124.84951426828745,54.05906755970113]},"properties":{"FID":212,"Bldng_ID":"B0061176","Bldng_Type":"Ambulance","Address":"130 Chowsunket Rd. S.","City":"FRASER LAKE"}},{"type":"Feature","id":213,"geometry":{"type":"Point","coordinates":[-123.34237655957602,48.41986474283974]},"properties":{"FID":213,"Bldng_ID":"B0049833","Bldng_Type":"Laundry","Address":"1401 Rockland Ave.","City":"VICTORIA"}},{"type":"Feature","id":214,"geometry":{"type":"Point","coordinates":[-120.31234867246438,50.67292267233062]},"properties":{"FID":214,"Bldng_ID":"B0052522","Bldng_Type":"Office","Address":"1165 Battle St.","City":"KAMLOOPS"}},{"type":"Feature","id":215,"geometry":{"type":"Point","coordinates":[-123.10851743895928,49.264914610900156]},"properties":{"FID":215,"Bldng_ID":"B0061556","Bldng_Type":"Ambulance","Address":"181 W. 7th Ave.","City":"VANCOUVER"}},{"type":"Feature","id":216,"geometry":{"type":"Point","coordinates":[-119.58646689909422,49.48582802553627]},"properties":{"FID":216,"Bldng_ID":"B0061788","Bldng_Type":"Office","Address":"40 Calgary Ave.","City":"PENTICTON"}},{"type":"Feature","id":217,"geometry":{"type":"Point","coordinates":[-123.94151354347342,49.167367509574646]},"properties":{"FID":217,"Bldng_ID":"B0051888","Bldng_Type":"Office","Address":"190 Wallace St.","City":"NANAIMO"}},{"type":"Feature","id":218,"geometry":{"type":"Point","coordinates":[-121.14726651706262,53.728633813666846]},"properties":{"FID":218,"Bldng_ID":"B0080143","Bldng_Type":"Mobile Home","Address":"Hwy. 16","City":"SLIM CREEK"}},{"type":"Feature","id":219,"geometry":{"type":"Point","coordinates":[-123.07761543551473,49.262539613804115]},"properties":{"FID":219,"Bldng_ID":"B0064469","Bldng_Type":"Office","Address":"471 E. Broadway","City":"VANCOUVER"}},{"type":"Feature","id":220,"geometry":{"type":"Point","coordinates":[-125.2472659769708,50.02811649954191]},"properties":{"FID":220,"Bldng_ID":"B0048801","Bldng_Type":"Courthouse","Address":"500 13th Ave.","City":"CAMPBELL RIVER"}},{"type":"Feature","id":221,"geometry":{"type":"Point","coordinates":[-122.97339341909806,49.24497162770862]},"properties":{"FID":221,"Bldng_ID":"B0062760","Bldng_Type":"Office","Address":"4940 Canada Way","City":"BURNABY"}},{"type":"Feature","id":222,"geometry":{"type":"Point","coordinates":[-124.04999386582891,49.207944707310666]},"properties":{"FID":222,"Bldng_ID":"B1002379","Bldng_Type":"Trailer Office","Address":"3945 Biggs Rd","City":"NANAIMO"}},{"type":"Feature","id":223,"geometry":{"type":"Point","coordinates":[-125.2556499766451,50.026600382904995]},"properties":{"FID":223,"Bldng_ID":"B0058453","Bldng_Type":"Office","Address":"1180 Ironwood St.","City":"CAMPBELL RIVER"}},{"type":"Feature","id":224,"geometry":{"type":"Point","coordinates":[-120.84577846188105,56.246562154983145]},"properties":{"FID":224,"Bldng_ID":"B0061911","Bldng_Type":"Office","Address":"9900 100th Ave.","City":"FORT ST. JOHN"}},{"type":"Feature","id":225,"geometry":{"type":"Point","coordinates":[-123.06619345449552,49.319961613390305]},"properties":{"FID":225,"Bldng_ID":"B0063347","Bldng_Type":"Ambulance","Address":"1304 St. Andrews","City":"NORTH VANCOUVER"}},{"type":"Feature","id":226,"geometry":{"type":"Point","coordinates":[-127.172712311017,54.777588593934766]},"properties":{"FID":226,"Bldng_ID":"B0062133","Bldng_Type":"Office","Address":"3726 Alfred Ave.","City":"SMITHERS"}},{"type":"Feature","id":227,"geometry":{"type":"Point","coordinates":[-120.24500913744488,55.759537220763335]},"properties":{"FID":227,"Bldng_ID":"B0061200","Bldng_Type":"Office","Address":"1508 102nd Ave.","City":"DAWSON CREEK"}},{"type":"Feature","id":228,"geometry":{"type":"Point","coordinates":[-123.00831541708314,49.25600362113145]},"properties":{"FID":228,"Bldng_ID":"B0067103","Bldng_Type":"Office","Address":"3133 Sumner Avenue","City":"BURNABY"}},{"type":"Feature","id":229,"geometry":{"type":"Point","coordinates":[-127.08179641167203,50.58015517925485]},"properties":{"FID":229,"Bldng_ID":"B0063990","Bldng_Type":"Office","Address":"2217 Mine Road Pl.","City":"PORT MCNEILL"}},{"type":"Feature","id":230,"geometry":{"type":"Point","coordinates":[-127.16084009295781,54.76711082254589]},"properties":{"FID":230,"Bldng_ID":"B0066308","Bldng_Type":"Warehouse","Address":"2984 Railway Ave.","City":"SMITHERS"}},{"type":"Feature","id":231,"geometry":{"type":"Point","coordinates":[-122.7633768816343,53.95134582932071]},"properties":{"FID":231,"Bldng_ID":"B0067019","Bldng_Type":"Ambulance","Address":"2343 Hart Hwy.","City":"PRINCE GEORGE"}},{"type":"Feature","id":232,"geometry":{"type":"Point","coordinates":[-121.63016537947138,55.69913202761446]},"properties":{"FID":232,"Bldng_ID":"B0066290","Bldng_Type":"Courthouse","Address":"5021 49th Ave.","City":"CHETWYND"}},{"type":"Feature","id":233,"geometry":{"type":"Point","coordinates":[-123.13420145118855,49.290846606929684]},"properties":{"FID":233,"Bldng_ID":"B0064899","Bldng_Type":"Office","Address":"1725 Robson St.","City":"VANCOUVER"}},{"type":"Feature","id":234,"geometry":{"type":"Point","coordinates":[-122.88619940061373,49.230415629691386]},"properties":{"FID":234,"Bldng_ID":"B0066142","Bldng_Type":"Ambulance","Address":"444 Rousseau St.","City":"NEW WESTMINSTER"}},{"type":"Feature","id":235,"geometry":{"type":"Point","coordinates":[-122.76103907164095,53.93901416193933]},"properties":{"FID":235,"Bldng_ID":"B0078075","Bldng_Type":"Weigh Station","Address":"Hart Hwy. 97 N.","City":"PRINCE GEORGE"}},{"type":"Feature","id":236,"geometry":{"type":"Point","coordinates":[-123.12413045272312,49.27989960711122]},"properties":{"FID":236,"Bldng_ID":"B0090404","Bldng_Type":"Office","Address":"808 Nelson St.","City":"VANCOUVER"}},{"type":"Feature","id":237,"geometry":{"type":"Point","coordinates":[-123.99393776675305,49.20074994398086]},"properties":{"FID":237,"Bldng_ID":"B0090095","Bldng_Type":"Office","Address":"2080 Labieux Rd.","City":"NANAIMO"}},{"type":"Feature","id":238,"geometry":{"type":"Point","coordinates":[-125.76312348201542,54.23166144438309]},"properties":{"FID":238,"Bldng_ID":"B0071985","Bldng_Type":"Courthouse","Address":"508 Hwy. 16 W.","City":"BURNS LAKE"}},{"type":"Feature","id":239,"geometry":{"type":"Point","coordinates":[-119.21052609470077,50.4392581198577]},"properties":{"FID":239,"Bldng_ID":"B0067547","Bldng_Type":"Health Unit","Address":"3800 Patten Dr.","City":"ARMSTRONG"}},{"type":"Feature","id":240,"geometry":{"type":"Point","coordinates":[-123.12243944384225,49.28095661237731]},"properties":{"FID":240,"Bldng_ID":"B0067080","Bldng_Type":"Office","Address":"900 Howe St.","City":"VANCOUVER"}},{"type":"Feature","id":241,"geometry":{"type":"Point","coordinates":[-122.59770434500145,49.22035666367768]},"properties":{"FID":241,"Bldng_ID":"B0067083","Bldng_Type":"Office","Address":"11996 Edge St","City":"MAPLE RIDGE"}},{"type":"Feature","id":242,"geometry":{"type":"Point","coordinates":[-122.9609946613075,50.122511666186966]},"properties":{"FID":242,"Bldng_ID":"B0067329","Bldng_Type":"Ambulance","Address":"7192 Lorimer Rd.","City":"WHISTLER"}},{"type":"Feature","id":243,"geometry":{"type":"Point","coordinates":[-117.2761634042425,49.192844265346594]},"properties":{"FID":243,"Bldng_ID":"B0067342","Bldng_Type":"Ambulance","Address":"444 Baker Ave.","City":"SALMO"}},{"type":"Feature","id":244,"geometry":{"type":"Point","coordinates":[-122.5983223525861,49.21707766334826]},"properties":{"FID":244,"Bldng_ID":"B0067471","Bldng_Type":"Office","Address":"22522 Lougheed Hwy.","City":"MAPLE RIDGE"}},{"type":"Feature","id":245,"geometry":{"type":"Point","coordinates":[-123.36077727097023,48.465471540402795]},"properties":{"FID":245,"Bldng_ID":"B0067660","Bldng_Type":"Office","Address":"3939 Quadra St.","City":"SAANICH"}},{"type":"Feature","id":246,"geometry":{"type":"Point","coordinates":[-123.0405404453579,49.33591561713729]},"properties":{"FID":246,"Bldng_ID":"B0067717","Bldng_Type":"Office","Address":"1200 Lynn Valley Rd.","City":"NORTH VANCOUVER"}},{"type":"Feature","id":247,"geometry":{"type":"Point","coordinates":[-123.56773754659278,48.65792219529711]},"properties":{"FID":247,"Bldng_ID":"B0067648","Bldng_Type":"Ambulance","Address":"955 Shawnigan Mill Bay","City":"MILL BAY"}},{"type":"Feature","id":248,"geometry":{"type":"Point","coordinates":[-122.89059438114543,49.15338263188992]},"properties":{"FID":248,"Bldng_ID":"B0067928","Bldng_Type":"Office","Address":"8285 120th St.","City":"DELTA"}},{"type":"Feature","id":249,"geometry":{"type":"Point","coordinates":[-123.06007098683722,49.08733893575942]},"properties":{"FID":249,"Bldng_ID":"B0076786","Bldng_Type":"Ambulance","Address":"4641 Clarence Taylor Cres.","City":"DELTA"}},{"type":"Feature","id":250,"geometry":{"type":"Point","coordinates":[-123.72614930055938,48.38016249633039]},"properties":{"FID":250,"Bldng_ID":"B0090374","Bldng_Type":"Office","Address":"2215 Otterpoint Rd.","City":"SOOKE"}},{"type":"Feature","id":251,"geometry":{"type":"Point","coordinates":[-122.98197161254461,53.65179797225532]},"properties":{"FID":251,"Bldng_ID":"B0089904","Bldng_Type":"Industrial Maintenance","Address":"15875 Hutda Lake Rd.","City":"HUTDA LAKE"}},{"type":"Feature","id":252,"geometry":{"type":"Point","coordinates":[-123.5684472442329,52.93349458249145]},"properties":{"FID":252,"Bldng_ID":"B0077487","Bldng_Type":"Storage Open","Address":"9594 Nazko Road\nNazko Black Water","City":"NAZKO"}},{"type":"Feature","id":253,"geometry":{"type":"Point","coordinates":[-120.24915324640598,55.773695104388835]},"properties":{"FID":253,"Bldng_ID":"B0083741","Bldng_Type":"Warehouse","Address":"9000 17th St.","City":"DAWSON CREEK"}},{"type":"Feature","id":254,"geometry":{"type":"Point","coordinates":[-132.18264911703832,53.68554156170626]},"properties":{"FID":254,"Bldng_ID":"B0067214","Bldng_Type":"Ambulance","Address":"Hemlock Ave. & Park","City":"PORT CLEMENTS"}},{"type":"Feature","id":255,"geometry":{"type":"Point","coordinates":[-122.98197161254461,53.65179797225532]},"properties":{"FID":255,"Bldng_ID":"B0077999","Bldng_Type":"Farm Storage","Address":"15875 Hutda Lake Rd.","City":"HUTDA LAKE"}},{"type":"Feature","id":256,"geometry":{"type":"Point","coordinates":[-122.98197161254461,53.65179797225532]},"properties":{"FID":256,"Bldng_ID":"B0077996","Bldng_Type":"Storage Small","Address":"15875 Hutda Lake Rd.","City":"HUTDA LAKE"}},{"type":"Feature","id":257,"geometry":{"type":"Point","coordinates":[-125.82129250724502,54.281177654190515]},"properties":{"FID":257,"Bldng_ID":"B0084996","Bldng_Type":"Warehouse","Address":"Hwy. 16","City":"DECKER LAKE"}},{"type":"Feature","id":258,"geometry":{"type":"Point","coordinates":[-122.6527863249623,49.10642165418581]},"properties":{"FID":258,"Bldng_ID":"B0067931","Bldng_Type":"Office","Address":"5714 Glover Rd.","City":"LANGLEY"}},{"type":"Feature","id":259,"geometry":{"type":"Point","coordinates":[-125.76002048366725,54.235640438248126]},"properties":{"FID":259,"Bldng_ID":"B0080135","Bldng_Type":"Ambulance","Address":"741 Center St.","City":"BURNS LAKE"}},{"type":"Feature","id":260,"geometry":{"type":"Point","coordinates":[-123.26129410902885,52.08755014365784]},"properties":{"FID":260,"Bldng_ID":"B0078569","Bldng_Type":"Mobile Home","Address":"2630 Forest Lane 2  (Lot 2)","City":"ALEXIS CREEK"}},{"type":"Feature","id":261,"geometry":{"type":"Point","coordinates":[-116.49166755280471,51.39771274618372]},"properties":{"FID":261,"Bldng_ID":"B0067418","Bldng_Type":"Ambulance","Address":"Yoho National Park","City":"FIELD"}},{"type":"Feature","id":262,"geometry":{"type":"Point","coordinates":[-122.81100619416246,49.24570538968696]},"properties":{"FID":262,"Bldng_ID":"B0077903","Bldng_Type":"Storage Small","Address":"2601 Lougheed Hwy.","City":"COQUITLAM"}},{"type":"Feature","id":263,"geometry":{"type":"Point","coordinates":[-122.15443003511227,52.141797518066255]},"properties":{"FID":263,"Bldng_ID":"B0082693","Bldng_Type":"Warehouse","Address":"1010 Mackenzie Ave.","City":"WILLIAMS LAKE"}},{"type":"Feature","id":264,"geometry":{"type":"Point","coordinates":[-122.795514072698,53.90413082565524]},"properties":{"FID":264,"Bldng_ID":"B0083089","Bldng_Type":"Storage Open","Address":"2000 Ospika Blvd.","City":"PRINCE GEORGE"}},{"type":"Feature","id":265,"geometry":{"type":"Point","coordinates":[-115.30262206562196,49.375799393751045]},"properties":{"FID":265,"Bldng_ID":"B0075499","Bldng_Type":"Yard Office","Address":"2260 Jaffray Shop Rd.","City":"JAFFRAY"}},{"type":"Feature","id":266,"geometry":{"type":"Point","coordinates":[-128.55614859786425,54.511243960762805]},"properties":{"FID":266,"Bldng_ID":"B0078588","Bldng_Type":"Weigh Station","Address":"Hwy 16 & Hwy 37","City":"TERRACE"}},{"type":"Feature","id":267,"geometry":{"type":"Point","coordinates":[-119.59514269842377,49.47762824453782]},"properties":{"FID":267,"Bldng_ID":"B0078048","Bldng_Type":"Storage Small","Address":"102 Industrial Pl.","City":"PENTICTON"}},{"type":"Feature","id":268,"geometry":{"type":"Point","coordinates":[-116.50604202939154,49.089617459145764]},"properties":{"FID":268,"Bldng_ID":"B0078241","Bldng_Type":"Health Unit","Address":"531 16th Ave. S.","City":"CRESTON"}},{"type":"Feature","id":269,"geometry":{"type":"Point","coordinates":[-120.85032307007914,56.254783936878184]},"properties":{"FID":269,"Bldng_ID":"B0078128","Bldng_Type":"Health Unit","Address":"10115 110th Ave.","City":"FORT ST. JOHN"}},{"type":"Feature","id":270,"geometry":{"type":"Point","coordinates":[-123.42457090515684,48.56047775768727]},"properties":{"FID":270,"Bldng_ID":"B0092041","Bldng_Type":"Warehouse","Address":"6578 Bryn Rd","City":"SAANICH"}},{"type":"Feature","id":271,"geometry":{"type":"Point","coordinates":[-123.36559446629211,48.42436593943089]},"properties":{"FID":271,"Bldng_ID":"B0067594","Bldng_Type":"Office","Address":"1070 Douglas St.","City":"VICTORIA"}},{"type":"Feature","id":272,"geometry":{"type":"Point","coordinates":[-124.78716010477685,49.26281929992546]},"properties":{"FID":272,"Bldng_ID":"B0092269","Bldng_Type":"Storage Small","Address":"4885 Cherry Creek Rd.","City":"PORT ALBERNI"}},{"type":"Feature","id":273,"geometry":{"type":"Point","coordinates":[-119.40306352645847,50.033524695958285]},"properties":{"FID":273,"Bldng_ID":"B0091603","Bldng_Type":"Ambulance","Address":"Bottomwood Lake Rd.","City":"DISTRICT OF LAKE COUNTRY"}},{"type":"Feature","id":274,"geometry":{"type":"Point","coordinates":[-123.06987043922508,49.26225161757357]},"properties":{"FID":274,"Bldng_ID":"B0092001","Bldng_Type":"Office","Address":"2525 Commercial Dr.","City":"VANCOUVER"}},{"type":"Feature","id":275,"geometry":{"type":"Point","coordinates":[-120.84750145581265,56.241504150360896]},"properties":{"FID":275,"Bldng_ID":"B0092013","Bldng_Type":"Office","Address":"9504 100th Street","City":"FORT ST. JOHN"}},{"type":"Feature","id":276,"geometry":{"type":"Point","coordinates":[-119.58718890079099,49.48730602818904]},"properties":{"FID":276,"Bldng_ID":"B0092404","Bldng_Type":"Office","Address":"1101 Main St.","City":"PENTICTON"}},{"type":"Feature","id":277,"geometry":{"type":"Point","coordinates":[-125.25337798889191,50.02913538406072]},"properties":{"FID":277,"Bldng_ID":"B0067836","Bldng_Type":"Office","Address":"833 14th Ave.","City":"CAMPBELL RIVER"}},{"type":"Feature","id":278,"geometry":{"type":"Point","coordinates":[-128.57935798903537,54.514891065172826]},"properties":{"FID":278,"Bldng_ID":"B0091979","Bldng_Type":"Office","Address":"192 4450 Greig Ave","City":"TERRACE"}},{"type":"Feature","id":279,"geometry":{"type":"Point","coordinates":[-122.493180377257,52.96938915906765]},"properties":{"FID":279,"Bldng_ID":"B0082297","Bldng_Type":"Office","Address":"322 Johnston Ave.","City":"QUESNEL"}},{"type":"Feature","id":280,"geometry":{"type":"Point","coordinates":[-122.8726313902343,49.237752639725755]},"properties":{"FID":280,"Bldng_ID":"B0067773","Bldng_Type":"Office","Address":"906 Roderick & 908","City":"COQUITLAM"}},{"type":"Feature","id":281,"geometry":{"type":"Point","coordinates":[-124.28601732390482,54.455922310583674]},"properties":{"FID":281,"Bldng_ID":"B0083451","Bldng_Type":"Industrial Maintenance","Address":"Stones Bay Rd.","City":"FORT ST. JAMES"}},{"type":"Feature","id":282,"geometry":{"type":"Point","coordinates":[-122.77097738193514,49.26829965212565]},"properties":{"FID":282,"Bldng_ID":"B0092636","Bldng_Type":"Office","Address":"2062  Manning St","City":"PORT COQUITLAM"}},{"type":"Feature","id":283,"geometry":{"type":"Point","coordinates":[-122.70893356298319,53.90783916311234]},"properties":{"FID":283,"Bldng_ID":"B0078529","Bldng_Type":"Jail","Address":"775 Hwy. 16 E.","City":"PRINCE GEORGE"}},{"type":"Feature","id":284,"geometry":{"type":"Point","coordinates":[-122.74718686670292,53.91358083381812]},"properties":{"FID":284,"Bldng_ID":"B0067215","Bldng_Type":"Office","Address":"1160 7th Ave.","City":"PRINCE GEORGE"}},{"type":"Feature","id":285,"geometry":{"type":"Point","coordinates":[-122.80393238218372,50.3200612498666]},"properties":{"FID":285,"Bldng_ID":"B0078180","Bldng_Type":"Ambulance","Address":"1403 Portage Rd.","City":"PEMBERTON"}},{"type":"Feature","id":286,"geometry":{"type":"Point","coordinates":[-120.1625156848324,53.29998624273853]},"properties":{"FID":286,"Bldng_ID":"B0091282","Bldng_Type":"Residential Detached","Address":"745 Dominion St.","City":"MCBRIDE"}},{"type":"Feature","id":287,"geometry":{"type":"Point","coordinates":[-121.59085131298255,49.34692522788891]},"properties":{"FID":287,"Bldng_ID":"B0078283","Bldng_Type":"Weigh Station","Address":"Hwy. 1 W. - Hunter Creek","City":"HOPE"}},{"type":"Feature","id":288,"geometry":{"type":"Point","coordinates":[-121.29767973675352,51.64451425632371]},"properties":{"FID":288,"Bldng_ID":"B0076976","Bldng_Type":"Office","Address":"300 Cariboo Hwy.","City":"HUNDRED MILE HOUSE"}},{"type":"Feature","id":289,"geometry":{"type":"Point","coordinates":[-123.1416543250689,49.17242226799517]},"properties":{"FID":289,"Bldng_ID":"B0068188","Bldng_Type":"Courthouse","Address":"5840 Cedarbridge Way","City":"RICHMOND"}},{"type":"Feature","id":290,"geometry":{"type":"Point","coordinates":[-124.04670997787541,49.233644389003985]},"properties":{"FID":290,"Bldng_ID":"B0067194","Bldng_Type":"Office","Address":"6475 Metral Dr.","City":"NANAIMO"}},{"type":"Feature","id":291,"geometry":{"type":"Point","coordinates":[-123.00523032525481,49.253750506930444]},"properties":{"FID":291,"Bldng_ID":"B0077552","Bldng_Type":"School","Address":"3405 Willingdon Ave.","City":"BURNABY"}},{"type":"Feature","id":292,"geometry":{"type":"Point","coordinates":[-123.00826542012709,49.25125562254836]},"properties":{"FID":292,"Bldng_ID":"B0077446","Bldng_Type":"Trailer Office","Address":"3545 Willingdon Ave.","City":"BURNABY"}},{"type":"Feature","id":293,"geometry":{"type":"Point","coordinates":[-127.14055399555987,54.77304137273175]},"properties":{"FID":293,"Bldng_ID":"B0078555","Bldng_Type":"Storage Small","Address":"3333 Tatlow Rd.","City":"SMITHERS"}},{"type":"Feature","id":294,"geometry":{"type":"Point","coordinates":[-123.40623749996855,48.564394433568225]},"properties":{"FID":294,"Bldng_ID":"B0092413","Bldng_Type":"Office","Address":"2261 Keating Cross Road","City":"SAANICH"}},{"type":"Feature","id":295,"geometry":{"type":"Point","coordinates":[-119.26230506527331,50.281919108731636]},"properties":{"FID":295,"Bldng_ID":"B0092296","Bldng_Type":"Office","Address":"4791 23rd.St.","City":"VERNON"}},{"type":"Feature","id":296,"geometry":{"type":"Point","coordinates":[-121.29925883438445,51.63637192459234]},"properties":{"FID":296,"Bldng_ID":"B0092167","Bldng_Type":"Trailer Office","Address":"726 Alpine","City":"HUNDRED MILE HOUSE"}},{"type":"Feature","id":297,"geometry":{"type":"Point","coordinates":[-122.84314338496057,49.194597633108145]},"properties":{"FID":297,"Bldng_ID":"B0091173","Bldng_Type":"Office","Address":"13680 105a Ave.","City":"SURREY"}},{"type":"Feature","id":298,"geometry":{"type":"Point","coordinates":[-120.36690427131258,50.66595043564122]},"properties":{"FID":298,"Bldng_ID":"B0090921","Bldng_Type":"Office","Address":"970 Camosun Cres.","City":"KAMLOOPS"}},{"type":"Feature","id":299,"geometry":{"type":"Point","coordinates":[-120.84752786006791,56.252075753613525]},"properties":{"FID":299,"Bldng_ID":"B0073742","Bldng_Type":"Storage Vehicle","Address":"10600 100th St.","City":"FORT ST. JOHN"}},{"type":"Feature","id":300,"geometry":{"type":"Point","coordinates":[-123.41483037666046,48.47937427583695]},"properties":{"FID":300,"Bldng_ID":"B0092338","Bldng_Type":"Industrial Maintenance","Address":"4300 North Rd.","City":"SAANICH"}},{"type":"Feature","id":301,"geometry":{"type":"Point","coordinates":[-124.04850657894129,49.23432750006545]},"properties":{"FID":301,"Bldng_ID":"B0090271","Bldng_Type":"Office","Address":"6551 Aulds Rd.","City":"NANAIMO"}},{"type":"Feature","id":302,"geometry":{"type":"Point","coordinates":[-123.3646263535137,48.42517220979474]},"properties":{"FID":302,"Bldng_ID":"B0067185","Bldng_Type":"Office","Address":"1175 Douglas St.","City":"VICTORIA"}},{"type":"Feature","id":303,"geometry":{"type":"Point","coordinates":[-119.4914379891506,49.88617905927677]},"properties":{"FID":303,"Bldng_ID":"B0091852","Bldng_Type":"Office","Address":"565 Bernard Ave.","City":"KELOWNA"}},{"type":"Feature","id":304,"geometry":{"type":"Point","coordinates":[-120.77083729309783,50.12164492641697]},"properties":{"FID":304,"Bldng_ID":"B0091906","Bldng_Type":"Ambulance","Address":"3451 Voght St.","City":"MERRITT"}},{"type":"Feature","id":305,"geometry":{"type":"Point","coordinates":[-127.49412150094447,50.720063131649134]},"properties":{"FID":305,"Bldng_ID":"B0092629","Bldng_Type":"Office","Address":"8755 Gray Street","City":"PORT HARDY"}},{"type":"Feature","id":306,"geometry":{"type":"Point","coordinates":[-129.9906393930401,55.940060393664275]},"properties":{"FID":306,"Bldng_ID":"B0090090","Bldng_Type":"Ambulance","Address":"10th & Brightwell St.","City":"STEWART"}},{"type":"Feature","id":307,"geometry":{"type":"Point","coordinates":[-123.37314026762203,48.454687544335535]},"properties":{"FID":307,"Bldng_ID":"B0092006","Bldng_Type":"Office","Address":"3491 Saanich Rd.","City":"SAANICH"}},{"type":"Feature","id":308,"geometry":{"type":"Point","coordinates":[-123.00773762376821,49.250922293671195]},"properties":{"FID":308,"Bldng_ID":"B0078616","Bldng_Type":"Office","Address":"3655 Willingdon Ave.","City":"BURNABY"}},{"type":"Feature","id":309,"geometry":{"type":"Point","coordinates":[-118.20762617250655,51.00453404511397]},"properties":{"FID":309,"Bldng_ID":"B0092054","Bldng_Type":"Courthouse","Address":"1113 West 2nd St.","City":"REVELSTOKE"}},{"type":"Feature","id":310,"geometry":{"type":"Point","coordinates":[-117.37230712390208,49.990431603454475]},"properties":{"FID":310,"Bldng_ID":"B0091659","Bldng_Type":"Residential Detached","Address":"407 Slocan Ave.","City":"NEW DENVER"}},{"type":"Feature","id":311,"geometry":{"type":"Point","coordinates":[-123.41170967903575,48.4860610970034]},"properties":{"FID":311,"Bldng_ID":"B0092322","Bldng_Type":"Laboratory","Address":"4300 North Rd.","City":"SAANICH"}},{"type":"Feature","id":312,"geometry":{"type":"Point","coordinates":[-120.15910407958997,53.30082573830045]},"properties":{"FID":312,"Bldng_ID":"B0091281","Bldng_Type":"Residential Detached","Address":"710 Dominion St.","City":"MCBRIDE"}},{"type":"Feature","id":313,"geometry":{"type":"Point","coordinates":[-123.13062654788233,49.26372782842905]},"properties":{"FID":313,"Bldng_ID":"B0068068","Bldng_Type":"Office","Address":"1177 W. Broadway","City":"VANCOUVER"}},{"type":"Feature","id":314,"geometry":{"type":"Point","coordinates":[-123.11539884127309,49.28476821371922]},"properties":{"FID":314,"Bldng_ID":"B0092681","Bldng_Type":"Office","Address":"700 W. Pender St.","City":"VANCOUVER"}},{"type":"Feature","id":315,"geometry":{"type":"Point","coordinates":[-119.27907079022017,50.700589458994074]},"properties":{"FID":315,"Bldng_ID":"B0092308","Bldng_Type":"Courthouse","Address":"550 2nd. Ave N.E.","City":"SALMON ARM"}},{"type":"Feature","id":316,"geometry":{"type":"Point","coordinates":[-122.83972437616677,49.19335063985161]},"properties":{"FID":316,"Bldng_ID":"B0092143","Bldng_Type":"Office","Address":"10475 138th St.,","City":"SURREY"}},{"type":"Feature","id":317,"geometry":{"type":"Point","coordinates":[-131.82048990189378,53.24430950900489]},"properties":{"FID":317,"Bldng_ID":"B0091308","Bldng_Type":"Residential Detached","Address":"364 Christina Pl.","City":"SANDSPIT"}},{"type":"Feature","id":318,"geometry":{"type":"Point","coordinates":[-123.1390572695446,49.72657506770526]},"properties":{"FID":318,"Bldng_ID":"B0092466","Bldng_Type":"Storage Small","Address":"42000 Loggers Lane","City":"SQUAMISH"}},{"type":"Feature","id":319,"geometry":{"type":"Point","coordinates":[-122.32671426271462,49.053244687621955]},"properties":{"FID":319,"Bldng_ID":"B0092419","Bldng_Type":"Office","Address":"32463 Simon Ave.","City":"ABBOTSFORD"}},{"type":"Feature","id":320,"geometry":{"type":"Point","coordinates":[-124.04999386582891,49.207944707310666]},"properties":{"FID":320,"Bldng_ID":"B0092620","Bldng_Type":"Jail","Address":"3945 Biggs Road","City":"NANAIMO"}},{"type":"Feature","id":321,"geometry":{"type":"Point","coordinates":[-121.93368235588486,50.69397803445079]},"properties":{"FID":321,"Bldng_ID":"B0092056","Bldng_Type":"Courthouse","Address":"615 Main St.","City":"LILLOOET"}},{"type":"Feature","id":322,"geometry":{"type":"Point","coordinates":[-122.49806649381435,53.01272805007517]},"properties":{"FID":322,"Bldng_ID":"B0078083","Bldng_Type":"Yard Office","Address":"Hwy. 97 N.","City":"QUESNEL"}},{"type":"Feature","id":323,"geometry":{"type":"Point","coordinates":[-120.880178278627,50.00128400001502]},"properties":{"FID":323,"Bldng_ID":"B0078038","Bldng_Type":"Office","Address":"Coquihalla Hwy.","City":"COLDWATER LAKES"}},{"type":"Feature","id":324,"geometry":{"type":"Point","coordinates":[-119.68548729376148,50.818378087758376]},"properties":{"FID":324,"Bldng_ID":"B0091860","Bldng_Type":"Ambulance","Address":"825 Thompson","City":"CHASE"}},{"type":"Feature","id":325,"geometry":{"type":"Point","coordinates":[-132.1472288308292,54.01146706809728]},"properties":{"FID":325,"Bldng_ID":"B0091277","Bldng_Type":"Residential Detached","Address":"2153 Collison Ave.","City":"MASSET"}},{"type":"Feature","id":326,"geometry":{"type":"Point","coordinates":[-122.13709943456861,52.13053362942294]},"properties":{"FID":326,"Bldng_ID":"B0092174","Bldng_Type":"Office","Address":"640 Borland Street","City":"WILLIAMS LAKE"}},{"type":"Feature","id":327,"geometry":{"type":"Point","coordinates":[-116.9603269195227,51.295874429855814]},"properties":{"FID":327,"Bldng_ID":"B0092226","Bldng_Type":"Office","Address":"1104 9th St.","City":"GOLDEN"}},{"type":"Feature","id":328,"geometry":{"type":"Point","coordinates":[-132.11604574397316,53.25403235316244]},"properties":{"FID":328,"Bldng_ID":"B0078126","Bldng_Type":"Storage Small","Address":"1229 Oceanview Drive","City":"QUEEN CHARLOTTE CITY"}},{"type":"Feature","id":329,"geometry":{"type":"Point","coordinates":[-123.00720981504672,49.25131118044462]},"properties":{"FID":329,"Bldng_ID":"B0078614","Bldng_Type":"Office","Address":"3655 Willingdon Ave.","City":"BURNABY"}},{"type":"Feature","id":330,"geometry":{"type":"Point","coordinates":[-121.96412522171835,49.15150873773168]},"properties":{"FID":330,"Bldng_ID":"B0092554","Bldng_Type":"Office","Address":"45540 Yale Road","City":"CHILLIWACK"}},{"type":"Feature","id":331,"geometry":{"type":"Point","coordinates":[-120.99781802981131,55.129788999547934]},"properties":{"FID":331,"Bldng_ID":"B0091324","Bldng_Type":"Residential Detached","Address":"224 Cottonwood","City":"TUMBLER RIDGE"}},{"type":"Feature","id":332,"geometry":{"type":"Point","coordinates":[-121.29595183102414,51.6406309304175]},"properties":{"FID":332,"Bldng_ID":"B0092607","Bldng_Type":"Office","Address":"475 Birch Ave. South","City":"HUNDRED MILE HOUSE"}},{"type":"Feature","id":333,"geometry":{"type":"Point","coordinates":[-122.2766052463531,49.03838169175889]},"properties":{"FID":333,"Bldng_ID":"B0067779","Bldng_Type":"Ambulance","Address":"2000 Abbotsford Way","City":"ABBOTSFORD"}},{"type":"Feature","id":334,"geometry":{"type":"Point","coordinates":[-122.81045978594035,49.23031120565438]},"properties":{"FID":334,"Bldng_ID":"B0091355","Bldng_Type":"Hospital","Address":"70 Colony Farm Rd.","City":"COQUITLAM"}},{"type":"Feature","id":335,"geometry":{"type":"Point","coordinates":[-121.91490157055297,56.026697005372355]},"properties":{"FID":335,"Bldng_ID":"B0090375","Bldng_Type":"Ambulance","Address":"10309 Kyllo Street","City":"HUDSON'S HOPE"}},{"type":"Feature","id":336,"geometry":{"type":"Point","coordinates":[-119.28079518502818,50.70229712903866]},"properties":{"FID":336,"Bldng_ID":"B0090378","Bldng_Type":"Office","Address":"351 Hudson Ave. N.E.","City":"SALMON ARM"}},{"type":"Feature","id":337,"geometry":{"type":"Point","coordinates":[-117.7922804622973,49.07589220310763]},"properties":{"FID":337,"Bldng_ID":"B0090182","Bldng_Type":"Ambulance","Address":"1961 Georgia St.","City":"ROSSLAND"}},{"type":"Feature","id":338,"geometry":{"type":"Point","coordinates":[-121.2804495549871,50.720881889134006]},"properties":{"FID":338,"Bldng_ID":"B0067564","Bldng_Type":"Office","Address":"611 Railway Ave.","City":"ASHCROFT"}},{"type":"Feature","id":339,"geometry":{"type":"Point","coordinates":[-120.99982971901079,55.12897890185656]},"properties":{"FID":339,"Bldng_ID":"B0091322","Bldng_Type":"Residential Detached","Address":"119 Ash Cres.","City":"TUMBLER RIDGE"}},{"type":"Feature","id":340,"geometry":{"type":"Point","coordinates":[-119.49203999712225,49.88845006225576]},"properties":{"FID":340,"Bldng_ID":"B0091778","Bldng_Type":"Office","Address":"1420 St. Paul St.","City":"KELOWNA"}},{"type":"Feature","id":341,"geometry":{"type":"Point","coordinates":[-123.7580101037514,49.472402745937224]},"properties":{"FID":341,"Bldng_ID":"B0092752","Bldng_Type":"Office","Address":"105 5697 Cowrie Street","City":"SECHELT"}},{"type":"Feature","id":342,"geometry":{"type":"Point","coordinates":[-122.78020255983098,49.15795504455578]},"properties":{"FID":342,"Bldng_ID":"B0092685","Bldng_Type":"Office","Address":"15955 Fraser Hwy","City":"SURREY"}},{"type":"Feature","id":343,"geometry":{"type":"Point","coordinates":[-122.74788846752016,53.917499234793695]},"properties":{"FID":343,"Bldng_ID":"B1002278","Bldng_Type":"Office","Address":"1411 - 3rd Ave.","City":"PRINCE GEORGE"}},{"type":"Feature","id":344,"geometry":{"type":"Point","coordinates":[-120.36270147386762,50.66696155373086]},"properties":{"FID":344,"Bldng_ID":"B0073858","Bldng_Type":"Storage Small","Address":"1255 Dalhousie Dr.","City":"KAMLOOPS"}},{"type":"Feature","id":345,"geometry":{"type":"Point","coordinates":[-119.24803495623671,50.251810309237705]},"properties":{"FID":345,"Bldng_ID":"B1002333","Bldng_Type":"Health Unit","Address":"1440-14th Ave.","City":"VERNON"}},{"type":"Feature","id":346,"geometry":{"type":"Point","coordinates":[-120.78597128589438,50.10847291766621]},"properties":{"FID":346,"Bldng_ID":"B0091637","Bldng_Type":"Office","Address":"2172 Coutlee Ave.","City":"MERRITT"}},{"type":"Feature","id":347,"geometry":{"type":"Point","coordinates":[-121.75923741764832,49.2383113283378]},"properties":{"FID":347,"Bldng_ID":"B0081463","Bldng_Type":"Ambulance","Address":"7260 Pioneer Ave.","City":"AGASSIZ"}},{"type":"Feature","id":348,"geometry":{"type":"Point","coordinates":[-122.71294605122029,53.90672684515215]},"properties":{"FID":348,"Bldng_ID":"B0092113","Bldng_Type":"Jail","Address":"795 Hwy. 16 E.","City":"PRINCE GEORGE"}},{"type":"Feature","id":349,"geometry":{"type":"Point","coordinates":[-123.27140241404078,52.085925142783566]},"properties":{"FID":349,"Bldng_ID":"B0091965","Bldng_Type":"Mobile Home","Address":"2615 Stum Lake Rd","City":"ALEXIS CREEK"}},{"type":"Feature","id":350,"geometry":{"type":"Point","coordinates":[-132.09667513256142,53.25493657267611]},"properties":{"FID":350,"Bldng_ID":"B0092527","Bldng_Type":"Mobile Home","Address":"3507 1 - 3rd Ave.","City":"QUEEN CHARLOTTE CITY"}},{"type":"Feature","id":351,"geometry":{"type":"Point","coordinates":[-120.99329602001384,55.139047195890015]},"properties":{"FID":351,"Bldng_ID":"B0091325","Bldng_Type":"Residential Detached","Address":"124 Murray Dr.","City":"TUMBLER RIDGE"}},{"type":"Feature","id":352,"geometry":{"type":"Point","coordinates":[-122.51231534826067,49.255648299760914]},"properties":{"FID":352,"Bldng_ID":"B1002240","Bldng_Type":"Jail","Address":"13777 - 256TH STREET","City":"MAPLE RIDGE"}},{"type":"Feature","id":353,"geometry":{"type":"Point","coordinates":[-120.99100301446732,55.12384410056092]},"properties":{"FID":353,"Bldng_ID":"B0091977","Bldng_Type":"Ambulance","Address":"131 Commercial Park Rd.","City":"TUMBLER RIDGE"}},{"type":"Feature","id":354,"geometry":{"type":"Point","coordinates":[-123.36855376307831,48.424901140468904]},"properties":{"FID":354,"Bldng_ID":"B0092672","Bldng_Type":"Office","Address":"525 Fort St.","City":"VICTORIA"}},{"type":"Feature","id":355,"geometry":{"type":"Point","coordinates":[-123.36937636184156,48.41889443268192]},"properties":{"FID":355,"Bldng_ID":"B0092734","Bldng_Type":"Office","Address":"612 Government St.","City":"VICTORIA"}},{"type":"Feature","id":356,"geometry":{"type":"Point","coordinates":[-120.41413058671314,50.66644989213679]},"properties":{"FID":356,"Bldng_ID":"B0092663","Bldng_Type":"Jail","Address":"2250 Trans Canada Hwy.","City":"KAMLOOPS"}},{"type":"Feature","id":357,"geometry":{"type":"Point","coordinates":[-120.84026346389093,56.24658115103773]},"properties":{"FID":357,"Bldng_ID":"B0091745","Bldng_Type":"Ambulance","Address":"10010 96th Street","City":"FORT ST. JOHN"}},{"type":"Feature","id":358,"geometry":{"type":"Point","coordinates":[-122.71249544986217,53.90726880733206]},"properties":{"FID":358,"Bldng_ID":"B0072694","Bldng_Type":"Site Service","Address":"775 Hwy. 16 E.","City":"PRINCE GEORGE"}},{"type":"Feature","id":359,"geometry":{"type":"Point","coordinates":[-121.95377723257724,49.171393741978946]},"properties":{"FID":359,"Bldng_ID":"B0091910","Bldng_Type":"Office","Address":"45960 Wellington Ave.","City":"CHILLIWACK"}},{"type":"Feature","id":360,"geometry":{"type":"Point","coordinates":[-120.85095346617055,56.25231415582324]},"properties":{"FID":360,"Bldng_ID":"B0092023","Bldng_Type":"Office","Address":"10615 102 St.","City":"FORT ST. JOHN"}},{"type":"Feature","id":361,"geometry":{"type":"Point","coordinates":[-122.81065427933474,49.23025564054526]},"properties":{"FID":361,"Bldng_ID":"B0091354","Bldng_Type":"Hospital","Address":"70 Colony Farm Rd.","City":"COQUITLAM"}},{"type":"Feature","id":362,"geometry":{"type":"Point","coordinates":[-122.84316158293801,49.18783513286849]},"properties":{"FID":362,"Bldng_ID":"B0092700","Bldng_Type":"Office","Address":"13650 102 Avenue","City":"SURREY"}},{"type":"Feature","id":363,"geometry":{"type":"Point","coordinates":[-116.52497253110361,49.11008967257871]},"properties":{"FID":363,"Bldng_ID":"B0092324","Bldng_Type":"Storage Small","Address":"1243 Northwest Blvd","City":"CRESTON"}},{"type":"Feature","id":364,"geometry":{"type":"Point","coordinates":[-122.81434337408683,49.19889463760293]},"properties":{"FID":364,"Bldng_ID":"B0092589","Bldng_Type":"Office","Address":"14727 108th Ave.","City":"SURREY"}},{"type":"Feature","id":365,"geometry":{"type":"Point","coordinates":[-119.24735317559343,50.69255713274357]},"properties":{"FID":365,"Bldng_ID":"B0091796","Bldng_Type":"Ambulance","Address":"3290 10th Ave. S.E.","City":"SALMON ARM"}},{"type":"Feature","id":366,"geometry":{"type":"Point","coordinates":[-120.032620615497,51.64442707947955]},"properties":{"FID":366,"Bldng_ID":"B0091638","Bldng_Type":"Office","Address":"117 Clearwater Station Rd.","City":"CLEARWATER"}},{"type":"Feature","id":367,"geometry":{"type":"Point","coordinates":[-121.95198222026643,49.157691733450264]},"properties":{"FID":367,"Bldng_ID":"B0092147","Bldng_Type":"Ambulance","Address":"8530 Young Rd.,","City":"CHILLIWACK"}},{"type":"Feature","id":368,"geometry":{"type":"Point","coordinates":[-120.42554318370367,50.666311550960714]},"properties":{"FID":368,"Bldng_ID":"B0078186","Bldng_Type":"Weigh Station","Address":"2650 Trans Canada Hwy. W.","City":"KAMLOOPS"}},{"type":"Feature","id":369,"geometry":{"type":"Point","coordinates":[-128.59164750451455,54.51831446195028]},"properties":{"FID":369,"Bldng_ID":"B1002261","Bldng_Type":"Office","Address":"4634 PARK AVE.","City":"TERRACE"}},{"type":"Feature","id":370,"geometry":{"type":"Point","coordinates":[-121.75945127646187,49.07797601976767]},"properties":{"FID":370,"Bldng_ID":"B0091894","Bldng_Type":"Trailer Office","Address":"57657 Chilliwack Lake Rd.","City":"CHILLIWACK"}},{"type":"Feature","id":371,"geometry":{"type":"Point","coordinates":[-123.3587416604622,48.42567513986395]},"properties":{"FID":371,"Bldng_ID":"B1002234","Bldng_Type":"Office","Address":"914 Yates Street","City":"VICTORIA"}},{"type":"Feature","id":372,"geometry":{"type":"Point","coordinates":[-124.03814357469082,49.20867749491474]},"properties":{"FID":372,"Bldng_ID":"B0091596","Bldng_Type":"Ambulance","Address":"4415 Boban Dr.","City":"NANAIMO"}},{"type":"Feature","id":373,"geometry":{"type":"Point","coordinates":[-123.375627264091,48.44019353935603]},"properties":{"FID":373,"Bldng_ID":"B1002468","Bldng_Type":"Office","Address":"320 Garbally Rd.","City":"VICTORIA"}},{"type":"Feature","id":374,"geometry":{"type":"Point","coordinates":[-128.5870061949629,54.516874064579966]},"properties":{"FID":374,"Bldng_ID":"B1002263","Bldng_Type":"Office","Address":"3228 Kalum Street","City":"TERRACE"}},{"type":"Feature","id":375,"geometry":{"type":"Point","coordinates":[-123.37465726562667,48.42188354111104]},"properties":{"FID":375,"Bldng_ID":"B1002462","Bldng_Type":"Hospitality","Address":"254 Belleville St.","City":"VICTORIA"}},{"type":"Feature","id":376,"geometry":{"type":"Point","coordinates":[-121.75945127646187,49.07797601976767]},"properties":{"FID":376,"Bldng_ID":"B1002326","Bldng_Type":"School","Address":"57657 Chilliwack Lake Rd.","City":"CHILLIWACK"}},{"type":"Feature","id":377,"geometry":{"type":"Point","coordinates":[-116.0280339066477,50.50943705295281]},"properties":{"FID":377,"Bldng_ID":"B0092443","Bldng_Type":"Storage Small","Address":"625 4th St.","City":"INVERMERE"}},{"type":"Feature","id":378,"geometry":{"type":"Point","coordinates":[-123.08867744309,49.282123608410636]},"properties":{"FID":378,"Bldng_ID":"B0091670","Bldng_Type":"Ambulance","Address":"731 E. Cordova St.","City":"VANCOUVER"}},{"type":"Feature","id":379,"geometry":{"type":"Point","coordinates":[-123.07305942567382,49.24848861537168]},"properties":{"FID":379,"Bldng_ID":"B0091662","Bldng_Type":"Ambulance","Address":"1538 King Edward Ave.","City":"VANCOUVER"}},{"type":"Feature","id":380,"geometry":{"type":"Point","coordinates":[-133.68954515218024,59.57803230467089]},"properties":{"FID":380,"Bldng_ID":"B0092478","Bldng_Type":"Storage Small","Address":"3rd St.","City":"ATLIN"}},{"type":"Feature","id":381,"geometry":{"type":"Point","coordinates":[-123.37205426364665,48.42121653926161]},"properties":{"FID":381,"Bldng_ID":"B1002463","Bldng_Type":"Hospitality","Address":"430 Belleville Street","City":"VICTORIA"}},{"type":"Feature","id":382,"geometry":{"type":"Point","coordinates":[-122.79632246652547,53.90319749805339]},"properties":{"FID":382,"Bldng_ID":"B0083071","Bldng_Type":"Warehouse","Address":"3980 22nd Ave.","City":"PRINCE GEORGE"}},{"type":"Feature","id":383,"geometry":{"type":"Point","coordinates":[-122.15577724840458,52.14188917811527]},"properties":{"FID":383,"Bldng_ID":"B0082685","Bldng_Type":"Industrial Maintenance","Address":"1010 Mackenzie Ave.","City":"WILLIAMS LAKE"}},{"type":"Feature","id":384,"geometry":{"type":"Point","coordinates":[-122.70359984857991,53.90120483421838]},"properties":{"FID":384,"Bldng_ID":"B0091653","Bldng_Type":"Dormitory","Address":"1211 Gunn Rd.","City":"PRINCE GEORGE"}},{"type":"Feature","id":385,"geometry":{"type":"Point","coordinates":[-123.36614626017318,48.42072753747312]},"properties":{"FID":385,"Bldng_ID":"B1002480","Bldng_Type":"Commercial","Address":"719 Douglas Street","City":"VICTORIA"}},{"type":"Feature","id":386,"geometry":{"type":"Point","coordinates":[-128.60414580609302,54.5129717259297]},"properties":{"FID":386,"Bldng_ID":"B0092434","Bldng_Type":"Office","Address":"4825 Keith Ave","City":"TERRACE"}},{"type":"Feature","id":387,"geometry":{"type":"Point","coordinates":[-119.49659500405069,49.885497053134664]},"properties":{"FID":387,"Bldng_ID":"B0092033","Bldng_Type":"Office","Address":"1517 Water St.","City":"KELOWNA"}},{"type":"Feature","id":388,"geometry":{"type":"Point","coordinates":[-123.1388849781638,49.72585284691111]},"properties":{"FID":388,"Bldng_ID":"B0092465","Bldng_Type":"Storage Small","Address":"42000 Loggers Lane","City":"SQUAMISH"}},{"type":"Feature","id":389,"geometry":{"type":"Point","coordinates":[-123.33030265470656,48.429754549150694]},"properties":{"FID":389,"Bldng_ID":"B0092128","Bldng_Type":"Office","Address":"1900 Richmond Ave.","City":"VICTORIA"}},{"type":"Feature","id":390,"geometry":{"type":"Point","coordinates":[-123.36848746389487,48.418811102892285]},"properties":{"FID":390,"Bldng_ID":"B0010223","Bldng_Type":"Office","Address":"617 Government St.","City":"VICTORIA"}},{"type":"Feature","id":391,"geometry":{"type":"Point","coordinates":[-123.00579322533198,49.25345006383178]},"properties":{"FID":391,"Bldng_ID":"B0019596","Bldng_Type":"Site Service","Address":"3405 Willingdon Ave.","City":"BURNABY"}},{"type":"Feature","id":392,"geometry":{"type":"Point","coordinates":[-120.86982063631227,49.11578364072216]},"properties":{"FID":392,"Bldng_ID":"B0022855","Bldng_Type":"Storage Vehicle","Address":"7413 Southern Trans Prov Hwy.","City":"ALLISON PASS"}},{"type":"Feature","id":393,"geometry":{"type":"Point","coordinates":[-123.19907105347218,49.26753337576665]},"properties":{"FID":393,"Bldng_ID":"B0016832","Bldng_Type":"Food Services","Address":"4180 W. 4th Ave.","City":"VANCOUVER"}},{"type":"Feature","id":394,"geometry":{"type":"Point","coordinates":[-122.80363008089644,49.24888332958343]},"properties":{"FID":394,"Bldng_ID":"B0021915","Bldng_Type":"Dormitory","Address":"2601 Lougheed Hwy.","City":"COQUITLAM"}},{"type":"Feature","id":395,"geometry":{"type":"Point","coordinates":[-122.80514289050213,49.245910254450585]},"properties":{"FID":395,"Bldng_ID":"B0021626","Bldng_Type":"Food Services","Address":"2601 Lougheed Hwy.","City":"COQUITLAM"}},{"type":"Feature","id":396,"geometry":{"type":"Point","coordinates":[-121.76260517312708,49.075769752976335]},"properties":{"FID":396,"Bldng_ID":"B0024182","Bldng_Type":"Dormitory","Address":"53033 Chilliwack Lake Rd.","City":"CHILLIWACK"}},{"type":"Feature","id":397,"geometry":{"type":"Point","coordinates":[-122.80614338523218,49.25083552146218]},"properties":{"FID":397,"Bldng_ID":"B0021683","Bldng_Type":"Hospital","Address":"2601 Lougheed Hwy.","City":"COQUITLAM"}},{"type":"Feature","id":398,"geometry":{"type":"Point","coordinates":[-122.80260018706257,49.24989182030547]},"properties":{"FID":398,"Bldng_ID":"B0021949","Bldng_Type":"Dormitory","Address":"2601 Lougheed Hwy.","City":"COQUITLAM"}},{"type":"Feature","id":399,"geometry":{"type":"Point","coordinates":[-121.76260517312708,49.075769752976335]},"properties":{"FID":399,"Bldng_ID":"B0019927","Bldng_Type":"Office","Address":"53033 Chilliwack Lake Rd.","City":"CHILLIWACK"}},{"type":"Feature","id":400,"geometry":{"type":"Point","coordinates":[-122.80075478604986,49.25589685110556]},"properties":{"FID":400,"Bldng_ID":"B0022327","Bldng_Type":"Office","Address":"2601 Lougheed Hwy.","City":"COQUITLAM"}},{"type":"Feature","id":401,"geometry":{"type":"Point","coordinates":[-122.8029756593138,49.25131699337964]},"properties":{"FID":401,"Bldng_ID":"B0022046","Bldng_Type":"Office","Address":"2601 Lougheed Hwy.","City":"COQUITLAM"}},{"type":"Feature","id":402,"geometry":{"type":"Point","coordinates":[-123.00651541911152,49.25039451256993]},"properties":{"FID":402,"Bldng_ID":"B0019612","Bldng_Type":"Jail","Address":"3655 Willingdon Ave.","City":"BURNABY"}},{"type":"Feature","id":403,"geometry":{"type":"Point","coordinates":[-123.37059855864881,48.41789442776404]},"properties":{"FID":403,"Bldng_ID":"B0010629","Bldng_Type":"Office","Address":"539 Superior St.","City":"VICTORIA"}},{"type":"Feature","id":404,"geometry":{"type":"Point","coordinates":[-123.3423763483925,48.41847776071731]},"properties":{"FID":404,"Bldng_ID":"B0043356","Bldng_Type":"Residential Detached","Address":"1401 Rockland Ave.","City":"VICTORIA"}},{"type":"Feature","id":405,"geometry":{"type":"Point","coordinates":[-116.95512568722671,50.14418414016912]},"properties":{"FID":405,"Bldng_ID":"B0032532","Bldng_Type":"Industrial Maintenance","Address":"11785 Hwy. 31","City":"LARDEAU"}},{"type":"Feature","id":406,"geometry":{"type":"Point","coordinates":[-116.83511724330529,49.6826730121562]},"properties":{"FID":406,"Bldng_ID":"B0034587","Bldng_Type":"Storage Small","Address":"16332 Hwy. 3a","City":"CRAWFORD BAY"}},{"type":"Feature","id":407,"geometry":{"type":"Point","coordinates":[-122.79181786453293,53.901031922624576]},"properties":{"FID":407,"Bldng_ID":"B0036673","Bldng_Type":"Storage Small","Address":"2275 Quinn St.","City":"PRINCE GEORGE"}},{"type":"Feature","id":408,"geometry":{"type":"Point","coordinates":[-123.00618211788515,49.25353339919266]},"properties":{"FID":408,"Bldng_ID":"B0019661","Bldng_Type":"Residential Detached","Address":"3405 Willingdon Ave.","City":"BURNABY"}},{"type":"Feature","id":409,"geometry":{"type":"Point","coordinates":[-122.80383398750534,49.24858568637058]},"properties":{"FID":409,"Bldng_ID":"B0021907","Bldng_Type":"Dormitory","Address":"2601 Lougheed Hwy.","City":"COQUITLAM"}},{"type":"Feature","id":410,"geometry":{"type":"Point","coordinates":[-124.04857116559266,49.207366606417665]},"properties":{"FID":410,"Bldng_ID":"B0013813","Bldng_Type":"Hall","Address":"3945 Biggs Rd.","City":"NANAIMO"}},{"type":"Feature","id":411,"geometry":{"type":"Point","coordinates":[-122.80436508470066,49.24806041398921]},"properties":{"FID":411,"Bldng_ID":"B0021881","Bldng_Type":"Dormitory","Address":"2601 Lougheed Hwy.","City":"COQUITLAM"}},{"type":"Feature","id":412,"geometry":{"type":"Point","coordinates":[-130.3205764501673,54.31653260516067]},"properties":{"FID":412,"Bldng_ID":"B0040295","Bldng_Type":"Courthouse","Address":"100 Market Pl.","City":"PRINCE RUPERT"}},{"type":"Feature","id":413,"geometry":{"type":"Point","coordinates":[-123.00673761783811,49.25281118402067]},"properties":{"FID":413,"Bldng_ID":"B0048736","Bldng_Type":"Health Unit","Address":"3405 Willingdon Ave.","City":"BURNABY"}},{"type":"Feature","id":414,"geometry":{"type":"Point","coordinates":[-121.14528040761037,53.7282449250649]},"properties":{"FID":414,"Bldng_ID":"B0036517","Bldng_Type":"Storage Small","Address":"Hwy. 16","City":"SLIM CREEK"}},{"type":"Feature","id":415,"geometry":{"type":"Point","coordinates":[-120.84826746425625,56.25217282475662]},"properties":{"FID":415,"Bldng_ID":"B0038695","Bldng_Type":"Courthouse","Address":"10600 100th St.","City":"FORT ST. JOHN"}},{"type":"Feature","id":416,"geometry":{"type":"Point","coordinates":[-122.91087647606717,49.156366741085144]},"properties":{"FID":416,"Bldng_ID":"B0049718","Bldng_Type":"Office","Address":"11245 84th Ave.","City":"DELTA"}},{"type":"Feature","id":417,"geometry":{"type":"Point","coordinates":[-123.36785925443404,48.42418753867956]},"properties":{"FID":417,"Bldng_ID":"B0060434","Bldng_Type":"Office","Address":"609 Broughton St.","City":"VICTORIA"}},{"type":"Feature","id":418,"geometry":{"type":"Point","coordinates":[-123.0695224305121,49.26382661210846]},"properties":{"FID":418,"Bldng_ID":"B0057125","Bldng_Type":"Office","Address":"2350 Commercial Dr.","City":"VANCOUVER"}},{"type":"Feature","id":419,"geometry":{"type":"Point","coordinates":[-123.36400025866398,48.4242035432423]},"properties":{"FID":419,"Bldng_ID":"B0060426","Bldng_Type":"Office","Address":"747 Fort St.","City":"VICTORIA"}},{"type":"Feature","id":420,"geometry":{"type":"Point","coordinates":[-123.26524410625233,52.085191812787926]},"properties":{"FID":420,"Bldng_ID":"B0048389","Bldng_Type":"Ambulance","Address":"7613 McAuley Rd.","City":"ALEXIS CREEK"}},{"type":"Feature","id":421,"geometry":{"type":"Point","coordinates":[-120.32810426316735,50.66985044373746]},"properties":{"FID":421,"Bldng_ID":"B0045815","Bldng_Type":"Industrial Maintenance","Address":"561 Columbia St.","City":"KAMLOOPS"}},{"type":"Feature","id":422,"geometry":{"type":"Point","coordinates":[-126.04830502684224,49.78097228142561]},"properties":{"FID":422,"Bldng_ID":"B0052753","Bldng_Type":"Office","Address":"499 Muchalat Dr.","City":"GOLD RIVER"}},{"type":"Feature","id":423,"geometry":{"type":"Point","coordinates":[-123.33987485199476,48.41997864567578]},"properties":{"FID":423,"Bldng_ID":"B0048066","Bldng_Type":"Residential Detached","Address":"1471 Rockland Ave.","City":"VICTORIA"}},{"type":"Feature","id":424,"geometry":{"type":"Point","coordinates":[-120.78754229327942,50.10889091710023]},"properties":{"FID":424,"Bldng_ID":"B0050229","Bldng_Type":"Office","Address":"2090 Coutlee Ave.","City":"MERRITT"}},{"type":"Feature","id":425,"geometry":{"type":"Point","coordinates":[-123.06976944134463,49.27285861187208]},"properties":{"FID":425,"Bldng_ID":"B0050989","Bldng_Type":"Office","Address":"1311 Commercial Dr.","City":"VANCOUVER"}},{"type":"Feature","id":426,"geometry":{"type":"Point","coordinates":[-123.36840416317489,48.42386665246996]},"properties":{"FID":426,"Bldng_ID":"B0056226","Bldng_Type":"Office","Address":"910 Government St.","City":"VICTORIA"}},{"type":"Feature","id":427,"geometry":{"type":"Point","coordinates":[-128.59817599726904,54.517937064267564]},"properties":{"FID":427,"Bldng_ID":"B0067021","Bldng_Type":"Office","Address":"3220 Eby St.","City":"TERRACE"}},{"type":"Feature","id":428,"geometry":{"type":"Point","coordinates":[-132.1153568341785,53.25319345886981]},"properties":{"FID":428,"Bldng_ID":"B0067301","Bldng_Type":"Office","Address":"1229 Oceanview Drive","City":"QUEEN CHARLOTTE CITY"}},{"type":"Feature","id":429,"geometry":{"type":"Point","coordinates":[-123.3609722772556,48.47044754845591]},"properties":{"FID":429,"Bldng_ID":"B0065532","Bldng_Type":"Office","Address":"1150 Mckenzie Ave.","City":"SAANICH"}},{"type":"Feature","id":430,"geometry":{"type":"Point","coordinates":[-123.0247784176,49.234107616929315]},"properties":{"FID":430,"Bldng_ID":"B0066951","Bldng_Type":"Ambulance","Address":"5478 Ormidale St.","City":"VANCOUVER"}},{"type":"Feature","id":431,"geometry":{"type":"Point","coordinates":[-121.63734437842263,55.695811028583165]},"properties":{"FID":431,"Bldng_ID":"B0062588","Bldng_Type":"Ambulance","Address":"5400 N. Access Rd.","City":"CHETWYND"}},{"type":"Feature","id":432,"geometry":{"type":"Point","coordinates":[-120.79714164415842,56.23549856091753]},"properties":{"FID":432,"Bldng_ID":"B0063834","Bldng_Type":"Office","Address":"8819 73 St. & 89 Ave.","City":"FORT ST. JOHN"}},{"type":"Feature","id":433,"geometry":{"type":"Point","coordinates":[-124.51762581580554,49.83601046780842]},