{"type":"FeatureCollection","features":[{"type":"Feature","id":0,"geometry":{"type":"Point","coordinates":[-122.75018786659555,53.916102830090452]},"properties":{"FID":0,"Bldg_ID":"B1002878","Bldg_Type":"Office","Address":"500 Victoria St","City":"PRINCE GEORGE"}},{"type":"Feature","id":1,"geometry":{"type":"Point","coordinates":[-122.74651778929012,53.918267961581499]},"properties":{"FID":1,"Bldg_ID":"B1002875","Bldg_Type":"Office","Address":"1380 - 2nd Avenue","City":"PRINCE GEORGE"}},{"type":"Feature","id":2,"geometry":{"type":"Point","coordinates":[-122.76334144394025,49.24389818588979]},"properties":{"FID":2,"Bldg_ID":"B1002874","Bldg_Type":"Warehouse","Address":"101-1525 Broadway St","City":"PORT COQUITLAM"}},{"type":"Feature","id":3,"geometry":{"type":"Point","coordinates":[-120.32926685421292,50.676478030221013]},"properties":{"FID":3,"Bldg_ID":"B1002873","Bldg_Type":"Office","Address":"121 5th Ave","City":"KAMLOOPS"}},{"type":"Feature","id":4,"geometry":{"type":"Point","coordinates":[-120.36534249103043,50.653952723250079]},"properties":{"FID":4,"Bldg_ID":"B1002870","Bldg_Type":"Office","Address":"1801 Princeton-Kmlps Hwy","City":"KAMLOOPS"}},{"type":"Feature","id":5,"geometry":{"type":"Point","coordinates":[-123.46845593751935,48.441816798068437]},"properties":{"FID":5,"Bldg_ID":"B1002865","Bldg_Type":"Office","Address":"1901 Sooke Rd","City":"VICTORIA"}},{"type":"Feature","id":6,"geometry":{"type":"Point","coordinates":[-122.82200173594804,49.190085965621819]},"properties":{"FID":6,"Bldg_ID":"B1002863","Bldg_Type":"Office","Address":"10430 144th St","City":"SURREY"}},{"type":"Feature","id":7,"geometry":{"type":"Point","coordinates":[-122.78392184281529,53.908555591648152]},"properties":{"FID":7,"Bldg_ID":"B1002862","Bldg_Type":"Storage Open","Address":"1698 Lyon St","City":"PRINCE GEORGE"}},{"type":"Feature","id":8,"geometry":{"type":"Point","coordinates":[-122.15529970366408,52.141596594534704]},"properties":{"FID":8,"Bldg_ID":"B1002861","Bldg_Type":"Storage Vehicle","Address":"1010 MacKenzie Ave","City":"WILLIAMS LAKE"}},{"type":"Feature","id":9,"geometry":{"type":"Point","coordinates":[-120.09683861577734,51.628009074519476]},"properties":{"FID":9,"Bldg_ID":"B1002858","Bldg_Type":"Other","Address":"687 Yellowhead S Hwy5","City":"CLEARWATER"}},{"type":"Feature","id":10,"geometry":{"type":"Point","coordinates":[-120.84685951950495,56.248544007304687]},"properties":{"FID":10,"Bldg_ID":"B1002857","Bldg_Type":"Office","Address":"Unit 2&3 - 10067 100 Ave","City":"FORT ST JOHN"}},{"type":"Feature","id":11,"geometry":{"type":"Point","coordinates":[-122.50399085671529,52.991238687365836]},"properties":{"FID":11,"Bldg_ID":"B1002856","Bldg_Type":"Storage Open","Address":"1089 N Cariboo Hwy 97","City":"QUESNEL"}},{"type":"Feature","id":12,"geometry":{"type":"Point","coordinates":[-128.59423799755348,54.513685061325916]},"properties":{"FID":12,"Bldg_ID":"B1002855","Bldg_Type":"Office","Address":"4712-4714 Keith Ave","City":"TERRACE"}},{"type":"Feature","id":13,"geometry":{"type":"Point","coordinates":[-123.01551542185631,49.249635619525669]},"properties":{"FID":13,"Bldg_ID":"B1002854","Bldg_Type":"Hospital","Address":"3935 Kincaid St","City":"BURNABY"}},{"type":"Feature","id":14,"geometry":{"type":"Point","coordinates":[-127.49437650681827,50.717185134884041]},"properties":{"FID":14,"Bldg_ID":"B1002853","Bldg_Type":"School","Address":"6855 Market St","City":"PORT HARDY"}},{"type":"Feature","id":15,"geometry":{"type":"Point","coordinates":[-116.96596392091321,51.296434429177957]},"properties":{"FID":15,"Bldg_ID":"B1002852","Bldg_Type":"Office","Address":"903/905 9th St","City":"GOLDEN"}},{"type":"Feature","id":16,"geometry":{"type":"Point","coordinates":[-129.99366703385368,58.439956877231481]},"properties":{"FID":16,"Bldg_ID":"B1002851","Bldg_Type":"Office","Address":"Lot 10 Commercial Dr","City":"DEASE LAKE"}},{"type":"Feature","id":17,"geometry":{"type":"Point","coordinates":[-125.24557048419094,50.034370788136584]},"properties":{"FID":17,"Bldg_ID":"B1002842","Bldg_Type":"Office","Address":"1334 Island Hwy","City":"CAMPBELL RIVER"}},{"type":"Feature","id":18,"geometry":{"type":"Point","coordinates":[-122.74552336503476,53.914720830847436]},"properties":{"FID":18,"Bldg_ID":"B1002839","Bldg_Type":"Office","Address":"1185 3rd Ave","City":"PRINCE GEORGE"}},{"type":"Feature","id":19,"geometry":{"type":"Point","coordinates":[-123.32747325520134,48.432780546594913]},"properties":{"FID":19,"Bldg_ID":"B1002837","Bldg_Type":"Office","Address":"1952 Bay St","City":"VICTORIA"}},{"type":"Feature","id":20,"geometry":{"type":"Point","coordinates":[-119.45904498805642,49.881063061512762]},"properties":{"FID":20,"Bldg_ID":"B1002836","Bldg_Type":"Office","Address":"401 1700 Dickson Ave","City":"KELOWNA"}},{"type":"Feature","id":21,"geometry":{"type":"Point","coordinates":[-122.61892334864407,49.217530663604535]},"properties":{"FID":21,"Bldg_ID":"B1002835","Bldg_Type":"Office","Address":"201-21755 Lougheed Hwy","City":"MAPLE RIDGE"}},{"type":"Feature","id":22,"geometry":{"type":"Point","coordinates":[-122.58705424227867,49.212591467276923]},"properties":{"FID":22,"Bldg_ID":"B1002834","Bldg_Type":"Office","Address":"22932 Lougheed Hwy","City":"MAPLE RIDGE"}},{"type":"Feature","id":23,"geometry":{"type":"Point","coordinates":[-122.60423734616907,49.217560665851309]},"properties":{"FID":23,"Bldg_ID":"B1002831","Bldg_Type":"Office","Address":"200 11830 223 St","City":"MAPLE RIDGE"}},{"type":"Feature","id":24,"geometry":{"type":"Point","coordinates":[-128.58037009724001,54.515871683878402]},"properties":{"FID":24,"Bldg_ID":"B1002829","Bldg_Type":"Office","Address":"5504 Lloyde Ave","City":"TERRACE"}},{"type":"Feature","id":25,"geometry":{"type":"Point","coordinates":[-123.11991774768109,49.284179658928949]},"properties":{"FID":25,"Bldg_ID":"B1002828","Bldg_Type":"Office","Address":"925 W Georgia St","City":"VANCOUVER"}},{"type":"Feature","id":26,"geometry":{"type":"Point","coordinates":[-125.90564952986273,49.148245848253595]},"properties":{"FID":26,"Bldg_ID":"B1002827","Bldg_Type":"Hall","Address":"351 Arnet Rd","City":"TOFINO"}},{"type":"Feature","id":27,"geometry":{"type":"Point","coordinates":[-119.44691758685224,49.882818883138704]},"properties":{"FID":27,"Bldg_ID":"B1002825","Bldg_Type":"Office","Address":"2045 Enterprise Way","City":"KELOWNA"}},{"type":"Feature","id":28,"geometry":{"type":"Point","coordinates":[-122.49591258347333,52.979873772252638]},"properties":{"FID":28,"Bldg_ID":"B1002824","Bldg_Type":"Office","Address":"455 McLean St","City":"QUESNEL"}},{"type":"Feature","id":29,"geometry":{"type":"Point","coordinates":[-120.1684100835332,53.305205039230231]},"properties":{"FID":29,"Bldg_ID":"B1002821","Bldg_Type":"Courthouse","Address":"441 Columbia St","City":"MCBRIDE"}},{"type":"Feature","id":30,"geometry":{"type":"Point","coordinates":[-119.59098490722647,49.495528725054349]},"properties":{"FID":30,"Bldg_ID":"B1002818","Bldg_Type":"Office","Address":"501 Main St","City":"PENTICTON"}},{"type":"Feature","id":31,"geometry":{"type":"Point","coordinates":[-122.32762545854885,49.054155589893298]},"properties":{"FID":31,"Bldg_ID":"B1002817","Bldg_Type":"Parking","Address":"32375 Veterans Way","City":"ABBOTSFORD"}},{"type":"Feature","id":32,"geometry":{"type":"Point","coordinates":[-120.37276177041143,50.652118694947518]},"properties":{"FID":32,"Bldg_ID":"B1002814","Bldg_Type":"Office","Address":"1250 Rogers Way","City":"KAMLOOPS"}},{"type":"Feature","id":33,"geometry":{"type":"Point","coordinates":[-122.79137387119756,53.909640825091387]},"properties":{"FID":33,"Bldg_ID":"B1002811","Bldg_Type":"Office","Address":"1558 Quinn Street","City":"PRINCE GEORGE"}},{"type":"Feature","id":34,"geometry":{"type":"Point","coordinates":[-120.78989028886387,50.113026918849329]},"properties":{"FID":34,"Bldg_ID":"B1002806","Bldg_Type":"Office","Address":"1950 Mamette Ave","City":"MERRITT"}},{"type":"Feature","id":35,"geometry":{"type":"Point","coordinates":[-121.6338061564568,49.103630771903042]},"properties":{"FID":35,"Bldg_ID":"B1002805","Bldg_Type":"Office","Address":"57657 Chilliwack Lk Rd","City":"CHILLIWACK"}},{"type":"Feature","id":36,"geometry":{"type":"Point","coordinates":[-128.59417499775651,54.513752061411545]},"properties":{"FID":36,"Bldg_ID":"B1002804","Bldg_Type":"Office","Address":"4710 Keith Ave","City":"TERRACE"}},{"type":"Feature","id":37,"geometry":{"type":"Point","coordinates":[-123.70320040438294,48.782808519763435]},"properties":{"FID":37,"Bldg_ID":"B1002803","Bldg_Type":"Courthouse","Address":"2687 James St","City":"DUNCAN"}},{"type":"Feature","id":38,"geometry":{"type":"Point","coordinates":[-119.62790430455327,49.829852339138156]},"properties":{"FID":38,"Bldg_ID":"B1002801","Bldg_Type":"Office","Address":"2448 Main St","City":"WEST KELOWNA"}},{"type":"Feature","id":39,"geometry":{"type":"Point","coordinates":[-123.41217228485027,48.493178540082255]},"properties":{"FID":39,"Bldg_ID":"B1002798","Bldg_Type":"Office","Address":"1100-100-4464 Markham St","City":"SAANICH"}},{"type":"Feature","id":40,"geometry":{"type":"Point","coordinates":[-117.27882708152896,49.506484945943974]},"properties":{"FID":40,"Bldg_ID":"B1002790","Bldg_Type":"Storage Small","Address":"820 Nelson Ave","City":"NELSON"}},{"type":"Feature","id":41,"geometry":{"type":"Point","coordinates":[-123.70102100194327,48.775020799448349]},"properties":{"FID":41,"Bldg_ID":"B1002784","Bldg_Type":"Office","Address":"7-180 Central Rd","City":"DUNCAN"}},{"type":"Feature","id":42,"geometry":{"type":"Point","coordinates":[-120.89694947627198,56.253450146786264]},"properties":{"FID":42,"Bldg_ID":"B1002783","Bldg_Type":"Office","Address":"10628 Peck Ln","City":"FORT ST JOHN"}},{"type":"Feature","id":43,"geometry":{"type":"Point","coordinates":[-124.31532004226015,49.319722701618396]},"properties":{"FID":43,"Bldg_ID":"B1002782","Bldg_Type":"Office","Address":"103 154 Memorial Ave","City":"PARKSVILLE"}},{"type":"Feature","id":44,"geometry":{"type":"Point","coordinates":[-123.33997825407937,48.418351544147214]},"properties":{"FID":44,"Bldg_ID":"B1002779","Bldg_Type":"Residential Multi","Address":"1401 Rockland Ave","City":"VICTORIA"}},{"type":"Feature","id":45,"geometry":{"type":"Point","coordinates":[-123.33993325477263,48.418332544928056]},"properties":{"FID":45,"Bldg_ID":"B1002778","Bldg_Type":"Residential Detached","Address":"1401 Rockland Ave","City":"VICTORIA"}},{"type":"Feature","id":46,"geometry":{"type":"Point","coordinates":[-123.41338532722929,48.65649554674102]},"properties":{"FID":46,"Bldg_ID":"B1002777","Bldg_Type":"Office","Address":"2071 Malaview Ave","City":"SIDNEY"}},{"type":"Feature","id":47,"geometry":{"type":"Point","coordinates":[-119.27261155907777,50.257068703495449]},"properties":{"FID":47,"Bldg_ID":"B1002776","Bldg_Type":"Office","Address":"2101 32nd St","City":"VERNON"}},{"type":"Feature","id":48,"geometry":{"type":"Point","coordinates":[-126.64319767563137,54.400935325337237]},"properties":{"FID":48,"Bldg_ID":"B1002775","Bldg_Type":"Office","Address":"2430 Butler Ave","City":"HOUSTON"}},{"type":"Feature","id":49,"geometry":{"type":"Point","coordinates":[-126.20532580422524,54.885017313328973]},"properties":{"FID":49,"Bldg_ID":"B1002773","Bldg_Type":"Health Unit","Address":"34 McDonald Ave","City":"GRANISLE"}},{"type":"Feature","id":50,"geometry":{"type":"Point","coordinates":[-126.6481516743236,54.398253324562582]},"properties":{"FID":50,"Bldg_ID":"B1002770","Bldg_Type":"Courthouse","Address":"3367 12th St","City":"HOUSTON"}},{"type":"Feature","id":51,"geometry":{"type":"Point","coordinates":[-120.77370618796962,50.119828081079277]},"properties":{"FID":51,"Bldg_ID":"B1002769","Bldg_Type":"Courthouse","Address":"3420 Voght St","City":"MERRITT"}},{"type":"Feature","id":52,"geometry":{"type":"Point","coordinates":[-116.02860750743022,50.509421489219989]},"properties":{"FID":52,"Bldg_ID":"B1002768","Bldg_Type":"Courthouse","Address":"645 7th Ave","City":"INVERMERE"}},{"type":"Feature","id":53,"geometry":{"type":"Point","coordinates":[-121.94500712658612,49.173848699814698]},"properties":{"FID":53,"Bldg_ID":"B1002764","Bldg_Type":"Office","Address":"46361 Yale Rd","City":"CHILLIWACK"}},{"type":"Feature","id":54,"geometry":{"type":"Point","coordinates":[-122.31259425591486,49.052774691612953]},"properties":{"FID":54,"Bldg_ID":"B1002763","Bldg_Type":"Office","Address":"32885 Ventura Ave","City":"ABBOTSFORD"}},{"type":"Feature","id":55,"geometry":{"type":"Point","coordinates":[-122.7834488732113,53.919130825624649]},"properties":{"FID":55,"Bldg_ID":"B1002762","Bldg_Type":"Office","Address":"761 W Central St","City":"PRINCE GEORGE"}},{"type":"Feature","id":56,"geometry":{"type":"Point","coordinates":[-122.35016128265492,49.133636691100676]},"properties":{"FID":56,"Bldg_ID":"B1002759","Bldg_Type":"Office","Address":"7266A River Pl","City":"MISSION"}},{"type":"Feature","id":57,"geometry":{"type":"Point","coordinates":[-119.39332597903898,49.888620069606105]},"properties":{"FID":57,"Bldg_ID":"B1002758","Bldg_Type":"Office","Address":"405 Hwy 33 W","City":"KELOWNA"}},{"type":"Feature","id":58,"geometry":{"type":"Point","coordinates":[-123.04633982846536,49.257900216511892]},"properties":{"FID":58,"Bldg_ID":"B1002757","Bldg_Type":"Office","Address":"2810 Grandview Hwy","City":"VANCOUVER"}},{"type":"Feature","id":59,"geometry":{"type":"Point","coordinates":[-122.91236689134065,49.199601029104961]},"properties":{"FID":59,"Bldg_ID":"B1002756","Bldg_Type":"Office","Address":"900 Quayside Dr","City":"NEW WESTMINSTER"}},{"type":"Feature","id":60,"geometry":{"type":"Point","coordinates":[-122.74835686627141,53.9160958304468]},"properties":{"FID":60,"Bldg_ID":"B1002755","Bldg_Type":"Office","Address":"490 Brunswick St","City":"PRINCE GEORGE"}},{"type":"Feature","id":61,"geometry":{"type":"Point","coordinates":[-117.66423640639374,49.317714531578375]},"properties":{"FID":61,"Bldg_ID":"B1002754","Bldg_Type":"Storage Small","Address":"845 Columbia Ave","City":"CASTLEGAR"}},{"type":"Feature","id":62,"geometry":{"type":"Point","coordinates":[-122.99371841073304,49.225631621307457]},"properties":{"FID":62,"Bldg_ID":"B1002750","Bldg_Type":"Office","Address":"4980 Kingsway Ave","City":"BURNABY"}},{"type":"Feature","id":63,"geometry":{"type":"Point","coordinates":[-120.33313437080366,50.676114000276449]},"properties":{"FID":63,"Bldg_ID":"B1002749","Bldg_Type":"Office","Address":"340 Victoria St","City":"KAMLOOPS"}},{"type":"Feature","id":64,"geometry":{"type":"Point","coordinates":[-127.08644241105263,50.589284181508383]},"properties":{"FID":64,"Bldg_ID":"B1002746","Bldg_Type":"Office","Address":"1705 Campbell Way","City":"PORT MCNEILL"}},{"type":"Feature","id":65,"geometry":{"type":"Point","coordinates":[-121.42931419515737,49.377645808764051]},"properties":{"FID":65,"Bldg_ID":"B1002745","Bldg_Type":"Office","Address":"650 Kawkawa Lk Rd","City":"HOPE"}},{"type":"Feature","id":66,"geometry":{"type":"Point","coordinates":[-122.31612325196586,49.037842690719529]},"properties":{"FID":66,"Bldg_ID":"B1002744","Bldg_Type":"Health Unit","Address":"32772 Marshall Rd","City":"ABBOTSFORD"}},{"type":"Feature","id":67,"geometry":{"type":"Point","coordinates":[-122.78408126947063,53.908609675259797]},"properties":{"FID":67,"Bldg_ID":"B1002741","Bldg_Type":"Office","Address":"1686 Lyon St","City":"PRINCE GEORGE"}},{"type":"Feature","id":68,"geometry":{"type":"Point","coordinates":[-123.0392291581399,50.08879195355447]},"properties":{"FID":68,"Bldg_ID":"B1002740","Bldg_Type":"Office","Address":"205G-1200 Alpha Lk Rd","City":"WHISTLER"}},{"type":"Feature","id":69,"geometry":{"type":"Point","coordinates":[-123.53419319068951,48.445459023407615]},"properties":{"FID":69,"Bldg_ID":"B1002739","Bldg_Type":"Office","Address":"202-1311 Lkpoint Way","City":"LANGFORD"}},{"type":"Feature","id":70,"geometry":{"type":"Point","coordinates":[-122.70593205259827,53.90233513543275]},"properties":{"FID":70,"Bldg_ID":"B1002738","Bldg_Type":"Storage Small","Address":"1211 Gunn Rd","City":"PRINCE GEORGE"}},{"type":"Feature","id":71,"geometry":{"type":"Point","coordinates":[-116.9731524261498,51.307296928403893]},"properties":{"FID":71,"Bldg_ID":"B1002736","Bldg_Type":"Warehouse","Address":"917 10th Ave N","City":"GOLDEN"}},{"type":"Feature","id":72,"geometry":{"type":"Point","coordinates":[-123.06907873629881,49.271039314751519]},"properties":{"FID":72,"Bldg_ID":"B1002735","Bldg_Type":"Office","Address":"1720 Grant St","City":"VANCOUVER"}},{"type":"Feature","id":73,"geometry":{"type":"Point","coordinates":[-115.98316227659291,49.68709584162923]},"properties":{"FID":73,"Bldg_ID":"B1002734","Bldg_Type":"Office","Address":"77 Deer Park Ave","City":"KIMBERLEY"}},{"type":"Feature","id":74,"geometry":{"type":"Point","coordinates":[-125.55042772279177,48.937732312572031]},"properties":{"FID":74,"Bldg_ID":"B1002732","Bldg_Type":"Office","Address":"500 Matterson Dr","City":"UCLUELET"}},{"type":"Feature","id":75,"geometry":{"type":"Point","coordinates":[-121.48419696530931,49.961127431075653]},"properties":{"FID":75,"Bldg_ID":"B1002731","Bldg_Type":"Office","Address":"53005-1 Kahmoose Rd","City":"BOSTON BAR"}},{"type":"Feature","id":76,"geometry":{"type":"Point","coordinates":[-122.51271654215337,49.254950778306572]},"properties":{"FID":76,"Bldg_ID":"B1002730","Bldg_Type":"Office","Address":"13777 256th St","City":"MAPLE RIDGE"}},{"type":"Feature","id":77,"geometry":{"type":"Point","coordinates":[-121.41157027003713,49.661090824532387]},"properties":{"FID":77,"Bldg_ID":"B1002729","Bldg_Type":"Office","Address":"36437 Main Rd","City":"SPUZZUM"}},{"type":"Feature","id":78,"geometry":{"type":"Point","coordinates":[-123.72394640462784,48.381944799460079]},"properties":{"FID":78,"Bldg_ID":"B1002726","Bldg_Type":"Office","Address":"6672 Wadams Way","City":"SOOKE"}},{"type":"Feature","id":79,"geometry":{"type":"Point","coordinates":[-120.13430288722689,51.188989049400632]},"properties":{"FID":79,"Bldg_ID":"B1002725","Bldg_Type":"Office","Address":"4936 Barriere Town Rd","City":"BARRIERE"}},{"type":"Feature","id":80,"geometry":{"type":"Point","coordinates":[-123.47200798176237,48.444516030865472]},"properties":{"FID":80,"Bldg_ID":"B1002723","Bldg_Type":"Office","Address":"345 Wale Rd","City":"COLWOOD"}},{"type":"Feature","id":81,"geometry":{"type":"Point","coordinates":[-123.36464875923124,48.425143341854721]},"properties":{"FID":81,"Bldg_ID":"B1002722","Bldg_Type":"Office","Address":"1175 Douglas St","City":"VICTORIA"}},{"type":"Feature","id":82,"geometry":{"type":"Point","coordinates":[-121.7303275138723,49.255134758265072]},"properties":{"FID":82,"Bldg_ID":"B1002720","Bldg_Type":"Trailer Office","Address":"2895 Chowat Rd","City":"AGASSIZ"}},{"type":"Feature","id":83,"geometry":{"type":"Point","coordinates":[-122.82788469979324,49.278948342420129]},"properties":{"FID":83,"Bldg_ID":"B1002719","Bldg_Type":"Office","Address":"220 Brew St","City":"PORT MOODY"}},{"type":"Feature","id":84,"geometry":{"type":"Point","coordinates":[-122.14290213728027,52.13305804544909]},"properties":{"FID":84,"Bldg_ID":"B1002718","Bldg_Type":"Office","Address":"280A 3rd Ave N","City":"WILLIAMS LAKE"}},{"type":"Feature","id":85,"geometry":{"type":"Point","coordinates":[-123.05890432552775,49.24194177405851]},"properties":{"FID":85,"Bldg_ID":"B1002717","Bldg_Type":"Office","Address":"2288 Kingsway","City":"VANCOUVER"}},{"type":"Feature","id":86,"geometry":{"type":"Point","coordinates":[-123.37083705890693,48.417703840574958]},"properties":{"FID":86,"Bldg_ID":"B1002716","Bldg_Type":"Office","Address":"545 Superior St","City":"VICTORIA"}},{"type":"Feature","id":87,"geometry":{"type":"Point","coordinates":[-122.66340524120862,49.160140156173625]},"properties":{"FID":87,"Bldg_ID":"B1002715","Bldg_Type":"Office","Address":"20161 86th Ave","City":"LANGLEY"}},{"type":"Feature","id":88,"geometry":{"type":"Point","coordinates":[-122.3134535507657,49.036850490450014]},"properties":{"FID":88,"Bldg_ID":"B1002713","Bldg_Type":"Other","Address":"32900 Marshall Rd","City":"ABBOTSFORD"}},{"type":"Feature","id":89,"geometry":{"type":"Point","coordinates":[-122.32761125809928,49.05369390939304]},"properties":{"FID":89,"Bldg_ID":"B1002712","Bldg_Type":"Courthouse","Address":"32375 Veterans Way","City":"ABBOTSFORD"}},{"type":"Feature","id":90,"geometry":{"type":"Point","coordinates":[-122.85790176719438,49.14036927289883]},"properties":{"FID":90,"Bldg_ID":"B1002711","Bldg_Type":"Office","Address":"7565-132nd St","City":"SURREY"}},{"type":"Feature","id":91,"geometry":{"type":"Point","coordinates":[-125.24351827190209,49.996339087211503]},"properties":{"FID":91,"Bldg_ID":"B1002707","Bldg_Type":"Office","Address":"740 Robron Rd","City":"CAMPBELL RIVER"}},{"type":"Feature","id":92,"geometry":{"type":"Point","coordinates":[-122.84500857590098,49.182212736538645]},"properties":{"FID":92,"Bldg_ID":"B1002701","Bldg_Type":"Office","Address":"9900 King George Blvd","City":"SURREY"}},{"type":"Feature","id":93,"geometry":{"type":"Point","coordinates":[-122.80006268917158,49.25579691457223]},"properties":{"FID":93,"Bldg_ID":"B1002699","Bldg_Type":"Health Unit","Address":"2721 Lougheed Hwy","City":"COQUITLAM"}},{"type":"Feature","id":94,"geometry":{"type":"Point","coordinates":[-123.0063174248595,49.266942621864018]},"properties":{"FID":94,"Bldg_ID":"B1002696","Bldg_Type":"Office","Address":"1901 Rosser Ave","City":"BURNABY"}},{"type":"Feature","id":95,"geometry":{"type":"Point","coordinates":[-124.98599244381545,49.681893716871926]},"properties":{"FID":95,"Bldg_ID":"B1002695","Bldg_Type":"Office","Address":"1978 Cliffe Ave","City":"COURTENAY"}},{"type":"Feature","id":96,"geometry":{"type":"Point","coordinates":[-116.90495951701419,49.910592352931616]},"properties":{"FID":96,"Bldg_ID":"B1002694","Bldg_Type":"Office","Address":"413-4th St","City":"KASLO"}},{"type":"Feature","id":97,"geometry":{"type":"Point","coordinates":[-123.09859245438344,49.323515612948995]},"properties":{"FID":97,"Bldg_ID":"B1002693","Bldg_Type":"Office","Address":"902 W 16th St","City":"NORTH VANCOUVER"}},{"type":"Feature","id":98,"geometry":{"type":"Point","coordinates":[-122.99460841884435,49.255169622368911]},"properties":{"FID":98,"Bldg_ID":"B1002683","Bldg_Type":"Office","Address":"4601 Canada Way","City":"BURNABY"}},{"type":"Feature","id":99,"geometry":{"type":"Point","coordinates":[-120.33528737041493,50.676084000547185]},"properties":{"FID":99,"Bldg_ID":"B1002681","Bldg_Type":"Office","Address":"205-150 Victoria St","City":"KAMLOOPS"}},{"type":"Feature","id":100,"geometry":{"type":"Point","coordinates":[-130.32418614165363,54.313353822899792]},"properties":{"FID":100,"Bldg_ID":"B1002680","Bldg_Type":"Office","Address":"316 3rd Ave","City":"PRINCE RUPERT"}},{"type":"Feature","id":101,"geometry":{"type":"Point","coordinates":[-122.86021836615569,49.138090632277347]},"properties":{"FID":101,"Bldg_ID":"B1002679","Bldg_Type":"Office","Address":"Unit 104  7455 132nd St","City":"SURREY"}},{"type":"Feature","id":102,"geometry":{"type":"Point","coordinates":[-123.09879243747609,49.260487610199263]},"properties":{"FID":102,"Bldg_ID":"B1002677","Bldg_Type":"Office","Address":"255 E 12th Ave","City":"VANCOUVER"}},{"type":"Feature","id":103,"geometry":{"type":"Point","coordinates":[-124.0536685718205,49.208142497523262]},"properties":{"FID":103,"Bldg_ID":"B1002675","Bldg_Type":"Site Service","Address":"3945 Biggs Rd","City":"NANAIMO"}},{"type":"Feature","id":104,"geometry":{"type":"Point","coordinates":[-122.80325537037443,49.186474641677492]},"properties":{"FID":104,"Bldg_ID":"B1002670","Bldg_Type":"Office","Address":"15117-101 Ave","City":"SURREY"}},{"type":"Feature","id":105,"geometry":{"type":"Point","coordinates":[-121.63323815693937,49.105124771978204]},"properties":{"FID":105,"Bldg_ID":"B1002668","Bldg_Type":"Other","Address":"57657 Chilliwack Lk Rd\n","City":"CHILLIWACK"}},{"type":"Feature","id":106,"geometry":{"type":"Point","coordinates":[-121.63372815717136,49.105696771733719]},"properties":{"FID":106,"Bldg_ID":"B1002667","Bldg_Type":"Other","Address":"57657 Chilliwack Lk Rd\n","City":"CHILLIWACK"}},{"type":"Feature","id":107,"geometry":{"type":"Point","coordinates":[-121.63364215776707,49.105603771590324]},"properties":{"FID":107,"Bldg_ID":"B1002666","Bldg_Type":"Other","Address":"57657 Chilliwack Lk Rd","City":"CHILLIWACK"}},{"type":"Feature","id":108,"geometry":{"type":"Point","coordinates":[-121.63311065739167,49.10507099135873]},"properties":{"FID":108,"Bldg_ID":"B1002665","Bldg_Type":"Other","Address":"57657 Chilliwack Lk Rd","City":"CHILLIWACK"}},{"type":"Feature","id":109,"geometry":{"type":"Point","coordinates":[-121.632568356367,49.104453951524853]},"properties":{"FID":109,"Bldg_ID":"B1002664","Bldg_Type":"Other","Address":"57657 Chilliwack Lk Rd","City":"CHILLIWACK"}},{"type":"Feature","id":110,"geometry":{"type":"Point","coordinates":[-121.63414575757204,49.105582851710714]},"properties":{"FID":110,"Bldg_ID":"B1002663","Bldg_Type":"Other","Address":"57657 Chilliwack Lk Rd","City":"CHILLIWACK"}},{"type":"Feature","id":111,"geometry":{"type":"Point","coordinates":[-121.63413385762097,49.105539491571299]},"properties":{"FID":111,"Bldg_ID":"B1002662","Bldg_Type":"Other","Address":"57657 Chilliwack Lk Rd","City":"CHILLIWACK"}},{"type":"Feature","id":112,"geometry":{"type":"Point","coordinates":[-121.63560215742594,49.104577771250838]},"properties":{"FID":112,"Bldg_ID":"B1002661","Bldg_Type":"Other","Address":"57657 Chilliwack Lk Rd\n","City":"CHILLIWACK"}},{"type":"Feature","id":113,"geometry":{"type":"Point","coordinates":[-121.63451515718592,49.103185771226052]},"properties":{"FID":113,"Bldg_ID":"B1002660","Bldg_Type":"Other","Address":"57657 Chilliwack Lk Rd\n","City":"CHILLIWACK"}},{"type":"Feature","id":114,"geometry":{"type":"Point","coordinates":[-121.63484975730816,49.104269001862654]},"properties":{"FID":114,"Bldg_ID":"B1002659","Bldg_Type":"Other","Address":"57657 Chilliwack Lk Rd\n","City":"CHILLIWACK"}},{"type":"Feature","id":115,"geometry":{"type":"Point","coordinates":[-121.63324855671489,49.103103371671217]},"properties":{"FID":115,"Bldg_ID":"B1002657","Bldg_Type":"Other","Address":"57657 Chilliwack Lk Rd\n","City":"CHILLIWACK"}},{"type":"Feature","id":116,"geometry":{"type":"Point","coordinates":[-121.63383265669223,49.10316280138197]},"properties":{"FID":116,"Bldg_ID":"B1002656","Bldg_Type":"Other","Address":"57657 Chilliwack Lk Rd","City":"CHILLIWACK"}},{"type":"Feature","id":117,"geometry":{"type":"Point","coordinates":[-121.6338205571501,49.103344771468691]},"properties":{"FID":117,"Bldg_ID":"B1002655","Bldg_Type":"Other","Address":"57657 Chilliwack Lk Rd\n","City":"CHILLIWACK"}},{"type":"Feature","id":118,"geometry":{"type":"Point","coordinates":[-121.63381055657558,49.103640491311111]},"properties":{"FID":118,"Bldg_ID":"B1002654","Bldg_Type":"Other","Address":"57657 Chilliwack Lk Rd\n","City":"CHILLIWACK"}},{"type":"Feature","id":119,"geometry":{"type":"Point","coordinates":[-121.63244005663387,49.102591922041157]},"properties":{"FID":119,"Bldg_ID":"B1002653","Bldg_Type":"Other","Address":"57657 Chilliwack Lk Rd\n","City":"CHILLIWACK"}},{"type":"Feature","id":120,"geometry":{"type":"Point","coordinates":[-121.6330150558607,49.102714511247761]},"properties":{"FID":120,"Bldg_ID":"B1002652","Bldg_Type":"Other","Address":"57657 Chilliwack Lk Rd\n","City":"CHILLIWACK"}},{"type":"Feature","id":121,"geometry":{"type":"Point","coordinates":[-121.63332505621736,49.102639351343477]},"properties":{"FID":121,"Bldg_ID":"B1002651","Bldg_Type":"Other","Address":"57657 Chilliwack Lk Rd","City":"CHILLIWACK"}},{"type":"Feature","id":122,"geometry":{"type":"Point","coordinates":[-121.6336508565013,49.103256101389]},"properties":{"FID":122,"Bldg_ID":"B1002650","Bldg_Type":"Other","Address":"57657 Chilliwack Lk Rd\n","City":"CHILLIWACK"}},{"type":"Feature","id":123,"geometry":{"type":"Point","coordinates":[-121.633262056265,49.103268081261]},"properties":{"FID":123,"Bldg_ID":"B1002649","Bldg_Type":"Other","Address":"57657 Chilliwack Lk Rd","City":"CHILLIWACK"}},{"type":"Feature","id":124,"geometry":{"type":"Point","coordinates":[-121.63347805686323,49.103613471675139]},"properties":{"FID":124,"Bldg_ID":"B1002648","Bldg_Type":"Other","Address":"57657 Chilliwack Lk Rd\n","City":"CHILLIWACK"}},{"type":"Feature","id":125,"geometry":{"type":"Point","coordinates":[-121.63329255617015,49.103918521367532]},"properties":{"FID":125,"Bldg_ID":"B1002647","Bldg_Type":"Other","Address":"57657 Chilliwack Lk Rd\n","City":"CHILLIWACK"}},{"type":"Feature","id":126,"geometry":{"type":"Point","coordinates":[-121.63377695635509,49.104049911196441]},"properties":{"FID":126,"Bldg_ID":"B1002646","Bldg_Type":"Other","Address":"57657 Chilliwack Lk Rd\n","City":"CHILLIWACK"}},{"type":"Feature","id":127,"geometry":{"type":"Point","coordinates":[-121.63326455725539,49.103319311424002]},"properties":{"FID":127,"Bldg_ID":"B1002645","Bldg_Type":"Other","Address":"57657 Chilliwack Lk Rd\n","City":"CHILLIWACK"}},{"type":"Feature","id":128,"geometry":{"type":"Point","coordinates":[-121.63345925635085,49.104503392087636]},"properties":{"FID":128,"Bldg_ID":"B1002644","Bldg_Type":"Other","Address":"57657 Chilliwack Lk Rd\n","City":"CHILLIWACK"}},{"type":"Feature","id":129,"geometry":{"type":"Point","coordinates":[-121.63531515781588,49.104575771897466]},"properties":{"FID":129,"Bldg_ID":"B1002643","Bldg_Type":"Other","Address":"57657 Chilliwack Lk Rd\n","City":"CHILLIWACK"}},{"type":"Feature","id":130,"geometry":{"type":"Point","coordinates":[-121.63410785714218,49.104596361614455]},"properties":{"FID":130,"Bldg_ID":"B1002642","Bldg_Type":"Other","Address":"57657 Chilliwack Lk Rd\n","City":"CHILLIWACK"}},{"type":"Feature","id":131,"geometry":{"type":"Point","coordinates":[-121.63400045715831,49.104993311729807]},"properties":{"FID":131,"Bldg_ID":"B1002641","Bldg_Type":"Other","Address":"57657 Chilliwack Lk Rd\n","City":"CHILLIWACK"}},{"type":"Feature","id":132,"geometry":{"type":"Point","coordinates":[-121.63409125709201,49.104999861519602]},"properties":{"FID":132,"Bldg_ID":"B1002640","Bldg_Type":"Other","Address":"57657 Chilliwack Lk Rd\n","City":"CHILLIWACK"}},{"type":"Feature","id":133,"geometry":{"type":"Point","coordinates":[-121.63415005721134,49.105007021187269]},"properties":{"FID":133,"Bldg_ID":"B1002639","Bldg_Type":"Other","Address":"57657 Chilliwack Lk Rd\n\n","City":"CHILLIWACK"}},{"type":"Feature","id":134,"geometry":{"type":"Point","coordinates":[-121.63420845785829,49.105002721865361]},"properties":{"FID":134,"Bldg_ID":"B1002638","Bldg_Type":"Other","Address":"57657 Chilliwack Lk Rd\n","City":"CHILLIWACK"}},{"type":"Feature","id":135,"geometry":{"type":"Point","coordinates":[-121.63452005632118,49.103394851242662]},"properties":{"FID":135,"Bldg_ID":"B1002637","Bldg_Type":"Other","Address":"57657 Chilliwack Lk Rd\n","City":"CHILLIWACK"}},{"type":"Feature","id":136,"geometry":{"type":"Point","coordinates":[-121.63290835627862,49.10263268207953]},"properties":{"FID":136,"Bldg_ID":"B1002636","Bldg_Type":"Other","Address":"57657 Chilliwack Lk Rd","City":"CHILLIWACK"}},{"type":"Feature","id":137,"geometry":{"type":"Point","coordinates":[-121.63406925691447,49.10587654199729]},"properties":{"FID":137,"Bldg_ID":"B1002635","Bldg_Type":"Other","Address":"57657 Chilliwack Lk Rd","City":"CHILLIWACK"}},{"type":"Feature","id":138,"geometry":{"type":"Point","coordinates":[-123.37120525917784,48.41782854066863]},"properties":{"FID":138,"Bldg_ID":"B1002634","Bldg_Type":"Office","Address":"525 Superior St","City":"VICTORIA"}},{"type":"Feature","id":139,"geometry":{"type":"Point","coordinates":[-123.4285022807229,48.467094536390789]},"properties":{"FID":139,"Bldg_ID":"B1002629","Bldg_Type":"Office","Address":"29 Helmcken Rd","City":"VIEW ROYAL"}},{"type":"Feature","id":140,"geometry":{"type":"Point","coordinates":[-123.14268442558661,49.188765602207347]},"properties":{"FID":140,"Bldg_ID":"B1002628","Bldg_Type":"Office","Address":"3688 Cessna Dr","City":"RICHMOND"}},{"type":"Feature","id":141,"geometry":{"type":"Point","coordinates":[-123.098436744173,49.28298829160228]},"properties":{"FID":141,"Bldg_ID":"B1002626","Bldg_Type":"Residential Multi","Address":"250 Powell St","City":"VANCOUVER"}},{"type":"Feature","id":142,"geometry":{"type":"Point","coordinates":[-119.49410099763486,49.889218897412206]},"properties":{"FID":142,"Bldg_ID":"B1002624","Bldg_Type":"Office","Address":"460 Doyle Ave","City":"KELOWNA"}},{"type":"Feature","id":143,"geometry":{"type":"Point","coordinates":[-123.09280307934493,55.322845824783847]},"properties":{"FID":143,"Bldg_ID":"B1002620","Bldg_Type":"Trailer Office","Address":"1 Cicada Rd","City":"MACKENZIE"}},{"type":"Feature","id":144,"geometry":{"type":"Point","coordinates":[-119.53483332573637,49.22546955662763]},"properties":{"FID":144,"Bldg_ID":"B1002619","Bldg_Type":"Jail","Address":"200 Enterprise Way","City":"OLIVER"}},{"type":"Feature","id":145,"geometry":{"type":"Point","coordinates":[-123.44312638111131,48.463172204997733]},"properties":{"FID":145,"Bldg_ID":"B1002614","Bldg_Type":"Jail","Address":"94 Talcott Rd","City":"VIEW ROYAL"}},{"type":"Feature","id":146,"geometry":{"type":"Point","coordinates":[-124.04957507206348,49.20712953756879]},"properties":{"FID":146,"Bldg_ID":"B1002610","Bldg_Type":"Other","Address":"3945 Biggs Rd","City":"NANAIMO"}},{"type":"Feature","id":147,"geometry":{"type":"Point","coordinates":[-122.86928867113193,49.147465272389887]},"properties":{"FID":147,"Bldg_ID":"B1002609","Bldg_Type":"Warehouse","Address":"12758-80th Ave","City":"SURREY"}},{"type":"Feature","id":148,"geometry":{"type":"Point","coordinates":[-122.80945898295471,49.23015283286982]},"properties":{"FID":148,"Bldg_ID":"B1002607","Bldg_Type":"Site Service","Address":"70 Colony Farm Rd","City":"COQUITLAM"}},{"type":"Feature","id":149,"geometry":{"type":"Point","coordinates":[-122.80948868252909,49.230206842756999]},"properties":{"FID":149,"Bldg_ID":"B1002606","Bldg_Type":"Site Service","Address":"70 Colony Farm Rd","City":"COQUITLAM"}},{"type":"Feature","id":150,"geometry":{"type":"Point","coordinates":[-124.04945057172212,49.20698049809581]},"properties":{"FID":150,"Bldg_ID":"B1002605","Bldg_Type":"Other","Address":"3945 Biggs Rd","City":"NANAIMO"}},{"type":"Feature","id":151,"geometry":{"type":"Point","coordinates":[-124.04731987152304,49.209160988250908]},"properties":{"FID":151,"Bldg_ID":"B1002604","Bldg_Type":"Other","Address":"3945 Biggs Rd","City":"NANAIMO"}},{"type":"Feature","id":152,"geometry":{"type":"Point","coordinates":[-123.37182625970766,48.418495540692682]},"properties":{"FID":152,"Bldg_ID":"B1002590","Bldg_Type":"Office","Address":"421 Menzies St","City":"VICTORIA"}},{"type":"Feature","id":153,"geometry":{"type":"Point","coordinates":[-119.26802806001307,50.262918103865516]},"properties":{"FID":153,"Bldg_ID":"B1002586","Bldg_Type":"Office","Address":"2820-28th St","City":"VERNON"}},{"type":"Feature","id":154,"geometry":{"type":"Point","coordinates":[-121.6305749735255,55.695611751927267]},"properties":{"FID":154,"Bldg_ID":"B1002577","Bldg_Type":"Health Unit","Address":"5125 50th St SW","City":"CHETWYND"}},{"type":"Feature","id":155,"geometry":{"type":"Point","coordinates":[-119.81721767250787,49.210899903275433]},"properties":{"FID":155,"Bldg_ID":"B1002574","Bldg_Type":"Office","Address":"900 Sparks Dr","City":"KEREMEOS"}},{"type":"Feature","id":156,"geometry":{"type":"Point","coordinates":[-120.06544731744282,51.65036288929462]},"properties":{"FID":156,"Bldg_ID":"B1002570","Bldg_Type":"Office","Address":"209 Dutch Lk Rd","City":"CLEARWATER"}},{"type":"Feature","id":157,"geometry":{"type":"Point","coordinates":[-123.3702217668462,48.452148302282438]},"properties":{"FID":157,"Bldg_ID":"B1002566","Bldg_Type":"Storage Small","Address":"4000 Seymour","City":"SAANICH"}},{"type":"Feature","id":158,"geometry":{"type":"Point","coordinates":[-119.62996260559261,49.830663608714524]},"properties":{"FID":158,"Bldg_ID":"B1002565","Bldg_Type":"Office","Address":"2484 Main St","City":"WEST KELOWNA"}},{"type":"Feature","id":159,"geometry":{"type":"Point","coordinates":[-121.63338615719557,49.104577771253005]},"properties":{"FID":159,"Bldg_ID":"B1002535","Bldg_Type":"Site Service","Address":"57657 Chilliwack Lk Rd","City":"CHILLIWACK"}},{"type":"Feature","id":160,"geometry":{"type":"Point","coordinates":[-123.36314385852324,48.418711551714864]},"properties":{"FID":160,"Bldg_ID":"B1002534","Bldg_Type":"Storage Vehicle","Address":"835 Humboldt St","City":"VICTORIA"}},{"type":"Feature","id":161,"geometry":{"type":"Point","coordinates":[-128.59354499906269,54.518063561516676]},"properties":{"FID":161,"Bldg_ID":"B1002533","Bldg_Type":"Office","Address":"4702 Lazelle Ave","City":"TERRACE"}},{"type":"Feature","id":162,"geometry":{"type":"Point","coordinates":[-122.74414256463557,53.914819490891617]},"properties":{"FID":162,"Bldg_ID":"B1002532","Bldg_Type":"Office","Address":"499 George St","City":"PRINCE GEORGE"}},{"type":"Feature","id":163,"geometry":{"type":"Point","coordinates":[-128.14367716267733,52.162257254853522]},"properties":{"FID":163,"Bldg_ID":"B1002531","Bldg_Type":"Office","Address":"79 Waglisla St","City":"BELLA BELLA"}},{"type":"Feature","id":164,"geometry":{"type":"Point","coordinates":[-124.9895287455471,49.684280656430154]},"properties":{"FID":164,"Bldg_ID":"B1002530","Bldg_Type":"Office","Address":"107 1742 Cliffe Ave","City":"COURTENAY"}},{"type":"Feature","id":165,"geometry":{"type":"Point","coordinates":[-124.25054931816706,54.442363647454506]},"properties":{"FID":165,"Bldg_ID":"B1002523","Bldg_Type":"Office","Address":"250 Douglas St","City":"FORT ST JAMES"}},{"type":"Feature","id":166,"geometry":{"type":"Point","coordinates":[-79.638918460710542,43.594779562592173]},"properties":{"FID":166,"Bldg_ID":"B1002517","Bldg_Type":"Office","Address":"506-55 City Centre Dr","City":"MISSISSAUGA"}},{"type":"Feature","id":167,"geometry":{"type":"Point","coordinates":[-122.82795735250933,49.105306635176525]},"properties":{"FID":167,"Bldg_ID":"B1002512","Bldg_Type":"Office","Address":"14245 56 Ave","City":"SURREY"}},{"type":"Feature","id":168,"geometry":{"type":"Point","coordinates":[-123.06873215155251,49.33102882748755]},"properties":{"FID":168,"Bldg_ID":"B1002507","Bldg_Type":"Site Service","Address":"200 E 23rd St","City":"NORTH VANCOUVER"}},{"type":"Feature","id":169,"geometry":{"type":"Point","coordinates":[-124.32902754601396,49.325363329745556]},"properties":{"FID":169,"Bldg_ID":"B1002493","Bldg_Type":"Office","Address":"494 Bay Ave","City":"PARKSVILLE"}},{"type":"Feature","id":170,"geometry":{"type":"Point","coordinates":[-115.75890309162797,49.535367565805231]},"properties":{"FID":170,"Bldg_ID":"B1002492","Bldg_Type":"Storage Small","Address":"205 Ind Rd","City":"CRANBROOK"}},{"type":"Feature","id":171,"geometry":{"type":"Point","coordinates":[-119.26564506037494,50.264363004453379]},"properties":{"FID":171,"Bldg_ID":"B1002489","Bldg_Type":"Site Service","Address":"3002 27th St","City":"VERNON"}},{"type":"Feature","id":172,"geometry":{"type":"Point","coordinates":[-123.15113834683727,49.264056515066706]},"properties":{"FID":172,"Bldg_ID":"B1002469","Bldg_Type":"Office","Address":"2025 W Broadway","City":"VANCOUVER"}},{"type":"Feature","id":173,"geometry":{"type":"Point","coordinates":[-121.63385855709336,49.104149681246476]},"properties":{"FID":173,"Bldg_ID":"B1002467","Bldg_Type":"Industrial Maintenance","Address":"57657 Chilliwack Lk Rd","City":"CHILLIWACK"}},{"type":"Feature","id":174,"geometry":{"type":"Point","coordinates":[-122.98937371013842,49.224618991289034]},"properties":{"FID":174,"Bldg_ID":"B1002455","Bldg_Type":"Office","Address":"5172 Kingsway St","City":"BURNABY"}},{"type":"Feature","id":175,"geometry":{"type":"Point","coordinates":[-122.85110139061892,49.23178563789444]},"properties":{"FID":175,"Bldg_ID":"B1002452","Bldg_Type":"Office","Address":"1500 Woolridge St","City":"COQUITLAM"}},{"type":"Feature","id":176,"geometry":{"type":"Point","coordinates":[-120.32674936993847,50.677191001427616]},"properties":{"FID":176,"Bldg_ID":"B1002401","Bldg_Type":"Office","Address":"450 Lansdowne St","City":"KAMLOOPS"}},{"type":"Feature","id":177,"geometry":{"type":"Point","coordinates":[-124.04712347726795,49.23168450886044]},"properties":{"FID":177,"Bldg_ID":"B1002400","Bldg_Type":"Office","Address":"6531 Metral Dr","City":"NANAIMO"}},{"type":"Feature","id":178,"geometry":{"type":"Point","coordinates":[-119.58977460741937,49.496621145025081]},"properties":{"FID":178,"Bldg_ID":"B1002399","Bldg_Type":"Office","Address":"444 Ellis St","City":"PENTICTON"}},{"type":"Feature","id":179,"geometry":{"type":"Point","coordinates":[-123.14514704701931,49.270007595284142]},"properties":{"FID":179,"Bldg_ID":"B1002393","Bldg_Type":"Office","Address":"1770 Burrard St","City":"VANCOUVER"}},{"type":"Feature","id":180,"geometry":{"type":"Point","coordinates":[-122.80196844823185,49.103487527962109]},"properties":{"FID":180,"Bldg_ID":"B1002386","Bldg_Type":"Office","Address":"5477 152nd St","City":"SURREY"}},{"type":"Feature","id":181,"geometry":{"type":"Point","coordinates":[-122.52959254246655,49.247534465569728]},"properties":{"FID":181,"Bldg_ID":"B1002381","Bldg_Type":"Jail","Address":"24800 Alouette Rd","City":"MAPLE RIDGE"}},{"type":"Feature","id":182,"geometry":{"type":"Point","coordinates":[-116.02807420794262,50.508698009426432]},"properties":{"FID":182,"Bldg_ID":"B1002380","Bldg_Type":"Storage Small","Address":"625 4th St","City":"INVERMERE"}},{"type":"Feature","id":183,"geometry":{"type":"Point","coordinates":[-124.80569919260071,49.233903930553431]},"properties":{"FID":183,"Bldg_ID":"B1002369","Bldg_Type":"Office","Address":"3019 4th Ave","City":"PORT ALBERNI"}},{"type":"Feature","id":184,"geometry":{"type":"Point","coordinates":[-123.14402664520247,49.26390550573862]},"properties":{"FID":184,"Bldg_ID":"B1002362","Bldg_Type":"Office","Address":"1727 W Broadway","City":"VANCOUVER"}},{"type":"Feature","id":185,"geometry":{"type":"Point","coordinates":[-123.36132116020028,48.426375622106235]},"properties":{"FID":185,"Bldg_ID":"B1002359","Bldg_Type":"Office","Address":"1321 Blanshard St","City":"VICTORIA"}},{"type":"Feature","id":186,"geometry":{"type":"Point","coordinates":[-125.76487817214019,54.222998090399905]},"properties":{"FID":186,"Bldg_ID":"B1002358","Bldg_Type":"Storage Open","Address":"51 Francois Lk Dr","City":"BURNS LAKE"}},{"type":"Feature","id":187,"geometry":{"type":"Point","coordinates":[-119.49621999981849,49.897062057864773]},"properties":{"FID":187,"Bldg_ID":"B1002356","Bldg_Type":"Office","Address":"1060 Manhattan Dr","City":"KELOWNA"}},{"type":"Feature","id":188,"geometry":{"type":"Point","coordinates":[-122.32347775714868,49.053511000399027]},"properties":{"FID":188,"Bldg_ID":"B1002354","Bldg_Type":"Office","Address":"32525 Simon Ave","City":"ABBOTSFORD"}},{"type":"Feature","id":189,"geometry":{"type":"Point","coordinates":[-123.36395856065896,48.430520012008543]},"properties":{"FID":189,"Bldg_ID":"B1002347","Bldg_Type":"Office","Address":"1803 Douglas St","City":"VICTORIA"}},{"type":"Feature","id":190,"geometry":{"type":"Point","coordinates":[-121.95963141645615,49.124232015074746]},"properties":{"FID":190,"Bldg_ID":"B1002341","Bldg_Type":"Office","Address":"6640 Vedder Rd","City":"CHILLIWACK"}},{"type":"Feature","id":191,"geometry":{"type":"Point","coordinates":[-122.74822766639893,53.91717047018652]},"properties":{"FID":191,"Bldg_ID":"B1002337","Bldg_Type":"Office","Address":"325 Brunswick St","City":"PRINCE GEORGE"}},{"type":"Feature","id":192,"geometry":{"type":"Point","coordinates":[-122.50471928438265,52.97789472099771]},"properties":{"FID":192,"Bldg_ID":"B1002334","Bldg_Type":"Office","Address":"395 Elliot St","City":"QUESNEL"}},{"type":"Feature","id":193,"geometry":{"type":"Point","coordinates":[-122.75354317915583,49.250588980406306]},"properties":{"FID":193,"Bldg_ID":"B1002331","Bldg_Type":"Jail","Address":"1451 Kingsway Ave","City":"PORT COQUITLAM"}},{"type":"Feature","id":194,"geometry":{"type":"Point","coordinates":[-122.51229074195874,49.255297718185467]},"properties":{"FID":194,"Bldg_ID":"B1002330","Bldg_Type":"Jail","Address":"13777 256th St","City":"MAPLE RIDGE"}},{"type":"Feature","id":195,"geometry":{"type":"Point","coordinates":[-122.71191775579783,53.906944325071173]},"properties":{"FID":195,"Bldg_ID":"B1002329","Bldg_Type":"Jail","Address":"795 Hwy 16 E","City":"PRINCE GEORGE"}},{"type":"Feature","id":196,"geometry":{"type":"Point","coordinates":[-122.74804466552328,53.917422500396093]},"properties":{"FID":196,"Bldg_ID":"B1002278","Bldg_Type":"Office","Address":"1411 3rd Ave","City":"PRINCE GEORGE"}},{"type":"Feature","id":197,"geometry":{"type":"Point","coordinates":[-122.4985057859746,52.983365771724692]},"properties":{"FID":197,"Bldg_ID":"B1002272","Bldg_Type":"Office","Address":"644-674 Front St","City":"QUESNEL"}},{"type":"Feature","id":198,"geometry":{"type":"Point","coordinates":[-119.59517810939811,49.500953214903667]},"properties":{"FID":198,"Bldg_ID":"B1002266","Bldg_Type":"Office","Address":"105 Martin St","City":"PENTICTON"}},{"type":"Feature","id":199,"geometry":{"type":"Point","coordinates":[-125.75767617300266,54.224927010696312]},"properties":{"FID":199,"Bldg_ID":"B1002264","Bldg_Type":"Storage Vehicle","Address":"183 Hwy 16 W","City":"BURNS LAKE"}},{"type":"Feature","id":200,"geometry":{"type":"Point","coordinates":[-128.59099789883092,54.518646411821635]},"properties":{"FID":200,"Bldg_ID":"B1002261","Bldg_Type":"Office","Address":"4634 Park Ave","City":"TERRACE"}},{"type":"Feature","id":201,"geometry":{"type":"Point","coordinates":[-127.17395410593203,54.77840249965648]},"properties":{"FID":201,"Bldg_ID":"B1002260","Bldg_Type":"Office","Address":"1070 Main St","City":"SMITHERS"}},{"type":"Feature","id":202,"geometry":{"type":"Point","coordinates":[-127.17399340614521,54.780078069214888]},"properties":{"FID":202,"Bldg_ID":"B1002259","Bldg_Type":"Office","Address":"3862A Broadway Ave","City":"SMITHERS"}},{"type":"Feature","id":203,"geometry":{"type":"Point","coordinates":[-122.69661904979239,58.807689282362269]},"properties":{"FID":203,"Bldg_ID":"B1002256","Bldg_Type":"Office","Address":"5211-5217 Airport Dr","City":"FORT NELSON"}},{"type":"Feature","id":204,"geometry":{"type":"Point","coordinates":[-122.80140277231098,53.910934203612157]},"properties":{"FID":204,"Bldg_ID":"B1002253","Bldg_Type":"Office","Address":"4186-15th Ave","City":"PRINCE GEORGE"}},{"type":"Feature","id":205,"geometry":{"type":"Point","coordinates":[-122.7657687683392,53.914866188072679]},"properties":{"FID":205,"Bldg_ID":"B1002252","Bldg_Type":"Office","Address":"2155-10th Ave","City":"PRINCE GEORGE"}},{"type":"Feature","id":206,"geometry":{"type":"Point","coordinates":[-122.74288656422132,53.916331400964118]},"properties":{"FID":206,"Bldg_ID":"B1002251","Bldg_Type":"Office","Address":"1108 3rd Ave","City":"PRINCE GEORGE"}},{"type":"Feature","id":207,"geometry":{"type":"Point","coordinates":[-122.75174286781586,53.919017889818157]},"properties":{"FID":207,"Bldg_ID":"B1002250","Bldg_Type":"Office","Address":"1600 3rd Ave","City":"PRINCE GEORGE"}},{"type":"Feature","id":208,"geometry":{"type":"Point","coordinates":[-122.75566426424932,53.908670129086772]},"properties":{"FID":208,"Bldg_ID":"B1002249","Bldg_Type":"Office","Address":"1669 Victoria St","City":"PRINCE GEORGE"}},{"type":"Feature","id":209,"geometry":{"type":"Point","coordinates":[-122.75723751483507,49.007255638529138]},"properties":{"FID":209,"Bldg_ID":"B1002247","Bldg_Type":"Hospitality","Address":"298-Hwy 99","City":"SURREY"}},{"type":"Feature","id":210,"geometry":{"type":"Point","coordinates":[-122.51250394160034,49.255839027797194]},"properties":{"FID":210,"Bldg_ID":"B1002240","Bldg_Type":"Jail","Address":"13777 256th St","City":"MAPLE RIDGE"}},{"type":"Feature","id":211,"geometry":{"type":"Point","coordinates":[-119.44812008772705,49.884080432384664]},"properties":{"FID":211,"Bldg_ID":"B1002238","Bldg_Type":"Office","Address":"1500 Hardy Pl","City":"KELOWNA"}},{"type":"Feature","id":212,"geometry":{"type":"Point","coordinates":[-123.35853145840753,48.425931262339219]},"properties":{"FID":212,"Bldg_ID":"B1002234","Bldg_Type":"Office","Address":"914 Yates St","City":"VICTORIA"}},{"type":"Feature","id":213,"geometry":{"type":"Point","coordinates":[-123.36420005980689,48.423923642250379]},"properties":{"FID":213,"Bldg_ID":"B1002232","Bldg_Type":"Office","Address":"732 Broughton St","City":"VICTORIA"}},{"type":"Feature","id":214,"geometry":{"type":"Point","coordinates":[-122.66321644185207,49.165765856124132]},"properties":{"FID":214,"Bldg_ID":"B0092722","Bldg_Type":"Office","Address":"20159 88th Ave","City":"LANGLEY"}},{"type":"Feature","id":215,"geometry":{"type":"Point","coordinates":[-123.70870980367862,48.777005519121062]},"properties":{"FID":215,"Bldg_ID":"B0092720","Bldg_Type":"Office","Address":"15 Craig St","City":"DUNCAN"}},{"type":"Feature","id":216,"geometry":{"type":"Point","coordinates":[-123.01096912326969,49.260466660537126]},"properties":{"FID":216,"Bldg_ID":"B0092718","Bldg_Type":"Office","Address":"4170 Still Creek Dr","City":"BURNABY"}},{"type":"Feature","id":217,"geometry":{"type":"Point","coordinates":[-123.18172061880935,49.141322605501053]},"properties":{"FID":217,"Bldg_ID":"B0092717","Bldg_Type":"Ambulance","Address":"3999 Williams Rd","City":"RICHMOND"}},{"type":"Feature","id":218,"geometry":{"type":"Point","coordinates":[-123.94207114513748,49.168033288716522]},"properties":{"FID":218,"Bldg_ID":"B0092714","Bldg_Type":"Office","Address":"125 Wallace St","City":"NANAIMO"}},{"type":"Feature","id":219,"geometry":{"type":"Point","coordinates":[-123.09634024084352,49.272596811120216]},"properties":{"FID":219,"Bldg_ID":"B0092712","Bldg_Type":"Office","Address":"333 Terminal Ave","City":"VANCOUVER"}},{"type":"Feature","id":220,"geometry":{"type":"Point","coordinates":[-122.91078119089669,49.201200619938547]},"properties":{"FID":220,"Bldg_ID":"B0092710","Bldg_Type":"Office","Address":"774 Columbia St","City":"NEW WESTMINSTER"}},{"type":"Feature","id":221,"geometry":{"type":"Point","coordinates":[-123.35751645811118,48.423513832877973]},"properties":{"FID":221,"Bldg_ID":"B0092707","Bldg_Type":"Office","Address":"976 Meares St","City":"VICTORIA"}},{"type":"Feature","id":222,"geometry":{"type":"Point","coordinates":[-123.00669802146943,49.256064690943418]},"properties":{"FID":222,"Bldg_ID":"B0092701","Bldg_Type":"Office","Address":"4370 Dominion St","City":"BURNABY"}},{"type":"Feature","id":223,"geometry":{"type":"Point","coordinates":[-122.84355887649865,49.187373556543072]},"properties":{"FID":223,"Bldg_ID":"B0092700","Bldg_Type":"Office","Address":"13650 102 Ave","City":"SURREY"}},{"type":"Feature","id":224,"geometry":{"type":"Point","coordinates":[-122.66417754449249,49.174323406420172]},"properties":{"FID":224,"Bldg_ID":"B0092699","Bldg_Type":"Office","Address":"9440 202nd St","City":"LANGLEY"}},{"type":"Feature","id":225,"geometry":{"type":"Point","coordinates":[-122.79879997979913,53.931012763984832]},"properties":{"FID":225,"Bldg_ID":"B0092694","Bldg_Type":"Office","Address":"155 Mcdermid Dr","City":"PRINCE GEORGE"}},{"type":"Feature","id":226,"geometry":{"type":"Point","coordinates":[-119.68549529679831,50.81865408413811]},"properties":{"FID":226,"Bldg_ID":"B0092692","Bldg_Type":"Office","Address":"830 Thompson Ave","City":"CHASE"}},{"type":"Feature","id":227,"geometry":{"type":"Point","coordinates":[-123.36657876000663,48.422598951704558]},"properties":{"FID":227,"Bldg_ID":"B0092689","Bldg_Type":"Office","Address":"634 Humboldt St","City":"VICTORIA"}},{"type":"Feature","id":228,"geometry":{"type":"Point","coordinates":[-122.77963985925689,49.159074772876906]},"properties":{"FID":228,"Bldg_ID":"B0092685","Bldg_Type":"Office","Address":"15955 Fraser Hwy","City":"SURREY"}},{"type":"Feature","id":229,"geometry":{"type":"Point","coordinates":[-120.24276083634159,55.750755349239526]},"properties":{"FID":229,"Bldg_ID":"B0092684","Bldg_Type":"Storage Small","Address":"10808 15th St","City":"DAWSON CREEK"}},{"type":"Feature","id":230,"geometry":{"type":"Point","coordinates":[-123.11539884704132,49.284768209369794]},"properties":{"FID":230,"Bldg_ID":"B0092681","Bldg_Type":"Office","Address":"700 W Pender St","City":"VANCOUVER"}},{"type":"Feature","id":231,"geometry":{"type":"Point","coordinates":[-123.36471975997651,48.423502581994796]},"properties":{"FID":231,"Bldg_ID":"B0092671","Bldg_Type":"Office","Address":"711 Broughton St","City":"VICTORIA"}},{"type":"Feature","id":232,"geometry":{"type":"Point","coordinates":[-122.75288996402236,53.911648809961498]},"properties":{"FID":232,"Bldg_ID":"B0092670","Bldg_Type":"Office","Address":"1475 10th Ave","City":"PRINCE GEORGE"}},{"type":"Feature","id":233,"geometry":{"type":"Point","coordinates":[-125.00109314815933,49.688521255014066]},"properties":{"FID":233,"Bldg_ID":"B0092668","Bldg_Type":"Office","Address":"730 Grant Ave","City":"COURTENAY"}},{"type":"Feature","id":234,"geometry":{"type":"Point","coordinates":[-122.85758296666738,49.138932733291945]},"properties":{"FID":234,"Bldg_ID":"B0092665","Bldg_Type":"Office","Address":"7495 132nd St","City":"SURREY"}},{"type":"Feature","id":235,"geometry":{"type":"Point","coordinates":[-120.4141305825915,50.66644989102889]},"properties":{"FID":235,"Bldg_ID":"B0092663","Bldg_Type":"Jail","Address":"2250 Trans Can Hwy","City":"KAMLOOPS"}},{"type":"Feature","id":236,"geometry":{"type":"Point","coordinates":[-122.51401514231003,49.253396037474616]},"properties":{"FID":236,"Bldg_ID":"B0092662","Bldg_Type":"Jail","Address":"13777 256th St","City":"MAPLE RIDGE"}},{"type":"Feature","id":237,"geometry":{"type":"Point","coordinates":[-122.53086014325238,49.247349645861682]},"properties":{"FID":237,"Bldg_ID":"B0092661","Bldg_Type":"Jail","Address":"24800 Alouette Rd","City":"MAPLE RIDGE"}},{"type":"Feature","id":238,"geometry":{"type":"Point","coordinates":[-122.53105124339626,49.247583435164245]},"properties":{"FID":238,"Bldg_ID":"B0092660","Bldg_Type":"Jail","Address":"24800 Alouette Rd","City":"MAPLE RIDGE"}},{"type":"Feature","id":239,"geometry":{"type":"Point","coordinates":[-123.12175844867856,49.288213609525449]},"properties":{"FID":239,"Bldg_ID":"B0092659","Bldg_Type":"Office","Address":"1155 W Pender St","City":"VANCOUVER"}},{"type":"Feature","id":240,"geometry":{"type":"Point","coordinates":[-123.70464270362029,48.779119909680958]},"properties":{"FID":240,"Bldg_ID":"B0092646","Bldg_Type":"Office","Address":"116 Queens Rd","City":"DUNCAN"}},{"type":"Feature","id":241,"geometry":{"type":"Point","coordinates":[-125.21541726021928,49.971106749582425]},"properties":{"FID":241,"Bldg_ID":"B0092638","Bldg_Type":"Office","Address":"2231 S Island Hwy","City":"CAMPBELL RIVER"}},{"type":"Feature","id":242,"geometry":{"type":"Point","coordinates":[-122.77294788767463,49.267935538810015]},"properties":{"FID":242,"Bldg_ID":"B0092636","Bldg_Type":"Office","Address":"2062  Manning St","City":"PORT COQUITLAM"}},{"type":"Feature","id":243,"geometry":{"type":"Point","coordinates":[-122.84252857852522,49.192403097370843]},"properties":{"FID":243,"Bldg_ID":"B0092634","Bldg_Type":"Office","Address":"10453 Whalley Blvd","City":"SURREY"}},{"type":"Feature","id":244,"geometry":{"type":"Point","coordinates":[-125.25077078293178,50.028863737236613]},"properties":{"FID":244,"Bldg_ID":"B0092632","Bldg_Type":"Office","Address":"1400 Dogwood St","City":"CAMPBELL RIVER"}},{"type":"Feature","id":245,"geometry":{"type":"Point","coordinates":[-122.31560005557974,49.05216387132608]},"properties":{"FID":245,"Bldg_ID":"B0092630","Bldg_Type":"Office","Address":"2777 Gladwin Rd","City":"ABBOTSFORD"}},{"type":"Feature","id":246,"geometry":{"type":"Point","coordinates":[-127.49381810638377,50.719773304498474]},"properties":{"FID":246,"Bldg_ID":"B0092629","Bldg_Type":"Office","Address":"8755 Gray St","City":"PORT HARDY"}},{"type":"Feature","id":247,"geometry":{"type":"Point","coordinates":[-123.37911426453891,48.432677200574688]},"properties":{"FID":247,"Bldg_ID":"B0092628","Bldg_Type":"Office","Address":"645 Tyee Rd","City":"VICTORIA"}},{"type":"Feature","id":248,"geometry":{"type":"Point","coordinates":[-119.47779256591056,49.036006012064831]},"properties":{"FID":248,"Bldg_ID":"B0092624","Bldg_Type":"Hospitality","Address":"9912 Hwy 3","City":"OSOYOOS"}},{"type":"Feature","id":249,"geometry":{"type":"Point","coordinates":[-124.80917760046096,49.257893591240027]},"properties":{"FID":249,"Bldg_ID":"B0092623","Bldg_Type":"Office","Address":"4833 Southgate Rd","City":"PORT ALBERNI"}},{"type":"Feature","id":250,"geometry":{"type":"Point","coordinates":[-120.33154316880487,50.668644890422485]},"properties":{"FID":250,"Bldg_ID":"B0092621","Bldg_Type":"Office","Address":"441 Columbia St","City":"KAMLOOPS"}},{"type":"Feature","id":251,"geometry":{"type":"Point","coordinates":[-123.41637871092135,48.595212843680621]},"properties":{"FID":251,"Bldg_ID":"B0092617","Bldg_Type":"Office","Address":"7851 E Saanich Rd","City":"CENTRAL SAANICH"}},{"type":"Feature","id":252,"geometry":{"type":"Point","coordinates":[-123.08334894961567,49.313134725053935]},"properties":{"FID":252,"Bldg_ID":"B0092604","Bldg_Type":"Office","Address":"224 W Esplanade","City":"NORTH VANCOUVER"}},{"type":"Feature","id":253,"geometry":{"type":"Point","coordinates":[-120.33629317130716,50.676144890222005]},"properties":{"FID":253,"Bldg_ID":"B0092602","Bldg_Type":"Office","Address":"175 2nd Ave","City":"KAMLOOPS"}},{"type":"Feature","id":254,"geometry":{"type":"Point","coordinates":[-120.78530068740181,50.108331269993279]},"properties":{"FID":254,"Bldg_ID":"B0092597","Bldg_Type":"Office","Address":"2194 Coutlee Ave","City":"MERRITT"}},{"type":"Feature","id":255,"geometry":{"type":"Point","coordinates":[-120.78551318641524,50.108252059098824]},"properties":{"FID":255,"Bldg_ID":"B0092596","Bldg_Type":"Office","Address":"2180 Coutlee Ave","City":"MERRITT"}},{"type":"Feature","id":256,"geometry":{"type":"Point","coordinates":[-119.26176506424379,50.2795061058724]},"properties":{"FID":256,"Bldg_ID":"B0092595","Bldg_Type":"Storage Small","Address":"4607 23rd St","City":"VERNON"}},{"type":"Feature","id":257,"geometry":{"type":"Point","coordinates":[-120.84700536404846,56.247242583610195]},"properties":{"FID":257,"Bldg_ID":"B0092593","Bldg_Type":"Office","Address":"10043 100th St","City":"FORT ST JOHN"}},{"type":"Feature","id":258,"geometry":{"type":"Point","coordinates":[-122.14488953675904,52.131167335158949]},"properties":{"FID":258,"Bldg_ID":"B0092592","Bldg_Type":"Office","Address":"197 N 2nd Ave","City":"WILLIAMS LAKE"}},{"type":"Feature","id":259,"geometry":{"type":"Point","coordinates":[-121.27954334976266,50.723422560699078]},"properties":{"FID":259,"Bldg_ID":"B0092590","Bldg_Type":"Office","Address":"318 Railway Ave","City":"ASHCROFT"}},{"type":"Feature","id":260,"geometry":{"type":"Point","coordinates":[-117.6592633021706,49.30739412122113]},"properties":{"FID":260,"Bldg_ID":"B0092582","Bldg_Type":"Office","Address":"1472 Columbia Ave","City":"CASTLEGAR"}},{"type":"Feature","id":261,"geometry":{"type":"Point","coordinates":[-122.84489866391374,49.136275704679669]},"properties":{"FID":261,"Bldg_ID":"B0092563","Bldg_Type":"Office","Address":"7350 King George Blvd","City":"SURREY"}},{"type":"Feature","id":262,"geometry":{"type":"Point","coordinates":[-122.49368318419965,52.979505832131196]},"properties":{"FID":262,"Bldg_ID":"B0092559","Bldg_Type":"Office","Address":"410 Kinchant St","City":"QUESNEL"}},{"type":"Feature","id":263,"geometry":{"type":"Point","coordinates":[-119.27100566001735,50.262430013285986]},"properties":{"FID":263,"Bldg_ID":"B0092558","Bldg_Type":"Office","Address":"2802 30th St","City":"VERNON"}},{"type":"Feature","id":264,"geometry":{"type":"Point","coordinates":[-122.89419477894953,49.163525149843096]},"properties":{"FID":264,"Bldg_ID":"B0092557","Bldg_Type":"Office","Address":"11861 88 Ave","City":"DELTA"}},{"type":"Feature","id":265,"geometry":{"type":"Point","coordinates":[-123.39823752285277,48.650949988812926]},"properties":{"FID":265,"Bldg_ID":"B0092556","Bldg_Type":"Courthouse","Address":"9884 3rd St","City":"SIDNEY"}},{"type":"Feature","id":266,"geometry":{"type":"Point","coordinates":[-121.96342452412505,49.151385896455388]},"properties":{"FID":266,"Bldg_ID":"B0092554","Bldg_Type":"Office","Address":"45540 Yale Rd","City":"CHILLIWACK"}},{"type":"Feature","id":267,"geometry":{"type":"Point","coordinates":[-119.49386889685509,49.886589637756892]},"properties":{"FID":267,"Bldg_ID":"B0092547","Bldg_Type":"Office","Address":"478 Bernard Ave","City":"KELOWNA"}},{"type":"Feature","id":268,"geometry":{"type":"Point","coordinates":[-122.85753956654781,49.138058072706521]},"properties":{"FID":268,"Bldg_ID":"B0092540","Bldg_Type":"Office","Address":"7445-132 St","City":"SURREY"}},{"type":"Feature","id":269,"geometry":{"type":"Point","coordinates":[-123.11773764749921,49.286172279441445]},"properties":{"FID":269,"Bldg_ID":"B0092539","Bldg_Type":"Office","Address":"510 Burrard St","City":"VANCOUVER"}},{"type":"Feature","id":270,"geometry":{"type":"Point","coordinates":[-125.75559627169385,54.224989001531391]},"properties":{"FID":270,"Bldg_ID":"B0092515","Bldg_Type":"Office","Address":"161 Hwy 16 W","City":"BURNS LAKE"}},{"type":"Feature","id":271,"geometry":{"type":"Point","coordinates":[-123.99400950819465,54.006989730446243]},"properties":{"FID":271,"Bldg_ID":"B0092510","Bldg_Type":"Office","Address":"1560 Hwy 16 E","City":"VANDERHOOF"}},{"type":"Feature","id":272,"geometry":{"type":"Point","coordinates":[-122.7492898664962,53.917210990547808]},"properties":{"FID":272,"Bldg_ID":"B0092494","Bldg_Type":"Office","Address":"1488 4th Ave","City":"PRINCE GEORGE"}},{"type":"Feature","id":273,"geometry":{"type":"Point","coordinates":[-122.79805147047234,49.19188620176071]},"properties":{"FID":273,"Bldg_ID":"B0092486","Bldg_Type":"Office","Address":"10428 153 St","City":"SURREY"}},{"type":"Feature","id":274,"geometry":{"type":"Point","coordinates":[-133.70227244492031,59.574987680623494]},"properties":{"FID":274,"Bldg_ID":"B0092479","Bldg_Type":"Storage Vehicle","Address":"3rd St","City":"ATLIN"}},{"type":"Feature","id":275,"geometry":{"type":"Point","coordinates":[-133.70227244492031,59.574987680623494]},"properties":{"FID":275,"Bldg_ID":"B0092478","Bldg_Type":"Storage Small","Address":"3rd St","City":"ATLIN"}},{"type":"Feature","id":276,"geometry":{"type":"Point","coordinates":[-123.93716474414239,49.168462749162281]},"properties":{"FID":276,"Bldg_ID":"B0092473","Bldg_Type":"Office","Address":"65 Front St","City":"NANAIMO"}},{"type":"Feature","id":277,"geometry":{"type":"Point","coordinates":[-123.13977387165505,49.726355626325272]},"properties":{"FID":277,"Bldg_ID":"B0092467","Bldg_Type":"Office","Address":"42000 Loggers Ln","City":"SQUAMISH"}},{"type":"Feature","id":278,"geometry":{"type":"Point","coordinates":[-123.13905727242729,49.726575065980612]},"properties":{"FID":278,"Bldg_ID":"B0092466","Bldg_Type":"Storage Small","Address":"42000 Loggers Ln","City":"SQUAMISH"}},{"type":"Feature","id":279,"geometry":{"type":"Point","coordinates":[-123.13888497123716,49.725852846729417]},"properties":{"FID":279,"Bldg_ID":"B0092465","Bldg_Type":"Storage Small","Address":"42000 Loggers Ln","City":"SQUAMISH"}},{"type":"Feature","id":280,"geometry":{"type":"Point","coordinates":[-128.60428739830405,54.512343950380668]},"properties":{"FID":280,"Bldg_ID":"B0092464","Bldg_Type":"Storage Small","Address":"4825 Keith Ave","City":"TERRACE"}},{"type":"Feature","id":281,"geometry":{"type":"Point","coordinates":[-128.60387249854762,54.51267753040888]},"properties":{"FID":281,"Bldg_ID":"B0092463","Bldg_Type":"Storage Small","Address":"4825 Keith Ave","City":"TERRACE"}},{"type":"Feature","id":282,"geometry":{"type":"Point","coordinates":[-122.65676392905756,49.118341254854514]},"properties":{"FID":282,"Bldg_ID":"B0092456","Bldg_Type":"Office","Address":"20434 64th Ave","City":"LANGLEY"}},{"type":"Feature","id":283,"geometry":{"type":"Point","coordinates":[-123.11843144817131,49.287717609355468]},"properties":{"FID":283,"Bldg_ID":"B0092454","Bldg_Type":"Office","Address":"1055 W Hastings St","City":"VANCOUVER"}},{"type":"Feature","id":284,"geometry":{"type":"Point","coordinates":[-116.02803390743988,50.509437049394577]},"properties":{"FID":284,"Bldg_ID":"B0092443","Bldg_Type":"Storage Small","Address":"625 4th St","City":"INVERMERE"}},{"type":"Feature","id":285,"geometry":{"type":"Point","coordinates":[-116.02801170720861,50.509645379825322]},"properties":{"FID":285,"Bldg_ID":"B0092441","Bldg_Type":"Warehouse","Address":"625 4th St","City":"INVERMERE"}},{"type":"Feature","id":286,"geometry":{"type":"Point","coordinates":[-116.02853950785121,50.509412049096781]},"properties":{"FID":286,"Bldg_ID":"B0092439","Bldg_Type":"Office","Address":"625 4th St","City":"INVERMERE"}},{"type":"Feature","id":287,"geometry":{"type":"Point","coordinates":[-128.59834599754433,54.513128060892306]},"properties":{"FID":287,"Bldg_ID":"B0092437","Bldg_Type":"Office","Address":"2918 Eby St","City":"TERRACE"}},{"type":"Feature","id":288,"geometry":{"type":"Point","coordinates":[-128.60414579864175,54.512971730570882]},"properties":{"FID":288,"Bldg_ID":"B0092434","Bldg_Type":"Office","Address":"4825 Keith Ave","City":"TERRACE"}},{"type":"Feature","id":289,"geometry":{"type":"Point","coordinates":[-120.84837856731362,56.254922822848251]},"properties":{"FID":289,"Bldg_ID":"B0092433","Bldg_Type":"Office","Address":"10003 110th Ave","City":"FORT ST JOHN"}},{"type":"Feature","id":290,"geometry":{"type":"Point","coordinates":[-117.80358797994987,50.239304110653613]},"properties":{"FID":290,"Bldg_ID":"B0092432","Bldg_Type":"Courthouse","Address":"415 Broadway St","City":"NAKUSP"}},{"type":"Feature","id":291,"geometry":{"type":"Point","coordinates":[-115.76379088751577,49.514196324237481]},"properties":{"FID":291,"Bldg_ID":"B0092429","Bldg_Type":"Office","Address":"1212 2nd St N","City":"CRANBROOK"}},{"type":"Feature","id":292,"geometry":{"type":"Point","coordinates":[-133.70227244492031,59.574987680623494]},"properties":{"FID":292,"Bldg_ID":"B0092428","Bldg_Type":"Office","Address":"3rd St","City":"ATLIN"}},{"type":"Feature","id":293,"geometry":{"type":"Point","coordinates":[-122.32490835818143,49.05349086019887]},"properties":{"FID":293,"Bldg_ID":"B0092419","Bldg_Type":"Office","Address":"32463 Simon Ave","City":"ABBOTSFORD"}},{"type":"Feature","id":294,"geometry":{"type":"Point","coordinates":[-120.33032096729826,50.66845044035913]},"properties":{"FID":294,"Bldg_ID":"B0092418","Bldg_Type":"Office","Address":"447 Columbia St","City":"KAMLOOPS"}},{"type":"Feature","id":295,"geometry":{"type":"Point","coordinates":[-123.40623750131991,48.564394433601265]},"properties":{"FID":295,"Bldg_ID":"B0092413","Bldg_Type":"Office","Address":"2261 Keating Cross Rd","City":"CENTRAL SAANICH"}},{"type":"Feature","id":296,"geometry":{"type":"Point","coordinates":[-122.72913015463459,58.805403167097523]},"properties":{"FID":296,"Bldg_ID":"B0092408","Bldg_Type":"Warehouse","Address":"6012 Alaska Hwy Mile 301","City":"FORT NELSON"}},{"type":"Feature","id":297,"geometry":{"type":"Point","coordinates":[-120.33402357002046,50.675633550192977]},"properties":{"FID":297,"Bldg_ID":"B0092398","Bldg_Type":"Office","Address":"301 Victoria St","City":"KAMLOOPS"}},{"type":"Feature","id":298,"geometry":{"type":"Point","coordinates":[-120.78542918781082,50.109011479357036]},"properties":{"FID":298,"Bldg_ID":"B0092367","Bldg_Type":"Office","Address":"2196 Quilchena St","City":"MERRITT"}},{"type":"Feature","id":299,"geometry":{"type":"Point","coordinates":[-117.80523428186848,50.241578490980288]},"properties":{"FID":299,"Bldg_ID":"B0092357","Bldg_Type":"Office","Address":"204 6th Ave","City":"NAKUSP"}},{"type":"Feature","id":300,"geometry":{"type":"Point","coordinates":[-117.29601448103388,49.493200723467204]},"properties":{"FID":300,"Bldg_ID":"B0092354","Bldg_Type":"Office","Address":"310 Ward St","City":"NELSON"}},{"type":"Feature","id":301,"geometry":{"type":"Point","coordinates":[-122.77343608654256,49.266944638793859]},"properties":{"FID":301,"Bldg_ID":"B0092353","Bldg_Type":"Office","Address":"2099 Lougheed Hwy","City":"PORT COQUITLAM"}},{"type":"Feature","id":302,"geometry":{"type":"Point","coordinates":[-117.03921322058318,49.059082434259324]},"properties":{"FID":302,"Bldg_ID":"B0092344","Bldg_Type":"Storage Vehicle","Address":"Summit Of Stagleap","City":"SALMO CRESTON SUMMIT"}},{"type":"Feature","id":303,"geometry":{"type":"Point","coordinates":[-123.41178328243838,48.485767539037198]},"properties":{"FID":303,"Bldg_ID":"B0092338","Bldg_Type":"Industrial Maintenance","Address":"4300 N Rd","City":"SAANICH"}},{"type":"Feature","id":304,"geometry":{"type":"Point","coordinates":[-121.42686799426313,49.374486369160351]},"properties":{"FID":304,"Bldg_ID":"B0092326","Bldg_Type":"Storage Vehicle","Address":"1313-6th Ave","City":"HOPE"}},{"type":"Feature","id":305,"geometry":{"type":"Point","coordinates":[-116.52497253363282,49.110089673711109]},"properties":{"FID":305,"Bldg_ID":"B0092324","Bldg_Type":"Storage Small","Address":"1243 Northwest Blvd","City":"CRESTON"}},{"type":"Feature","id":306,"geometry":{"type":"Point","coordinates":[-123.41170968293508,48.486061099803742]},"properties":{"FID":306,"Bldg_ID":"B0092322","Bldg_Type":"Laboratory","Address":"4300 N Rd","City":"SAANICH"}},{"type":"Feature","id":307,"geometry":{"type":"Point","coordinates":[-116.52413923334208,49.110200783655365]},"properties":{"FID":307,"Bldg_ID":"B0092319","Bldg_Type":"Warehouse","Address":"1243 Northwest Blvd","City":"CRESTON"}},{"type":"Feature","id":308,"geometry":{"type":"Point","coordinates":[-129.98507073026445,58.434214168219832]},"properties":{"FID":308,"Bldg_ID":"B0092318","Bldg_Type":"Warehouse","Address":"Hwy 37-Block D\n","City":"DEASE LAKE"}},{"type":"Feature","id":309,"geometry":{"type":"Point","coordinates":[-129.99129379187414,55.938040987122108]},"properties":{"FID":309,"Bldg_ID":"B0092315","Bldg_Type":"Office","Address":"703 Brightwell St","City":"STEWART"}},{"type":"Feature","id":310,"geometry":{"type":"Point","coordinates":[-119.27907078780271,50.700589456141167]},"properties":{"FID":310,"Bldg_ID":"B0092308","Bldg_Type":"Courthouse","Address":"550 2nd Ave NE","City":"SALMON ARM"}},{"type":"Feature","id":311,"geometry":{"type":"Point","coordinates":[-122.74535015859223,53.897450270466585]},"properties":{"FID":311,"Bldg_ID":"B0092307","Bldg_Type":"School","Address":"1200 La Salle Ave","City":"PRINCE GEORGE"}},{"type":"Feature","id":312,"geometry":{"type":"Point","coordinates":[-119.49205599729163,49.890129058167012]},"properties":{"FID":312,"Bldg_ID":"B0092298","Bldg_Type":"Office","Address":"1358 St Paul St","City":"KELOWNA"}},{"type":"Feature","id":313,"geometry":{"type":"Point","coordinates":[-119.26175396435407,50.281661666081028]},"properties":{"FID":313,"Bldg_ID":"B0092296","Bldg_Type":"Office","Address":"4791 23rd St","City":"VERNON"}},{"type":"Feature","id":314,"geometry":{"type":"Point","coordinates":[-128.59939639983205,54.518061241483352]},"properties":{"FID":314,"Bldg_ID":"B0092271","Bldg_Type":"Office","Address":"3215 Eby St","City":"TERRACE"}},{"type":"Feature","id":315,"geometry":{"type":"Point","coordinates":[-121.94052352121159,49.155430739070901]},"properties":{"FID":315,"Bldg_ID":"B0092270","Bldg_Type":"Warehouse","Address":"46360 Airport Rd","City":"CHILLIWACK"}},{"type":"Feature","id":316,"geometry":{"type":"Point","coordinates":[-124.78716009779716,49.262819304347595]},"properties":{"FID":316,"Bldg_ID":"B0092269","Bldg_Type":"Storage Small","Address":"4885 Cherry Creek Rd","City":"PORT ALBERNI"}},{"type":"Feature","id":317,"geometry":{"type":"Point","coordinates":[-119.26798738742845,50.705645017720677]},"properties":{"FID":317,"Bldg_ID":"B0092259","Bldg_Type":"Storage Small","Address":"850 16th St NE","City":"SALMON ARM"}},{"type":"Feature","id":318,"geometry":{"type":"Point","coordinates":[-117.65500579930958,49.300359561497935]},"properties":{"FID":318,"Bldg_ID":"B0092258","Bldg_Type":"Office","Address":"620 17 St","City":"CASTLEGAR"}},{"type":"Feature","id":319,"geometry":{"type":"Point","coordinates":[-119.59539270444174,49.477606023496691]},"properties":{"FID":319,"Bldg_ID":"B0092245","Bldg_Type":"Storage Small","Address":"102 Industrial Pl","City":"PENTICTON"}},{"type":"Feature","id":320,"geometry":{"type":"Point","coordinates":[-124.04884527153362,49.207209798235013]},"properties":{"FID":320,"Bldg_ID":"B0092240","Bldg_Type":"Industrial Maintenance","Address":"3945 Biggs Rd","City":"NANAIMO"}},{"type":"Feature","id":321,"geometry":{"type":"Point","coordinates":[-123.07958642092144,49.210445610557336]},"properties":{"FID":321,"Bldg_ID":"B0092237","Bldg_Type":"Office","Address":"1308 SE Marine Dr","City":"VANCOUVER"}},{"type":"Feature","id":322,"geometry":{"type":"Point","coordinates":[-119.59575380386445,49.477719913685597]},"properties":{"FID":322,"Bldg_ID":"B0092228","Bldg_Type":"Warehouse","Address":"102 Industrial Pl","City":"PENTICTON"}},{"type":"Feature","id":323,"geometry":{"type":"Point","coordinates":[-116.96051432038706,51.295943849417036]},"properties":{"FID":323,"Bldg_ID":"B0092226","Bldg_Type":"Office","Address":"1104 9th St","City":"GOLDEN"}},{"type":"Feature","id":324,"geometry":{"type":"Point","coordinates":[-122.13709943488784,52.130533625840449]},"properties":{"FID":324,"Bldg_ID":"B0092174","Bldg_Type":"Office","Address":"640 Borland St","City":"WILLIAMS LAKE"}},{"type":"Feature","id":325,"geometry":{"type":"Point","coordinates":[-129.98597132925869,58.434718038237129]},"properties":{"FID":325,"Bldg_ID":"B0092172","Bldg_Type":"Office","Address":"Hwy 37-Block D\n","City":"DEASE LAKE"}},{"type":"Feature","id":326,"geometry":{"type":"Point","coordinates":[-118.43958447689758,49.030545717045349]},"properties":{"FID":326,"Bldg_ID":"B0092170","Bldg_Type":"Office","Address":"486 72 St","City":"GRAND FORKS"}},{"type":"Feature","id":327,"geometry":{"type":"Point","coordinates":[-127.17399010500472,54.777366369910276]},"properties":{"FID":327,"Bldg_ID":"B0092162","Bldg_Type":"Office","Address":"1020 Murray St","City":"SMITHERS"}},{"type":"Feature","id":328,"geometry":{"type":"Point","coordinates":[-123.0834898497591,49.312292974701805]},"properties":{"FID":328,"Bldg_ID":"B0092161","Bldg_Type":"Office","Address":"221 W Esplanade","City":"NORTH VANCOUVER"}},{"type":"Feature","id":329,"geometry":{"type":"Point","coordinates":[-123.36345965943134,48.422199981922816]},"properties":{"FID":329,"Bldg_ID":"B0092150","Bldg_Type":"Office","Address":"810 Blanshard St","City":"VICTORIA"}},{"type":"Feature","id":330,"geometry":{"type":"Point","coordinates":[-122.85004317802415,49.187894525650428]},"properties":{"FID":330,"Bldg_ID":"B0092145","Bldg_Type":"Office","Address":"13450 102nd Ave","City":"SURREY"}},{"type":"Feature","id":331,"geometry":{"type":"Point","coordinates":[-119.26754365250841,52.833200671005734]},"properties":{"FID":331,"Bldg_ID":"B0092144","Bldg_Type":"Courthouse","Address":"1300 4th Ave","City":"VALEMOUNT"}},{"type":"Feature","id":332,"geometry":{"type":"Point","coordinates":[-122.84026317814484,49.193016127586908]},"properties":{"FID":332,"Bldg_ID":"B0092143","Bldg_Type":"Office","Address":"10475 138th St","City":"SURREY"}},{"type":"Feature","id":333,"geometry":{"type":"Point","coordinates":[-127.16004849912053,54.766608041142277]},"properties":{"FID":333,"Bldg_ID":"B0092140","Bldg_Type":"Warehouse","Address":"2984 Railway Ave","City":"SMITHERS"}},{"type":"Feature","id":334,"geometry":{"type":"Point","coordinates":[-123.36198215811213,48.422825312319837]},"properties":{"FID":334,"Bldg_ID":"B0092138","Bldg_Type":"Office","Address":"836_844 Courtney St","City":"VICTORIA"}},{"type":"Feature","id":335,"geometry":{"type":"Point","coordinates":[-119.423820585504,49.890172735742922]},"properties":{"FID":335,"Bldg_ID":"B0092137","Bldg_Type":"Office","Address":"1690 Powick Rd","City":"KELOWNA"}},{"type":"Feature","id":336,"geometry":{"type":"Point","coordinates":[-122.71218355616874,53.906978055272241]},"properties":{"FID":336,"Bldg_ID":"B0092126","Bldg_Type":"Jail","Address":"795 Hwy 16 E","City":"PRINCE GEORGE"}},{"type":"Feature","id":337,"geometry":{"type":"Point","coordinates":[-126.64685097509738,54.398366434618218]},"properties":{"FID":337,"Bldg_ID":"B0092118","Bldg_Type":"Office","Address":"3400 11th St","City":"HOUSTON"}},{"type":"Feature","id":338,"geometry":{"type":"Point","coordinates":[-122.97236671378982,49.244915644662761]},"properties":{"FID":338,"Bldg_ID":"B0092115","Bldg_Type":"Office","Address":"4425 Ledger Ave","City":"BURNABY"}},{"type":"Feature","id":339,"geometry":{"type":"Point","coordinates":[-124.31036734192902,49.319736412310888]},"properties":{"FID":339,"Bldg_ID":"B0092104","Bldg_Type":"Office","Address":"154 Middleton Ave","City":"PARKSVILLE"}},{"type":"Feature","id":340,"geometry":{"type":"Point","coordinates":[-115.75296979021205,49.531242566934239]},"properties":{"FID":340,"Bldg_ID":"B0092103","Bldg_Type":"Storage Small","Address":"1902 Theatre Rd","City":"CRANBROOK"}},{"type":"Feature","id":341,"geometry":{"type":"Point","coordinates":[-118.43673677666294,49.032700567814189]},"properties":{"FID":341,"Bldg_ID":"B0092096","Bldg_Type":"Office","Address":"7290 2nd St","City":"GRAND FORKS"}},{"type":"Feature","id":342,"geometry":{"type":"Point","coordinates":[-123.11200794555234,49.284750810053872]},"properties":{"FID":342,"Bldg_ID":"B0092093","Bldg_Type":"Office","Address":"555 W Hastings St","City":"VANCOUVER"}},{"type":"Feature","id":343,"geometry":{"type":"Point","coordinates":[-128.65037882007616,54.049346048191772]},"properties":{"FID":343,"Bldg_ID":"B0092091","Bldg_Type":"Courthouse","Address":"603 Mountainview Sq","City":"KITIMAT"}},{"type":"Feature","id":344,"geometry":{"type":"Point","coordinates":[-120.41274118201504,50.66587527071092]},"properties":{"FID":344,"Bldg_ID":"B0092087","Bldg_Type":"Jail","Address":"2250 Trans Can Hwy","City":"KAMLOOPS"}},{"type":"Feature","id":345,"geometry":{"type":"Point","coordinates":[-124.00582271418898,54.016561228925461]},"properties":{"FID":345,"Bldg_ID":"B0092086","Bldg_Type":"Courthouse","Address":"2440 Bute Ave","City":"VANDERHOOF"}},{"type":"Feature","id":346,"geometry":{"type":"Point","coordinates":[-119.27268726152045,50.263197853365021]},"properties":{"FID":346,"Bldg_ID":"B0092085","Bldg_Type":"Office","Address":"3101 29th Ave","City":"VERNON"}},{"type":"Feature","id":347,"geometry":{"type":"Point","coordinates":[-123.14107102012704,49.172366711629429]},"properties":{"FID":347,"Bldg_ID":"B0092075","Bldg_Type":"Courthouse","Address":"7577 Elmbridge Way","City":"RICHMOND"}},{"type":"Feature","id":348,"geometry":{"type":"Point","coordinates":[-122.91689439191052,49.201271818683139]},"properties":{"FID":348,"Bldg_ID":"B0092061","Bldg_Type":"Office","Address":"88 10th St","City":"NEW WESTMINSTER"}},{"type":"Feature","id":349,"geometry":{"type":"Point","coordinates":[-121.9336823533008,50.693978031657309]},"properties":{"FID":349,"Bldg_ID":"B0092056","Bldg_Type":"Courthouse","Address":"615 Main St","City":"LILLOOET"}},{"type":"Feature","id":350,"geometry":{"type":"Point","coordinates":[-115.06501824422682,49.503897159766737]},"properties":{"FID":350,"Bldg_ID":"B0092055","Bldg_Type":"Courthouse","Address":"401 4th Ave","City":"FERNIE"}},{"type":"Feature","id":351,"geometry":{"type":"Point","coordinates":[-118.20762617628927,51.004534048087372]},"properties":{"FID":351,"Bldg_ID":"B0092054","Bldg_Type":"Courthouse","Address":"1123 2nd St W","City":"REVELSTOKE"}},{"type":"Feature","id":352,"geometry":{"type":"Point","coordinates":[-124.00698931389576,54.01620010814468]},"properties":{"FID":352,"Bldg_ID":"B0092053","Bldg_Type":"Office","Address":"189 Stewart St E","City":"VANDERHOOF"}},{"type":"Feature","id":353,"geometry":{"type":"Point","coordinates":[-126.5891002231529,52.387338620807675]},"properties":{"FID":353,"Bldg_ID":"B0092050","Bldg_Type":"Office","Address":"1687 Lot 2_3 Airport Rd","City":"HAGENSBORG"}},{"type":"Feature","id":354,"geometry":{"type":"Point","coordinates":[-122.51214424120175,49.2551794382249]},"properties":{"FID":354,"Bldg_ID":"B0092049","Bldg_Type":"Warehouse","Address":"13777 256th St","City":"MAPLE RIDGE"}},{"type":"Feature","id":355,"geometry":{"type":"Point","coordinates":[-123.11901544750569,49.287255609143948]},"properties":{"FID":355,"Bldg_ID":"B0092044","Bldg_Type":"Office","Address":"1066 W Hastings St","City":"VANCOUVER"}},{"type":"Feature","id":356,"geometry":{"type":"Point","coordinates":[-121.76356101467469,49.238678693572979]},"properties":{"FID":356,"Bldg_ID":"B0092042","Bldg_Type":"Office","Address":"7086 Pioneer Ave","City":"AGASSIZ"}},{"type":"Feature","id":357,"geometry":{"type":"Point","coordinates":[-123.4245709036088,48.560477761256145]},"properties":{"FID":357,"Bldg_ID":"B0092041","Bldg_Type":"Warehouse","Address":"6578 Bryn Rd","City":"CENTRAL SAANICH"}},{"type":"Feature","id":358,"geometry":{"type":"Point","coordinates":[-122.8473542875861,49.226453427693301]},"properties":{"FID":358,"Bldg_ID":"B0092040","Bldg_Type":"Office","Address":"1478 Hartley Ave","City":"COQUITLAM"}},{"type":"Feature","id":359,"geometry":{"type":"Point","coordinates":[-122.83375137212748,49.174642637231578]},"properties":{"FID":359,"Bldg_ID":"B0092030","Bldg_Type":"Office","Address":"9460 140th St","City":"SURREY"}},{"type":"Feature","id":360,"geometry":{"type":"Point","coordinates":[-123.39209627890338,48.481155541287123]},"properties":{"FID":360,"Bldg_ID":"B0092026","Bldg_Type":"Office","Address":"4220 Commerce Cir","City":"SAANICH"}},{"type":"Feature","id":361,"geometry":{"type":"Point","coordinates":[-123.41217528263519,48.485748539791643]},"properties":{"FID":361,"Bldg_ID":"B0092024","Bldg_Type":"Storage Vehicle","Address":"4300 N Rd","City":"SAANICH"}},{"type":"Feature","id":362,"geometry":{"type":"Point","coordinates":[-123.09805734335409,49.282836221851952]},"properties":{"FID":362,"Bldg_ID":"B0092017","Bldg_Type":"Jail","Address":"211 Gore Ave","City":"VANCOUVER"}},{"type":"Feature","id":363,"geometry":{"type":"Point","coordinates":[-119.43884468616292,49.884797143671967]},"properties":{"FID":363,"Bldg_ID":"B0092016","Bldg_Type":"Office","Address":"1640 Dilworth Rd","City":"KELOWNA"}},{"type":"Feature","id":364,"geometry":{"type":"Point","coordinates":[-123.0701131337218,49.262007823595489]},"properties":{"FID":364,"Bldg_ID":"B0092001","Bldg_Type":"Office","Address":"2525 Commercial Dr","City":"VANCOUVER"}},{"type":"Feature","id":365,"geometry":{"type":"Point","coordinates":[-128.58037749709135,54.515563843887328]},"properties":{"FID":365,"Bldg_ID":"B0091979","Bldg_Type":"Office","Address":"102 4450 Greig Ave","City":"TERRACE"}},{"type":"Feature","id":366,"geometry":{"type":"Point","coordinates":[-119.27343176739349,50.282644994055126]},"properties":{"FID":366,"Bldg_ID":"B0091966","Bldg_Type":"Health Unit","Address":"3115 48th Ave","City":"VERNON"}},{"type":"Feature","id":367,"geometry":{"type":"Point","coordinates":[-123.76379339931202,49.471144432038948]},"properties":{"FID":367,"Bldg_ID":"B0091929","Bldg_Type":"Courthouse","Address":"5480 Shorncliffe Ave","City":"SECHELT"}},{"type":"Feature","id":368,"geometry":{"type":"Point","coordinates":[-123.09845984287401,49.282727831660019]},"properties":{"FID":368,"Bldg_ID":"B0091916","Bldg_Type":"Jail","Address":"265 E Cordova St","City":"VANCOUVER"}},{"type":"Feature","id":369,"geometry":{"type":"Point","coordinates":[-121.95320392821098,49.171024988848593]},"properties":{"FID":369,"Bldg_ID":"B0091910","Bldg_Type":"Office","Address":"45960 Wellington Ave","City":"CHILLIWACK"}},{"type":"Feature","id":370,"geometry":{"type":"Point","coordinates":[-127.1698089050474,54.780629260150661]},"properties":{"FID":370,"Bldg_ID":"B0091909","Bldg_Type":"Office","Address":"3842 3rd Ave.","City":"SMITHERS"}},{"type":"Feature","id":371,"geometry":{"type":"Point","coordinates":[-123.36601896033736,48.425881211832817]},"properties":{"FID":371,"Bldg_ID":"B0091904","Bldg_Type":"Office","Address":"1215 Broad St","City":"VICTORIA"}},{"type":"Feature","id":372,"geometry":{"type":"Point","coordinates":[-121.63536745697432,49.104160741742902]},"properties":{"FID":372,"Bldg_ID":"B0091894","Bldg_Type":"Trailer Office","Address":"57657 Chilliwack Lk Rd","City":"CHILLIWACK"}},{"type":"Feature","id":373,"geometry":{"type":"Point","coordinates":[-122.60297534732841,49.219350665656229]},"properties":{"FID":373,"Bldg_ID":"B0091890","Bldg_Type":"Office","Address":"22356 Mcintosh Ave","City":"MAPLE RIDGE"}},{"type":"Feature","id":374,"geometry":{"type":"Point","coordinates":[-122.59988024667389,49.21978243593145]},"properties":{"FID":374,"Bldg_ID":"B0091884","Bldg_Type":"Office","Address":"22470 Dewdney Trunk Rd","City":"MAPLE RIDGE"}},{"type":"Feature","id":375,"geometry":{"type":"Point","coordinates":[-123.38440767896383,48.490543662794821]},"properties":{"FID":375,"Bldg_ID":"B0091872","Bldg_Type":"Office","Address":"4460 Chatterton Way","City":"SAANICH"}},{"type":"Feature","id":376,"geometry":{"type":"Point","coordinates":[-122.75316066762669,53.91874117981569]},"properties":{"FID":376,"Bldg_ID":"B0091864","Bldg_Type":"Office","Address":"1705 3rd Ave","City":"PRINCE GEORGE"}},{"type":"Feature","id":377,"geometry":{"type":"Point","coordinates":[-119.27961658812559,50.704219105622748]},"properties":{"FID":377,"Bldg_ID":"B0091854","Bldg_Type":"Office","Address":"550 Lakeshore Rd NE","City":"SALMON ARM"}},{"type":"Feature","id":378,"geometry":{"type":"Point","coordinates":[-119.49143799633326,49.886179057898794]},"properties":{"FID":378,"Bldg_ID":"B0091852","Bldg_Type":"Office","Address":"565 Bernard Ave","City":"KELOWNA"}},{"type":"Feature","id":379,"geometry":{"type":"Point","coordinates":[-123.07943211304655,49.1797833896103]},"properties":{"FID":379,"Bldg_ID":"B0091825","Bldg_Type":"Office","Address":"4600 Jacombs Rd","City":"RICHMOND"}},{"type":"Feature","id":380,"geometry":{"type":"Point","coordinates":[-123.70993210687612,48.78422773872861]},"properties":{"FID":380,"Bldg_ID":"B0091817","Bldg_Type":"Office","Address":"161 4th St","City":"DUNCAN"}},{"type":"Feature","id":381,"geometry":{"type":"Point","coordinates":[-121.58650111376988,51.091687980754081]},"properties":{"FID":381,"Bldg_ID":"B0091816","Bldg_Type":"Office","Address":"1423 Cariboo Hwy","City":"CLINTON"}},{"type":"Feature","id":382,"geometry":{"type":"Point","coordinates":[-123.04775372952342,49.261377786457331]},"properties":{"FID":382,"Bldg_ID":"B0091801","Bldg_Type":"Office","Address":"108 2780 E Broadway","City":"VANCOUVER"}},{"type":"Feature","id":383,"geometry":{"type":"Point","coordinates":[-122.82759679954512,49.282697022840289]},"properties":{"FID":383,"Bldg_ID":"B0091800","Bldg_Type":"Office","Address":"205 Newport Dr","City":"PORT MOODY"}},{"type":"Feature","id":384,"geometry":{"type":"Point","coordinates":[-120.32657296942149,50.675594741254031]},"properties":{"FID":384,"Bldg_ID":"B0091788","Bldg_Type":"Office","Address":"619 Victoria St","City":"KAMLOOPS"}},{"type":"Feature","id":385,"geometry":{"type":"Point","coordinates":[-120.50693165896379,49.458059498183111]},"properties":{"FID":385,"Bldg_ID":"B0091785","Bldg_Type":"Office","Address":"136 Tapton Ave","City":"PRINCETON"}},{"type":"Feature","id":386,"geometry":{"type":"Point","coordinates":[-121.95379302815641,49.170727957962711]},"properties":{"FID":386,"Bldg_ID":"B0091782","Bldg_Type":"Courthouse","Address":"46085 Yale Rd","City":"CHILLIWACK"}},{"type":"Feature","id":387,"geometry":{"type":"Point","coordinates":[-119.49221149642256,49.888330838176209]},"properties":{"FID":387,"Bldg_ID":"B0091778","Bldg_Type":"Office","Address":"1420 St Paul St","City":"KELOWNA"}},{"type":"Feature","id":388,"geometry":{"type":"Point","coordinates":[-123.08985194186143,49.283274822301287]},"properties":{"FID":388,"Bldg_ID":"B0091768","Bldg_Type":"Office","Address":"687 Powell St","City":"VANCOUVER"}},{"type":"Feature","id":389,"geometry":{"type":"Point","coordinates":[-122.86298757116673,49.153394522653066]},"properties":{"FID":389,"Bldg_ID":"B0091762","Bldg_Type":"Industrial Maintenance","Address":"8307 130th St","City":"SURREY"}},{"type":"Feature","id":390,"geometry":{"type":"Point","coordinates":[-121.44092049808873,49.37903529746152]},"properties":{"FID":390,"Bldg_ID":"B0091757","Bldg_Type":"Office","Address":"833 3rd Ave","City":"HOPE"}},{"type":"Feature","id":391,"geometry":{"type":"Point","coordinates":[-123.3772652658143,48.44178332157297]},"properties":{"FID":391,"Bldg_ID":"B0091756","Bldg_Type":"Office","Address":"395 Waterfront Cr","City":"VICTORIA"}},{"type":"Feature","id":392,"geometry":{"type":"Point","coordinates":[-132.11596234085971,53.253865683117226]},"properties":{"FID":392,"Bldg_ID":"B0091752","Bldg_Type":"Industrial Maintenance","Address":"1229 Oceanview Dr","City":"QUEEN CHARLOTTE"}},{"type":"Feature","id":393,"geometry":{"type":"Point","coordinates":[-122.84624355890381,49.119256833668238]},"properties":{"FID":393,"Bldg_ID":"B0091717","Bldg_Type":"Office","Address":"13545 64th Ave","City":"SURREY"}},{"type":"Feature","id":394,"geometry":{"type":"Point","coordinates":[-123.5088459945004,48.860155545283568]},"properties":{"FID":394,"Bldg_ID":"B0091702","Bldg_Type":"Courthouse","Address":"343 Lower Ganges Rd","City":"SALTSPRING ISLAND"}},{"type":"Feature","id":395,"geometry":{"type":"Point","coordinates":[-121.96529902407319,49.14815895603995]},"properties":{"FID":395,"Bldg_ID":"B0091696","Bldg_Type":"Office","Address":"45467 Yale Rd","City":"CHILLIWACK"}},{"type":"Feature","id":396,"geometry":{"type":"Point","coordinates":[-123.37905726530799,48.439238541058138]},"properties":{"FID":396,"Bldg_ID":"B0091693","Bldg_Type":"Office","Address":"2940 Jutland Rd","City":"VICTORIA"}},{"type":"Feature","id":397,"geometry":{"type":"Point","coordinates":[-120.32825976842184,50.670497671260549]},"properties":{"FID":397,"Bldg_ID":"B0091686","Bldg_Type":"Site Service","Address":"561 Columbia St","City":"KAMLOOPS"}},{"type":"Feature","id":398,"geometry":{"type":"Point","coordinates":[-120.32983556853094,50.6700385906761]},"properties":{"FID":398,"Bldg_ID":"B0091685","Bldg_Type":"Site Service","Address":"521 Columbia St","City":"KAMLOOPS"}},{"type":"Feature","id":399,"geometry":{"type":"Point","coordinates":[-124.78779349803723,49.263260973580579]},"properties":{"FID":399,"Bldg_ID":"B0091669","Bldg_Type":"Office","Address":"4885 Cherry Creek Rd","City":"PORT ALBERNI"}},{"type":"Feature","id":400,"geometry":{"type":"Point","coordinates":[-122.70573205208784,53.901204195410905]},"properties":{"FID":400,"Bldg_ID":"B0091653","Bldg_Type":"Dormitory","Address":"1211 Gunn Rd","City":"PRINCE GEORGE"}},{"type":"Feature","id":401,"geometry":{"type":"Point","coordinates":[-128.64990702164141,54.051187258466278]},"properties":{"FID":401,"Bldg_ID":"B0091619","Bldg_Type":"Office","Address":"564 Mountain View Sq\n","City":"KITIMAT"}},{"type":"Feature","id":402,"geometry":{"type":"Point","coordinates":[-123.37478186318178,48.434854431591305]},"properties":{"FID":402,"Bldg_ID":"B0091584","Bldg_Type":"Office","Address":"343 Bay St","City":"VICTORIA"}},{"type":"Feature","id":403,"geometry":{"type":"Point","coordinates":[-121.94117632218112,49.155747409409656]},"properties":{"FID":403,"Bldg_ID":"B0091580","Bldg_Type":"Office","Address":"46360 Airport Rd","City":"CHILLIWACK"}},{"type":"Feature","id":404,"geometry":{"type":"Point","coordinates":[-120.84700536404846,56.247242583610195]},"properties":{"FID":404,"Bldg_ID":"B0091508","Bldg_Type":"Office","Address":"9941 101 Ave","City":"FORT ST JOHN"}},{"type":"Feature","id":405,"geometry":{"type":"Point","coordinates":[-121.62460067263417,55.696422702194305]},"properties":{"FID":405,"Bldg_ID":"B0091486","Bldg_Type":"Office","Address":"4821 S Access Rd","City":"CHETWYND"}},{"type":"Feature","id":406,"geometry":{"type":"Point","coordinates":[-121.63465405657433,49.103644661412901]},"properties":{"FID":406,"Bldg_ID":"B0091467","Bldg_Type":"Jail","Address":"57657 Chilliwack Lk Rd","City":"CHILLIWACK"}},{"type":"Feature","id":407,"geometry":{"type":"Point","coordinates":[-119.38821717841161,49.888279940254421]},"properties":{"FID":407,"Bldg_ID":"B0091462","Bldg_Type":"Office","Address":"147 Park Rd","City":"KELOWNA"}},{"type":"Feature","id":408,"geometry":{"type":"Point","coordinates":[-123.36359655747704,48.418636141853867]},"properties":{"FID":408,"Bldg_ID":"B0091426","Bldg_Type":"Recreation","Address":"835 Humboldt St","City":"VICTORIA"}},{"type":"Feature","id":409,"geometry":{"type":"Point","coordinates":[-122.32370975743208,49.053977910521297]},"properties":{"FID":409,"Bldg_ID":"B0091424","Bldg_Type":"Office","Address":"2828 Cruickshank St","City":"ABBOTSFORD"}},{"type":"Feature","id":410,"geometry":{"type":"Point","coordinates":[-122.75929466631023,53.911533608874173]},"properties":{"FID":410,"Bldg_ID":"B0091420","Bldg_Type":"Office","Address":"1600 15th Ave","City":"PRINCE GEORGE"}},{"type":"Feature","id":411,"geometry":{"type":"Point","coordinates":[-122.75354317915583,49.250588980406306]},"properties":{"FID":411,"Bldg_ID":"B0091374","Bldg_Type":"Jail","Address":"1451 Kingsway Ave","City":"PORT COQUITLAM"}},{"type":"Feature","id":412,"geometry":{"type":"Point","coordinates":[-122.81020978260555,49.230283422566522]},"properties":{"FID":412,"Bldg_ID":"B0091356","Bldg_Type":"Hospital","Address":"70 Colony Farm Rd","City":"COQUITLAM"}},{"type":"Feature","id":413,"geometry":{"type":"Point","coordinates":[-122.81045978338517,49.230311202875932]},"properties":{"FID":413,"Bldg_ID":"B0091355","Bldg_Type":"Hospital","Address":"70 Colony Farm Rd","City":"COQUITLAM"}},{"type":"Feature","id":414,"geometry":{"type":"Point","coordinates":[-122.81065428332198,49.230255642465103]},"properties":{"FID":414,"Bldg_ID":"B0091354","Bldg_Type":"Hospital","Address":"70 Colony Farm Rd","City":"COQUITLAM"}},{"type":"Feature","id":415,"geometry":{"type":"Point","coordinates":[-122.81082098332062,49.230172312806737]},"properties":{"FID":415,"Bldg_ID":"B0091353","Bldg_Type":"Hospital","Address":"70 Colony Farm Rd","City":"COQUITLAM"}},{"type":"Feature","id":416,"geometry":{"type":"Point","coordinates":[-123.02421341756632,49.232738308032573]},"properties":{"FID":416,"Bldg_ID":"B0091223","Bldg_Type":"Office","Address":"3665 Kingsway","City":"VANCOUVER"}},{"type":"Feature","id":417,"geometry":{"type":"Point","coordinates":[-123.52156384466491,49.407099958035779]},"properties":{"FID":417,"Bldg_ID":"B0091218","Bldg_Type":"Office","Address":"938 Gibsons Way","City":"GIBSONS"}},{"type":"Feature","id":418,"geometry":{"type":"Point","coordinates":[-118.43620897645238,49.032533907817445]},"properties":{"FID":418,"Bldg_ID":"B0091206","Bldg_Type":"Office","Address":"7275 Riverside Dr","City":"GRAND FORKS"}},{"type":"Feature","id":419,"geometry":{"type":"Point","coordinates":[-122.84340427910557,49.194227857484194]},"properties":{"FID":419,"Bldg_ID":"B0091173","Bldg_Type":"Office","Address":"13680 105a Ave","City":"SURREY"}},{"type":"Feature","id":420,"geometry":{"type":"Point","coordinates":[-119.68185785260178,49.602255220494833]},"properties":{"FID":420,"Bldg_ID":"B0090964","Bldg_Type":"Office","Address":"13211 Henry Ave","City":"SUMMERLAND"}},{"type":"Feature","id":421,"geometry":{"type":"Point","coordinates":[-120.366904274022,50.665950436679502]},"properties":{"FID":421,"Bldg_ID":"B0090921","Bldg_Type":"Office","Address":"970 Camosun Cr","City":"KAMLOOPS"}},{"type":"Feature","id":422,"geometry":{"type":"Point","coordinates":[-125.31316105855699,52.459587185898961]},"properties":{"FID":422,"Bldg_ID":"B0090475","Bldg_Type":"Site Service","Address":"Chilcotin Hwy 20","City":"ANAHIM LAKE"}},{"type":"Feature","id":423,"geometry":{"type":"Point","coordinates":[-117.66393320558434,49.317086441660628]},"properties":{"FID":423,"Bldg_ID":"B0090429","Bldg_Type":"Storage Open","Address":"845 Columbia Ave","City":"CASTLEGAR"}},{"type":"Feature","id":424,"geometry":{"type":"Point","coordinates":[-122.81084868233647,49.228116752004979]},"properties":{"FID":424,"Bldg_ID":"B0090425","Bldg_Type":"Dormitory","Address":"70 Colony Farm Rd","City":"COQUITLAM"}},{"type":"Feature","id":425,"geometry":{"type":"Point","coordinates":[-122.80982098233339,49.228172312440641]},"properties":{"FID":425,"Bldg_ID":"B0090424","Bldg_Type":"Dormitory","Address":"70 Colony Farm Rd","City":"COQUITLAM"}},{"type":"Feature","id":426,"geometry":{"type":"Point","coordinates":[-122.81062648249463,49.22847786283549]},"properties":{"FID":426,"Bldg_ID":"B0090423","Bldg_Type":"Dormitory","Address":"70 Colony Farm Rd","City":"COQUITLAM"}},{"type":"Feature","id":427,"geometry":{"type":"Point","coordinates":[-122.80999908307186,49.230121972487431]},"properties":{"FID":427,"Bldg_ID":"B0090422","Bldg_Type":"Dormitory","Address":"70 Colony Farm Rd","City":"COQUITLAM"}},{"type":"Feature","id":428,"geometry":{"type":"Point","coordinates":[-122.8100208836003,49.230223922419619]},"properties":{"FID":428,"Bldg_ID":"B0090421","Bldg_Type":"Dormitory","Address":"70 Colony Farm Rd","City":"COQUITLAM"}},{"type":"Feature","id":429,"geometry":{"type":"Point","coordinates":[-122.81101538269539,49.22992231251569]},"properties":{"FID":429,"Bldg_ID":"B0090419","Bldg_Type":"Dormitory","Address":"70 Colony Farm Rd","City":"COQUITLAM"}},{"type":"Feature","id":430,"geometry":{"type":"Point","coordinates":[-122.81043208371742,49.229616752692003]},"properties":{"FID":430,"Bldg_ID":"B0090418","Bldg_Type":"Dormitory","Address":"70 Colony Farm Rd","City":"COQUITLAM"}},{"type":"Feature","id":431,"geometry":{"type":"Point","coordinates":[-122.80987648281223,49.229755642896528]},"properties":{"FID":431,"Bldg_ID":"B0090417","Bldg_Type":"Dormitory","Address":"70 Colony Farm Rd","City":"COQUITLAM"}},{"type":"Feature","id":432,"geometry":{"type":"Point","coordinates":[-122.81004318331125,49.229200082356599]},"properties":{"FID":432,"Bldg_ID":"B0090416","Bldg_Type":"Dormitory","Address":"70 Colony Farm Rd","City":"COQUITLAM"}},{"type":"Feature","id":433,"geometry":{"type":"Point","coordinates":[-122.81087648364407,49.229061202231613]},"properties":{"FID":433,"Bldg_ID":"B0090415","Bldg_Type":"Dormitory","Address":"70 Colony Farm Rd","City":"COQUITLAM"}},{"type":"Feature","id":434,"geometry":{"type":"Point","coordinates":[-122.81151538330488,49.229477862050111]},"properties":{"FID":434,"Bldg_ID":"B0090414","Bldg_Type":"Dormitory","Address":"70 Colony Farm Rd","City":"COQUITLAM"}},{"type":"Feature","id":435,"geometry":{"type":"Point","coordinates":[-123.12465404706465,49.279823708566461]},"properties":{"FID":435,"Bldg_ID":"B0090404","Bldg_Type":"Office","Address":"808 Nelson St","City":"VANCOUVER"}},{"type":"Feature","id":436,"geometry":{"type":"Point","coordinates":[-122.8123764837744,49.229700082357922]},"properties":{"FID":436,"Bldg_ID":"B0090391","Bldg_Type":"Dormitory","Address":"70 Colony Farm Rd","City":"COQUITLAM"}},{"type":"Feature","id":437,"geometry":{"type":"Point","coordinates":[-119.28061018806241,50.702594006036598]},"properties":{"FID":437,"Bldg_ID":"B0090378","Bldg_Type":"Office","Address":"351 Hudson Ave NE","City":"SALMON ARM"}},{"type":"Feature","id":438,"geometry":{"type":"Point","coordinates":[-124.04790107901934,49.234062678947261]},"properties":{"FID":438,"Bldg_ID":"B0090271","Bldg_Type":"Office","Address":"6551 Aulds Rd","City":"NANAIMO"}},{"type":"Feature","id":439,"geometry":{"type":"Point","coordinates":[-123.11852374120612,49.260716718001902]},"properties":{"FID":439,"Bldg_ID":"B0090258","Bldg_Type":"Laboratory","Address":"655 W 12th Ave","City":"VANCOUVER"}},{"type":"Feature","id":440,"geometry":{"type":"Point","coordinates":[-124.52190842047207,49.845873917428783]},"properties":{"FID":440,"Bldg_ID":"B0090218","Bldg_Type":"Office","Address":"6975 Alberni St","City":"POWELL RIVER"}},{"type":"Feature","id":441,"geometry":{"type":"Point","coordinates":[-117.03904212054597,49.059061843618288]},