{"type":"FeatureCollection","features":[{"type":"Feature","id":0,"geometry":{"type":"Point","coordinates":[-122.75017100074432,53.916096998911271]},"properties":{"FID":0,"Bldg_ID":"B1002878","Bldg_Type":" ","Address":"500 Victoria St","City":"PRINCE GEORGE"}},{"type":"Feature","id":1,"geometry":{"type":"Point","coordinates":[-122.74650092325847,53.918262129856785]},"properties":{"FID":1,"Bldg_ID":"B1002875","Bldg_Type":" ","Address":"1380 - 2nd Avenue","City":"PRINCE GEORGE"}},{"type":"Feature","id":2,"geometry":{"type":"Point","coordinates":[-122.76332606453856,49.243892536354551]},"properties":{"FID":2,"Bldg_ID":"B1002874","Bldg_Type":" ","Address":"101-1525 Broadway St","City":"PORT COQUITLAM"}},{"type":"Feature","id":3,"geometry":{"type":"Point","coordinates":[-120.32925148413491,50.676472028123563]},"properties":{"FID":3,"Bldg_ID":"B1002873","Bldg_Type":" ","Address":"121 5th Ave","City":"KAMLOOPS"}},{"type":"Feature","id":4,"geometry":{"type":"Point","coordinates":[-120.36532712113451,50.653946726517681]},"properties":{"FID":4,"Bldg_ID":"B1002870","Bldg_Type":" ","Address":"1801 Princeton-Kmlps Hwy","City":"KAMLOOPS"}},{"type":"Feature","id":5,"geometry":{"type":"Point","coordinates":[-123.46844065736965,48.441811266104864]},"properties":{"FID":5,"Bldg_ID":"B1002865","Bldg_Type":" ","Address":"1901 Sooke Rd","City":"VICTORIA"}},{"type":"Feature","id":6,"geometry":{"type":"Point","coordinates":[-122.82198636160345,49.190080325328346]},"properties":{"FID":6,"Bldg_ID":"B1002863","Bldg_Type":" ","Address":"10430 144th St","City":"SURREY"}},{"type":"Feature","id":7,"geometry":{"type":"Point","coordinates":[-122.7839049740081,53.908549765098378]},"properties":{"FID":7,"Bldg_ID":"B1002862","Bldg_Type":" ","Address":"1698 Lyon St","City":"PRINCE GEORGE"}},{"type":"Feature","id":8,"geometry":{"type":"Point","coordinates":[-122.15528356152358,52.141590749500232]},"properties":{"FID":8,"Bldg_ID":"B1002861","Bldg_Type":" ","Address":"1010 MacKenzie Ave","City":"WILLIAMS LAKE"}},{"type":"Feature","id":9,"geometry":{"type":"Point","coordinates":[-120.09682299997121,51.628002999078497]},"properties":{"FID":9,"Bldg_ID":"B1002858","Bldg_Type":" ","Address":"687 Yellowhead S Hwy5","City":"CLEARWATER"}},{"type":"Feature","id":10,"geometry":{"type":"Point","coordinates":[-120.84684205546843,56.248537853212369]},"properties":{"FID":10,"Bldg_ID":"B1002857","Bldg_Type":" ","Address":"Unit 2&3 - 10067 100 Ave","City":"FORT ST JOHN"}},{"type":"Feature","id":11,"geometry":{"type":"Point","coordinates":[-122.50397436726695,52.991232854986826]},"properties":{"FID":11,"Bldg_ID":"B1002856","Bldg_Type":" ","Address":"1089 N Cariboo Hwy 97","City":"QUESNEL"}},{"type":"Feature","id":12,"geometry":{"type":"Point","coordinates":[-128.59421999982939,54.513679998726218]},"properties":{"FID":12,"Bldg_ID":"B1002855","Bldg_Type":" ","Address":"4712-4714 Keith Ave","City":"TERRACE"}},{"type":"Feature","id":13,"geometry":{"type":"Point","coordinates":[-123.01550000053014,49.24962999888902]},"properties":{"FID":13,"Bldg_ID":"B1002854","Bldg_Type":" ","Address":"3935 Kincaid St","City":"BURNABY"}},{"type":"Feature","id":14,"geometry":{"type":"Point","coordinates":[-127.4943600005024,50.71717999921232]},"properties":{"FID":14,"Bldg_ID":"B1002853","Bldg_Type":" ","Address":"6855 Market St","City":"PORT HARDY"}},{"type":"Feature","id":15,"geometry":{"type":"Point","coordinates":[-116.96594899964855,51.296427999212376]},"properties":{"FID":15,"Bldg_ID":"B1002852","Bldg_Type":" ","Address":"903/905 9th St","City":"GOLDEN"}},{"type":"Feature","id":16,"geometry":{"type":"Point","coordinates":[-129.99364699991062,58.439951999184665]},"properties":{"FID":16,"Bldg_ID":"B1002851","Bldg_Type":" ","Address":"Lot 10 Commercial Dr","City":"DEASE LAKE"}},{"type":"Feature","id":17,"geometry":{"type":"Point","coordinates":[-125.24555450064729,50.034365398945724]},"properties":{"FID":17,"Bldg_ID":"B1002842","Bldg_Type":" ","Address":"1334 Island Hwy","City":"CAMPBELL RIVER"}},{"type":"Feature","id":18,"geometry":{"type":"Point","coordinates":[-122.74550650049943,53.914714999103651]},"properties":{"FID":18,"Bldg_ID":"B1002839","Bldg_Type":" ","Address":"1185 3rd Ave","City":"PRINCE GEORGE"}},{"type":"Feature","id":19,"geometry":{"type":"Point","coordinates":[-123.32745799933235,48.432774999076528]},"properties":{"FID":19,"Bldg_ID":"B1002837","Bldg_Type":" ","Address":"1952 Bay St","City":"VICTORIA"}},{"type":"Feature","id":20,"geometry":{"type":"Point","coordinates":[-119.45902999938188,49.881056999331669]},"properties":{"FID":20,"Bldg_ID":"B1002836","Bldg_Type":" ","Address":"401 1700 Dickson Ave","City":"KELOWNA"}},{"type":"Feature","id":21,"geometry":{"type":"Point","coordinates":[-122.61890799961995,49.217524998617684]},"properties":{"FID":21,"Bldg_ID":"B1002835","Bldg_Type":" ","Address":"201-21755 Lougheed Hwy","City":"MAPLE RIDGE"}},{"type":"Feature","id":22,"geometry":{"type":"Point","coordinates":[-122.58703889973408,49.212585798845303]},"properties":{"FID":22,"Bldg_ID":"B1002834","Bldg_Type":" ","Address":"22932 Lougheed Hwy","City":"MAPLE RIDGE"}},{"type":"Feature","id":23,"geometry":{"type":"Point","coordinates":[-122.60422199951063,49.217554999169536]},"properties":{"FID":23,"Bldg_ID":"B1002831","Bldg_Type":" ","Address":"200 11830 223 St","City":"MAPLE RIDGE"}},{"type":"Feature","id":24,"geometry":{"type":"Point","coordinates":[-128.58035210051813,54.515866619354661]},"properties":{"FID":24,"Bldg_ID":"B1002829","Bldg_Type":" ","Address":"5504 Lloyde Ave","City":"TERRACE"}},{"type":"Feature","id":25,"geometry":{"type":"Point","coordinates":[-123.11990230039659,49.284174048838231]},"properties":{"FID":25,"Bldg_ID":"B1002828","Bldg_Type":" ","Address":"925 W Georgia St","City":"VANCOUVER"}},{"type":"Feature","id":26,"geometry":{"type":"Point","coordinates":[-125.9056336995294,49.148240568828307]},"properties":{"FID":26,"Bldg_ID":"B1002827","Bldg_Type":" ","Address":"351 Arnet Rd","City":"TOFINO"}},{"type":"Feature","id":27,"geometry":{"type":"Point","coordinates":[-119.44690259988634,49.882812819470132]},"properties":{"FID":27,"Bldg_ID":"B1002825","Bldg_Type":" ","Address":"2045 Enterprise Way","City":"KELOWNA"}},{"type":"Feature","id":28,"geometry":{"type":"Point","coordinates":[-122.49589609937215,52.979867939242027]},"properties":{"FID":28,"Bldg_ID":"B1002824","Bldg_Type":" ","Address":"455 McLean St","City":"QUESNEL"}},{"type":"Feature","id":29,"geometry":{"type":"Point","coordinates":[-120.16839389944136,53.3051988992543]},"properties":{"FID":29,"Bldg_ID":"B1002821","Bldg_Type":" ","Address":"441 Columbia St","City":"MCBRIDE"}},{"type":"Feature","id":30,"geometry":{"type":"Point","coordinates":[-119.59096999943505,49.49552269913854]},"properties":{"FID":30,"Bldg_ID":"B1002818","Bldg_Type":" ","Address":"501 Main St","City":"PENTICTON"}},{"type":"Feature","id":31,"geometry":{"type":"Point","coordinates":[-122.3276102004062,49.054149899137286]},"properties":{"FID":31,"Bldg_ID":"B1002817","Bldg_Type":" ","Address":"32375 Veterans Way","City":"ABBOTSFORD"}},{"type":"Feature","id":32,"geometry":{"type":"Point","coordinates":[-120.37274639973583,50.652112699180869]},"properties":{"FID":32,"Bldg_ID":"B1002814","Bldg_Type":" ","Address":"1250 Rogers Way","City":"KAMLOOPS"}},{"type":"Feature","id":33,"geometry":{"type":"Point","coordinates":[-122.79135700070968,53.909634999478804]},"properties":{"FID":33,"Bldg_ID":"B1002811","Bldg_Type":" ","Address":"1558 Quinn Street","City":"PRINCE GEORGE"}},{"type":"Feature","id":34,"geometry":{"type":"Point","coordinates":[-120.78987499976864,50.113020998622751]},"properties":{"FID":34,"Bldg_ID":"B1002806","Bldg_Type":" ","Address":"1950 Mamette Ave","City":"MERRITT"}},{"type":"Feature","id":35,"geometry":{"type":"Point","coordinates":[-121.63379099963593,49.10362499938379]},"properties":{"FID":35,"Bldg_ID":"B1002805","Bldg_Type":" ","Address":"57657 Chilliwack Lk Rd","City":"CHILLIWACK"}},{"type":"Feature","id":36,"geometry":{"type":"Point","coordinates":[-128.59415700001392,54.513746998802453]},"properties":{"FID":36,"Bldg_ID":"B1002804","Bldg_Type":" ","Address":"4710 Keith Ave","City":"TERRACE"}},{"type":"Feature","id":37,"geometry":{"type":"Point","coordinates":[-123.70318499940014,48.782802999189578]},"properties":{"FID":37,"Bldg_ID":"B1002803","Bldg_Type":" ","Address":"2687 James St","City":"DUNCAN"}},{"type":"Feature","id":38,"geometry":{"type":"Point","coordinates":[-119.62788929952285,49.829846299118365]},"properties":{"FID":38,"Bldg_ID":"B1002801","Bldg_Type":" ","Address":"2448 Main St","City":"WEST KELOWNA"}},{"type":"Feature","id":39,"geometry":{"type":"Point","coordinates":[-123.41215700028634,48.493172999369683]},"properties":{"FID":39,"Bldg_ID":"B1002798","Bldg_Type":" ","Address":"1100-100-4464 Markham St","City":"SAANICH"}},{"type":"Feature","id":40,"geometry":{"type":"Point","coordinates":[-117.27881259955917,49.506478659054636]},"properties":{"FID":40,"Bldg_ID":"B1002790","Bldg_Type":" ","Address":"820 Nelson Ave","City":"NELSON"}},{"type":"Feature","id":41,"geometry":{"type":"Point","coordinates":[-123.7010055993423,48.775015278968695]},"properties":{"FID":41,"Bldg_ID":"B1002784","Bldg_Type":" ","Address":"7-180 Central Rd","City":"DUNCAN"}},{"type":"Feature","id":42,"geometry":{"type":"Point","coordinates":[-120.8969320005704,56.253443999319195]},"properties":{"FID":42,"Bldg_ID":"B1002783","Bldg_Type":" ","Address":"10628 Peck Ln","City":"FORT ST JOHN"}},{"type":"Feature","id":43,"geometry":{"type":"Point","coordinates":[-124.31530439941911,49.319717229223798]},"properties":{"FID":43,"Bldg_ID":"B1002782","Bldg_Type":" ","Address":"103 154 Memorial Ave","City":"PARKSVILLE"}},{"type":"Feature","id":44,"geometry":{"type":"Point","coordinates":[-123.33996299994513,48.418345998715914]},"properties":{"FID":44,"Bldg_ID":"B1002779","Bldg_Type":" ","Address":"1401 Rockland Ave","City":"VICTORIA"}},{"type":"Feature","id":45,"geometry":{"type":"Point","coordinates":[-123.33991800065027,48.418326999492542]},"properties":{"FID":45,"Bldg_ID":"B1002778","Bldg_Type":" ","Address":"1401 Rockland Ave","City":"VICTORIA"}},{"type":"Feature","id":46,"geometry":{"type":"Point","coordinates":[-123.4133700002795,48.656489998686361]},"properties":{"FID":46,"Bldg_ID":"B1002777","Bldg_Type":" ","Address":"2071 Malaview Ave","City":"SIDNEY"}},{"type":"Feature","id":47,"geometry":{"type":"Point","coordinates":[-119.27259649963806,50.257062599446371]},"properties":{"FID":47,"Bldg_ID":"B1002776","Bldg_Type":" ","Address":"2101 32nd St","City":"VERNON"}},{"type":"Feature","id":48,"geometry":{"type":"Point","coordinates":[-126.64318000042329,54.400929999003161]},"properties":{"FID":48,"Bldg_ID":"B1002775","Bldg_Type":" ","Address":"2430 Butler Ave","City":"HOUSTON"}},{"type":"Feature","id":49,"geometry":{"type":"Point","coordinates":[-126.20530799954641,54.885011918961261]},"properties":{"FID":49,"Bldg_ID":"B1002773","Bldg_Type":" ","Address":"34 McDonald Ave","City":"GRANISLE"}},{"type":"Feature","id":50,"geometry":{"type":"Point","coordinates":[-126.64813399944549,54.39824799894572]},"properties":{"FID":50,"Bldg_ID":"B1002770","Bldg_Type":" ","Address":"3367 12th St","City":"HOUSTON"}},{"type":"Feature","id":51,"geometry":{"type":"Point","coordinates":[-120.77369089976681,50.119822158626924]},"properties":{"FID":51,"Bldg_ID":"B1002769","Bldg_Type":" ","Address":"3420 Voght St","City":"MERRITT"}},{"type":"Feature","id":52,"geometry":{"type":"Point","coordinates":[-116.02859299941973,50.509414998803273]},"properties":{"FID":52,"Bldg_ID":"B1002768","Bldg_Type":" ","Address":"645 7th Ave","City":"INVERMERE"}},{"type":"Feature","id":53,"geometry":{"type":"Point","coordinates":[-121.94499189941047,49.173842959422103]},"properties":{"FID":53,"Bldg_ID":"B1002764","Bldg_Type":" ","Address":"46361 Yale Rd","City":"CHILLIWACK"}},{"type":"Feature","id":54,"geometry":{"type":"Point","coordinates":[-122.31257900058809,49.052768999201504]},"properties":{"FID":54,"Bldg_ID":"B1002763","Bldg_Type":" ","Address":"32885 Ventura Ave","City":"ABBOTSFORD"}},{"type":"Feature","id":55,"geometry":{"type":"Point","coordinates":[-122.78343200053172,53.919124998685]},"properties":{"FID":55,"Bldg_ID":"B1002762","Bldg_Type":" ","Address":"761 W Central St","City":"PRINCE GEORGE"}},{"type":"Feature","id":56,"geometry":{"type":"Point","coordinates":[-122.35014599970366,49.13363099913181]},"properties":{"FID":56,"Bldg_ID":"B1002759","Bldg_Type":" ","Address":"7266A River Pl","City":"MISSION"}},{"type":"Feature","id":57,"geometry":{"type":"Point","coordinates":[-119.39331100017195,49.888613999471559]},"properties":{"FID":57,"Bldg_ID":"B1002758","Bldg_Type":" ","Address":"405 Hwy 33 W","City":"KELOWNA"}},{"type":"Feature","id":58,"geometry":{"type":"Point","coordinates":[-123.04632439999523,49.257894599072003]},"properties":{"FID":58,"Bldg_ID":"B1002757","Bldg_Type":" ","Address":"2810 Grandview Hwy","City":"VANCOUVER"}},{"type":"Feature","id":59,"geometry":{"type":"Point","coordinates":[-122.91235149996709,49.199595398808562]},"properties":{"FID":59,"Bldg_ID":"B1002756","Bldg_Type":" ","Address":"900 Quayside Dr","City":"NEW WESTMINSTER"}},{"type":"Feature","id":60,"geometry":{"type":"Point","coordinates":[-122.74834000073653,53.916089999029296]},"properties":{"FID":60,"Bldg_ID":"B1002755","Bldg_Type":" ","Address":"490 Brunswick St","City":"PRINCE GEORGE"}},{"type":"Feature","id":61,"geometry":{"type":"Point","coordinates":[-117.66422190041007,49.317708299399953]},"properties":{"FID":61,"Bldg_ID":"B1002754","Bldg_Type":" ","Address":"845 Columbia Ave","City":"CASTLEGAR"}},{"type":"Feature","id":62,"geometry":{"type":"Point","coordinates":[-122.99370299935923,49.225625999231944]},"properties":{"FID":62,"Bldg_ID":"B1002750","Bldg_Type":" ","Address":"4980 Kingsway Ave","City":"BURNABY"}},{"type":"Feature","id":63,"geometry":{"type":"Point","coordinates":[-120.33311900014546,50.676107998653514]},"properties":{"FID":63,"Bldg_ID":"B1002749","Bldg_Type":" ","Address":"340 Victoria St","City":"KAMLOOPS"}},{"type":"Feature","id":64,"geometry":{"type":"Point","coordinates":[-127.08642599967256,50.589278998836321]},"properties":{"FID":64,"Bldg_ID":"B1002746","Bldg_Type":" ","Address":"1705 Campbell Way","City":"PORT MCNEILL"}},{"type":"Feature","id":65,"geometry":{"type":"Point","coordinates":[-121.4292989994474,49.377639999134203]},"properties":{"FID":65,"Bldg_ID":"B1002745","Bldg_Type":" ","Address":"650 Kawkawa Lk Rd","City":"HOPE"}},{"type":"Feature","id":66,"geometry":{"type":"Point","coordinates":[-122.31610800002072,49.037836999429125]},"properties":{"FID":66,"Bldg_ID":"B1002744","Bldg_Type":" ","Address":"32772 Marshall Rd","City":"ABBOTSFORD"}},{"type":"Feature","id":67,"geometry":{"type":"Point","coordinates":[-122.78406440061596,53.908603848729108]},"properties":{"FID":67,"Bldg_ID":"B1002741","Bldg_Type":" ","Address":"1686 Lyon St","City":"PRINCE GEORGE"}},{"type":"Feature","id":68,"geometry":{"type":"Point","coordinates":[-123.03921349962198,50.088786299036911]},"properties":{"FID":68,"Bldg_ID":"B1002740","Bldg_Type":" ","Address":"205G-1200 Alpha Lk Rd","City":"WHISTLER"}},{"type":"Feature","id":69,"geometry":{"type":"Point","coordinates":[-123.53417789940094,48.445453498731133]},"properties":{"FID":69,"Bldg_ID":"B1002739","Bldg_Type":" ","Address":"202-1311 Lkpoint Way","City":"LANGFORD"}},{"type":"Feature","id":70,"geometry":{"type":"Point","coordinates":[-122.70591519947872,53.902329298919945]},"properties":{"FID":70,"Bldg_ID":"B1002738","Bldg_Type":" ","Address":"1211 Gunn Rd","City":"PRINCE GEORGE"}},{"type":"Feature","id":71,"geometry":{"type":"Point","coordinates":[-116.97313750023788,51.307290498654837]},"properties":{"FID":71,"Bldg_ID":"B1002736","Bldg_Type":" ","Address":"917 10th Ave N","City":"GOLDEN"}},{"type":"Feature","id":72,"geometry":{"type":"Point","coordinates":[-123.06906330065566,49.271033699356003]},"properties":{"FID":72,"Bldg_ID":"B1002735","Bldg_Type":" ","Address":"1720 Grant St","City":"VANCOUVER"}},{"type":"Feature","id":73,"geometry":{"type":"Point","coordinates":[-115.98314800031382,49.687089399136596]},"properties":{"FID":73,"Bldg_ID":"B1002734","Bldg_Type":" ","Address":"77 Deer Park Ave","City":"KIMBERLEY"}},{"type":"Feature","id":74,"geometry":{"type":"Point","coordinates":[-125.55041200043426,48.937726999261798]},"properties":{"FID":74,"Bldg_ID":"B1002732","Bldg_Type":" ","Address":"500 Matterson Dr","City":"UCLUELET"}},{"type":"Feature","id":75,"geometry":{"type":"Point","coordinates":[-121.48418159983471,49.961121599312165]},"properties":{"FID":75,"Bldg_ID":"B1002731","Bldg_Type":" ","Address":"53005-1 Kahmoose Rd","City":"BOSTON BAR"}},{"type":"Feature","id":76,"geometry":{"type":"Point","coordinates":[-122.51270120026122,49.254945099326811]},"properties":{"FID":76,"Bldg_ID":"B1002730","Bldg_Type":" ","Address":"13777 256th St","City":"MAPLE RIDGE"}},{"type":"Feature","id":77,"geometry":{"type":"Point","coordinates":[-121.4115550001947,49.661084998843982]},"properties":{"FID":77,"Bldg_ID":"B1002729","Bldg_Type":" ","Address":"36437 Main Rd","City":"SPUZZUM"}},{"type":"Feature","id":78,"geometry":{"type":"Point","coordinates":[-123.72393110027582,48.381939299193036]},"properties":{"FID":78,"Bldg_ID":"B1002726","Bldg_Type":" ","Address":"6672 Wadams Way","City":"SOOKE"}},{"type":"Feature","id":79,"geometry":{"type":"Point","coordinates":[-120.13428739952849,51.188982999247749]},"properties":{"FID":79,"Bldg_ID":"B1002725","Bldg_Type":" ","Address":"4936 Barriere Town Rd","City":"BARRIERE"}},{"type":"Feature","id":80,"geometry":{"type":"Point","coordinates":[-123.4719927003693,48.444510499180396]},"properties":{"FID":80,"Bldg_ID":"B1002723","Bldg_Type":" ","Address":"345 Wale Rd","City":"COLWOOD"}},{"type":"Feature","id":81,"geometry":{"type":"Point","coordinates":[-123.36463349951154,48.4251377989007]},"properties":{"FID":81,"Bldg_ID":"B1002722","Bldg_Type":" ","Address":"1175 Douglas St","City":"VICTORIA"}},{"type":"Feature","id":82,"geometry":{"type":"Point","coordinates":[-121.73031230061032,49.255128989265472]},"properties":{"FID":82,"Bldg_ID":"B1002720","Bldg_Type":" ","Address":"2895 Chowat Rd","City":"AGASSIZ"}},{"type":"Feature","id":83,"geometry":{"type":"Point","coordinates":[-122.82786930056143,49.278942698743641]},"properties":{"FID":83,"Bldg_ID":"B1002719","Bldg_Type":" ","Address":"220 Brew St","City":"PORT MOODY"}},{"type":"Feature","id":84,"geometry":{"type":"Point","coordinates":[-122.14288600005612,52.133052199203746]},"properties":{"FID":84,"Bldg_ID":"B1002718","Bldg_Type":" ","Address":"280A 3rd Ave N","City":"WILLIAMS LAKE"}},{"type":"Feature","id":85,"geometry":{"type":"Point","coordinates":[-123.05888889936854,49.241936158789954]},"properties":{"FID":85,"Bldg_ID":"B1002717","Bldg_Type":" ","Address":"2288 Kingsway","City":"VANCOUVER"}},{"type":"Feature","id":86,"geometry":{"type":"Point","coordinates":[-123.37082180012324,48.417698298666998]},"properties":{"FID":86,"Bldg_ID":"B1002716","Bldg_Type":" ","Address":"545 Superior St","City":"VICTORIA"}},{"type":"Feature","id":87,"geometry":{"type":"Point","coordinates":[-122.66338990039951,49.160134498980248]},"properties":{"FID":87,"Bldg_ID":"B1002715","Bldg_Type":" ","Address":"20161 86th Ave","City":"LANGLEY"}},{"type":"Feature","id":88,"geometry":{"type":"Point","coordinates":[-122.31343829951841,49.036844798901654]},"properties":{"FID":88,"Bldg_ID":"B1002713","Bldg_Type":" ","Address":"32900 Marshall Rd","City":"ABBOTSFORD"}},{"type":"Feature","id":89,"geometry":{"type":"Point","coordinates":[-122.32759600008139,49.053688218657548]},"properties":{"FID":89,"Bldg_ID":"B1002712","Bldg_Type":" ","Address":"32375 Veterans Way","City":"ABBOTSFORD"}},{"type":"Feature","id":90,"geometry":{"type":"Point","coordinates":[-122.85788640042972,49.140363639026774]},"properties":{"FID":90,"Bldg_ID":"B1002711","Bldg_Type":" ","Address":"7565-132nd St","City":"SURREY"}},{"type":"Feature","id":91,"geometry":{"type":"Point","coordinates":[-125.24350229965115,49.996333699115226]},"properties":{"FID":91,"Bldg_ID":"B1002707","Bldg_Type":" ","Address":"740 Robron Rd","City":"CAMPBELL RIVER"}},{"type":"Feature","id":92,"geometry":{"type":"Point","coordinates":[-122.8449931999823,49.182207099260786]},"properties":{"FID":92,"Bldg_ID":"B1002701","Bldg_Type":" ","Address":"9900 King George Blvd","City":"SURREY"}},{"type":"Feature","id":93,"geometry":{"type":"Point","coordinates":[-122.80004730065919,49.255791268735294]},"properties":{"FID":93,"Bldg_ID":"B1002699","Bldg_Type":" ","Address":"2721 Lougheed Hwy","City":"COQUITLAM"}},{"type":"Feature","id":94,"geometry":{"type":"Point","coordinates":[-123.00630200032307,49.266936999383319]},"properties":{"FID":94,"Bldg_ID":"B1002696","Bldg_Type":" ","Address":"1901 Rosser Ave","City":"BURNABY"}},{"type":"Feature","id":95,"geometry":{"type":"Point","coordinates":[-124.98597659945362,49.681888309443515]},"properties":{"FID":95,"Bldg_ID":"B1002695","Bldg_Type":" ","Address":"1978 Cliffe Ave","City":"COURTENAY"}},{"type":"Feature","id":96,"geometry":{"type":"Point","coordinates":[-116.90494499971634,49.910585998920453]},"properties":{"FID":96,"Bldg_ID":"B1002694","Bldg_Type":" ","Address":"413-4th St","City":"KASLO"}},{"type":"Feature","id":97,"geometry":{"type":"Point","coordinates":[-123.09857699981858,49.323509998632005]},"properties":{"FID":97,"Bldg_ID":"B1002693","Bldg_Type":" ","Address":"902 W 16th St","City":"NORTH VANCOUVER"}},{"type":"Feature","id":98,"geometry":{"type":"Point","coordinates":[-122.99459299935742,49.255163999063079]},"properties":{"FID":98,"Bldg_ID":"B1002683","Bldg_Type":" ","Address":"4601 Canada Way","City":"BURNABY"}},{"type":"Feature","id":99,"geometry":{"type":"Point","coordinates":[-120.33527199938328,50.676077999179952]},"properties":{"FID":99,"Bldg_ID":"B1002681","Bldg_Type":" ","Address":"205-150 Victoria St","City":"KAMLOOPS"}},{"type":"Feature","id":100,"geometry":{"type":"Point","coordinates":[-130.3241679995059,54.313348999478386]},"properties":{"FID":100,"Bldg_ID":"B1002680","Bldg_Type":" ","Address":"316 3rd Ave","City":"PRINCE RUPERT"}},{"type":"Feature","id":101,"geometry":{"type":"Point","coordinates":[-122.86020299963022,49.138084998776883]},"properties":{"FID":101,"Bldg_ID":"B1002679","Bldg_Type":" ","Address":"Unit 104  7455 132nd St","City":"SURREY"}},{"type":"Feature","id":102,"geometry":{"type":"Point","coordinates":[-123.09877699996137,49.260481998718298]},"properties":{"FID":102,"Bldg_ID":"B1002677","Bldg_Type":" ","Address":"255 E 12th Ave","City":"VANCOUVER"}},{"type":"Feature","id":103,"geometry":{"type":"Point","coordinates":[-124.05365299934461,49.208136999183765]},"properties":{"FID":103,"Bldg_ID":"B1002675","Bldg_Type":" ","Address":"3945 Biggs Rd","City":"NANAIMO"}},{"type":"Feature","id":104,"geometry":{"type":"Point","coordinates":[-122.80324000000741,49.186468999386882]},"properties":{"FID":104,"Bldg_ID":"B1002670","Bldg_Type":" ","Address":"15117-101 Ave","City":"SURREY"}},{"type":"Feature","id":105,"geometry":{"type":"Point","coordinates":[-121.6332229998177,49.105118999319295]},"properties":{"FID":105,"Bldg_ID":"B1002668","Bldg_Type":" ","Address":"57657 Chilliwack Lk Rd\n","City":"CHILLIWACK"}},{"type":"Feature","id":106,"geometry":{"type":"Point","coordinates":[-121.63371299981641,49.105690999102109]},"properties":{"FID":106,"Bldg_ID":"B1002667","Bldg_Type":" ","Address":"57657 Chilliwack Lk Rd\n","City":"CHILLIWACK"}},{"type":"Feature","id":107,"geometry":{"type":"Point","coordinates":[-121.63362700045111,49.105597998953534]},"properties":{"FID":107,"Bldg_ID":"B1002666","Bldg_Type":" ","Address":"57657 Chilliwack Lk Rd","City":"CHILLIWACK"}},{"type":"Feature","id":108,"geometry":{"type":"Point","coordinates":[-121.63309550030552,49.105065218687962]},"properties":{"FID":108,"Bldg_ID":"B1002665","Bldg_Type":" ","Address":"57657 Chilliwack Lk Rd","City":"CHILLIWACK"}},{"type":"Feature","id":109,"geometry":{"type":"Point","coordinates":[-121.63255319953478,49.104448178823077]},"properties":{"FID":109,"Bldg_ID":"B1002664","Bldg_Type":" ","Address":"57657 Chilliwack Lk Rd","City":"CHILLIWACK"}},{"type":"Feature","id":110,"geometry":{"type":"Point","coordinates":[-121.63413060017754,49.105577079132473]},"properties":{"FID":110,"Bldg_ID":"B1002663","Bldg_Type":" ","Address":"57657 Chilliwack Lk Rd","City":"CHILLIWACK"}},{"type":"Feature","id":111,"geometry":{"type":"Point","coordinates":[-121.63411870023997,49.105533718993868]},"properties":{"FID":111,"Bldg_ID":"B1002662","Bldg_Type":" ","Address":"57657 Chilliwack Lk Rd","City":"CHILLIWACK"}},{"type":"Feature","id":112,"geometry":{"type":"Point","coordinates":[-121.63558700005453,49.104571998889185]},"properties":{"FID":112,"Bldg_ID":"B1002661","Bldg_Type":" ","Address":"57657 Chilliwack Lk Rd\n","City":"CHILLIWACK"}},{"type":"Feature","id":113,"geometry":{"type":"Point","coordinates":[-121.63450000036454,49.103179998810013]},"properties":{"FID":113,"Bldg_ID":"B1002660","Bldg_Type":" ","Address":"57657 Chilliwack Lk Rd\n","City":"CHILLIWACK"}},{"type":"Feature","id":114,"geometry":{"type":"Point","coordinates":[-121.6348346001441,49.104263229430572]},"properties":{"FID":114,"Bldg_ID":"B1002659","Bldg_Type":" ","Address":"57657 Chilliwack Lk Rd\n","City":"CHILLIWACK"}},{"type":"Feature","id":115,"geometry":{"type":"Point","coordinates":[-121.63323340012673,49.103097599114719]},"properties":{"FID":115,"Bldg_ID":"B1002657","Bldg_Type":" ","Address":"57657 Chilliwack Lk Rd\n","City":"CHILLIWACK"}},{"type":"Feature","id":116,"geometry":{"type":"Point","coordinates":[-121.63381749999085,49.103157028889157]},"properties":{"FID":116,"Bldg_ID":"B1002656","Bldg_Type":" ","Address":"57657 Chilliwack Lk Rd","City":"CHILLIWACK"}},{"type":"Feature","id":117,"geometry":{"type":"Point","coordinates":[-121.63380540040257,49.103338998965391]},"properties":{"FID":117,"Bldg_ID":"B1002655","Bldg_Type":" ","Address":"57657 Chilliwack Lk Rd\n","City":"CHILLIWACK"}},{"type":"Feature","id":118,"geometry":{"type":"Point","coordinates":[-121.63379539975141,49.103634718791852]},"properties":{"FID":118,"Bldg_ID":"B1002654","Bldg_Type":" ","Address":"57657 Chilliwack Lk Rd\n","City":"CHILLIWACK"}},{"type":"Feature","id":119,"geometry":{"type":"Point","coordinates":[-121.63242490031608,49.102586149417981]},"properties":{"FID":119,"Bldg_ID":"B1002653","Bldg_Type":" ","Address":"57657 Chilliwack Lk Rd\n","City":"CHILLIWACK"}},{"type":"Feature","id":120,"geometry":{"type":"Point","coordinates":[-121.63299989941447,49.102708738684093]},"properties":{"FID":120,"Bldg_ID":"B1002652","Bldg_Type":" ","Address":"57657 Chilliwack Lk Rd\n","City":"CHILLIWACK"}},{"type":"Feature","id":121,"geometry":{"type":"Point","coordinates":[-121.6333098997393,49.10263357881896]},"properties":{"FID":121,"Bldg_ID":"B1002651","Bldg_Type":" ","Address":"57657 Chilliwack Lk Rd","City":"CHILLIWACK"}},{"type":"Feature","id":122,"geometry":{"type":"Point","coordinates":[-121.63363569980558,49.103250328870793]},"properties":{"FID":122,"Bldg_ID":"B1002650","Bldg_Type":" ","Address":"57657 Chilliwack Lk Rd\n","City":"CHILLIWACK"}},{"type":"Feature","id":123,"geometry":{"type":"Point","coordinates":[-121.63324689963099,49.103262308697794]},"properties":{"FID":123,"Bldg_ID":"B1002649","Bldg_Type":" ","Address":"57657 Chilliwack Lk Rd","City":"CHILLIWACK"}},{"type":"Feature","id":124,"geometry":{"type":"Point","coordinates":[-121.63346290010169,49.103607699119301]},"properties":{"FID":124,"Bldg_ID":"B1002648","Bldg_Type":" ","Address":"57657 Chilliwack Lk Rd\n","City":"CHILLIWACK"}},{"type":"Feature","id":125,"geometry":{"type":"Point","coordinates":[-121.63327739935882,49.103912748775251]},"properties":{"FID":125,"Bldg_ID":"B1002647","Bldg_Type":" ","Address":"57657 Chilliwack Lk Rd\n","City":"CHILLIWACK"}},{"type":"Feature","id":126,"geometry":{"type":"Point","coordinates":[-121.63376179942811,49.104044138652867]},"properties":{"FID":126,"Bldg_ID":"B1002646","Bldg_Type":" ","Address":"57657 Chilliwack Lk Rd\n","City":"CHILLIWACK"}},{"type":"Feature","id":127,"geometry":{"type":"Point","coordinates":[-121.63324940060738,49.103313538858536]},"properties":{"FID":127,"Bldg_ID":"B1002645","Bldg_Type":" ","Address":"57657 Chilliwack Lk Rd\n","City":"CHILLIWACK"}},{"type":"Feature","id":128,"geometry":{"type":"Point","coordinates":[-121.63344409935681,49.104497619485088]},"properties":{"FID":128,"Bldg_ID":"B1002644","Bldg_Type":" ","Address":"57657 Chilliwack Lk Rd\n","City":"CHILLIWACK"}},{"type":"Feature","id":129,"geometry":{"type":"Point","coordinates":[-121.63530000049289,49.104569999503141]},"properties":{"FID":129,"Bldg_ID":"B1002643","Bldg_Type":" ","Address":"57657 Chilliwack Lk Rd\n","City":"CHILLIWACK"}},{"type":"Feature","id":130,"geometry":{"type":"Point","coordinates":[-121.63409270001526,49.104590589081297]},"properties":{"FID":130,"Bldg_ID":"B1002642","Bldg_Type":" ","Address":"57657 Chilliwack Lk Rd\n","City":"CHILLIWACK"}},{"type":"Feature","id":131,"geometry":{"type":"Point","coordinates":[-121.63398529994419,49.104987539164497]},"properties":{"FID":131,"Bldg_ID":"B1002641","Bldg_Type":" ","Address":"57657 Chilliwack Lk Rd\n","City":"CHILLIWACK"}},{"type":"Feature","id":132,"geometry":{"type":"Point","coordinates":[-121.63407609986102,49.104994088964332]},"properties":{"FID":132,"Bldg_ID":"B1002640","Bldg_Type":" ","Address":"57657 Chilliwack Lk Rd\n","City":"CHILLIWACK"}},{"type":"Feature","id":133,"geometry":{"type":"Point","coordinates":[-121.63413489996866,49.105001248638352]},"properties":{"FID":133,"Bldg_ID":"B1002639","Bldg_Type":" ","Address":"57657 Chilliwack Lk Rd\n\n","City":"CHILLIWACK"}},{"type":"Feature","id":134,"geometry":{"type":"Point","coordinates":[-121.63419330060698,49.104996949323329]},"properties":{"FID":134,"Bldg_ID":"B1002638","Bldg_Type":" ","Address":"57657 Chilliwack Lk Rd\n","City":"CHILLIWACK"}},{"type":"Feature","id":135,"geometry":{"type":"Point","coordinates":[-121.63450489944363,49.103389078816711]},"properties":{"FID":135,"Bldg_ID":"B1002637","Bldg_Type":" ","Address":"57657 Chilliwack Lk Rd\n","City":"CHILLIWACK"}},{"type":"Feature","id":136,"geometry":{"type":"Point","coordinates":[-121.63289319987189,49.102626909507777]},"properties":{"FID":136,"Bldg_ID":"B1002636","Bldg_Type":" ","Address":"57657 Chilliwack Lk Rd","City":"CHILLIWACK"}},{"type":"Feature","id":137,"geometry":{"type":"Point","coordinates":[-121.63405409945499,49.105870769395608]},"properties":{"FID":137,"Bldg_ID":"B1002635","Bldg_Type":" ","Address":"57657 Chilliwack Lk Rd","City":"CHILLIWACK"}},{"type":"Feature","id":138,"geometry":{"type":"Point","coordinates":[-123.37119000030485,48.417822998796574]},"properties":{"FID":138,"Bldg_ID":"B1002634","Bldg_Type":" ","Address":"525 Superior St","City":"VICTORIA"}},{"type":"Feature","id":139,"geometry":{"type":"Point","coordinates":[-123.42848700031065,48.467088998732649]},"properties":{"FID":139,"Bldg_ID":"B1002629","Bldg_Type":" ","Address":"29 Helmcken Rd","City":"VIEW ROYAL"}},{"type":"Feature","id":140,"geometry":{"type":"Point","coordinates":[-123.14266900045379,49.18875999901703]},"properties":{"FID":140,"Bldg_ID":"B1002628","Bldg_Type":" ","Address":"3688 Cessna Dr","City":"RICHMOND"}},{"type":"Feature","id":141,"geometry":{"type":"Point","coordinates":[-123.09842130062526,49.2829826790745]},"properties":{"FID":141,"Bldg_ID":"B1002626","Bldg_Type":" ","Address":"250 Powell St","City":"VANCOUVER"}},{"type":"Feature","id":142,"geometry":{"type":"Point","coordinates":[-119.49408600038818,49.88921283881087]},"properties":{"FID":142,"Bldg_ID":"B1002624","Bldg_Type":" ","Address":"460 Doyle Ave","City":"KELOWNA"}},{"type":"Feature","id":143,"geometry":{"type":"Point","coordinates":[-123.09278560062238,55.322839999074873]},"properties":{"FID":143,"Bldg_ID":"B1002620","Bldg_Type":" ","Address":"1 Cicada Rd","City":"MACKENZIE"}},{"type":"Feature","id":144,"geometry":{"type":"Point","coordinates":[-119.53481849964967,49.22546353946904]},"properties":{"FID":144,"Bldg_ID":"B1002619","Bldg_Type":" ","Address":"200 Enterprise Way","City":"OLIVER"}},{"type":"Feature","id":145,"geometry":{"type":"Point","coordinates":[-123.44311109942858,48.463166669178946]},"properties":{"FID":145,"Bldg_ID":"B1002614","Bldg_Type":" ","Address":"94 Talcott Rd","City":"VIEW ROYAL"}},{"type":"Feature","id":146,"geometry":{"type":"Point","coordinates":[-124.04955950049026,49.207124038795087]},"properties":{"FID":146,"Bldg_ID":"B1002610","Bldg_Type":" ","Address":"3945 Biggs Rd","City":"NANAIMO"}},{"type":"Feature","id":147,"geometry":{"type":"Point","coordinates":[-122.86927330064405,49.147459639504866]},"properties":{"FID":147,"Bldg_ID":"B1002609","Bldg_Type":" ","Address":"12758-80th Ave","City":"SURREY"}},{"type":"Feature","id":148,"geometry":{"type":"Point","coordinates":[-122.80944359984608,49.230147189292133]},"properties":{"FID":148,"Bldg_ID":"B1002607","Bldg_Type":" ","Address":"70 Colony Farm Rd","City":"COQUITLAM"}},{"type":"Feature","id":149,"geometry":{"type":"Point","coordinates":[-122.80947329940115,49.230201199180264]},"properties":{"FID":149,"Bldg_ID":"B1002606","Bldg_Type":" ","Address":"70 Colony Farm Rd","City":"COQUITLAM"}},{"type":"Feature","id":150,"geometry":{"type":"Point","coordinates":[-124.04943500020839,49.20697499931385]},"properties":{"FID":150,"Bldg_ID":"B1002605","Bldg_Type":" ","Address":"3945 Biggs Rd","City":"NANAIMO"}},{"type":"Feature","id":151,"geometry":{"type":"Point","coordinates":[-124.04730429974508,49.209155489130005]},"properties":{"FID":151,"Bldg_ID":"B1002604","Bldg_Type":" ","Address":"3945 Biggs Rd","City":"NANAIMO"}},{"type":"Feature","id":152,"geometry":{"type":"Point","coordinates":[-123.37181100056743,48.418489998859961]},"properties":{"FID":152,"Bldg_ID":"B1002590","Bldg_Type":" ","Address":"421 Menzies St","City":"VICTORIA"}},{"type":"Feature","id":153,"geometry":{"type":"Point","coordinates":[-119.26801299976221,50.262911998970786]},"properties":{"FID":153,"Bldg_ID":"B1002586","Bldg_Type":" ","Address":"2820-28th St","City":"VERNON"}},{"type":"Feature","id":154,"geometry":{"type":"Point","coordinates":[-121.63055759987081,55.695605719346702]},"properties":{"FID":154,"Bldg_ID":"B1002577","Bldg_Type":" ","Address":"5125 50th St SW","City":"CHETWYND"}},{"type":"Feature","id":155,"geometry":{"type":"Point","coordinates":[-119.817202799982,49.21089391879822]},"properties":{"FID":155,"Bldg_ID":"B1002574","Bldg_Type":" ","Address":"900 Sparks Dr","City":"KEREMEOS"}},{"type":"Feature","id":156,"geometry":{"type":"Point","coordinates":[-120.0654317003508,51.650356809017197]},"properties":{"FID":156,"Bldg_ID":"B1002570","Bldg_Type":" ","Address":"209 Dutch Lk Rd","City":"CLEARWATER"}},{"type":"Feature","id":157,"geometry":{"type":"Point","coordinates":[-123.37020649934767,48.452142758707346]},"properties":{"FID":157,"Bldg_ID":"B1002566","Bldg_Type":" ","Address":"4000 Seymour","City":"SAANICH"}},{"type":"Feature","id":158,"geometry":{"type":"Point","coordinates":[-119.62994759997005,49.830657568886991]},"properties":{"FID":158,"Bldg_ID":"B1002565","Bldg_Type":" ","Address":"2484 Main St","City":"WEST KELOWNA"}},{"type":"Feature","id":159,"geometry":{"type":"Point","coordinates":[-121.63337100019405,49.104571998638384]},"properties":{"FID":159,"Bldg_ID":"B1002535","Bldg_Type":" ","Address":"57657 Chilliwack Lk Rd","City":"CHILLIWACK"}},{"type":"Feature","id":160,"geometry":{"type":"Point","coordinates":[-123.36312860068196,48.418706008889153]},"properties":{"FID":160,"Bldg_ID":"B1002534","Bldg_Type":" ","Address":"835 Humboldt St","City":"VICTORIA"}},{"type":"Feature","id":161,"geometry":{"type":"Point","coordinates":[-128.59352699966163,54.518058498771644]},"properties":{"FID":161,"Bldg_ID":"B1002533","Bldg_Type":" ","Address":"4702 Lazelle Ave","City":"TERRACE"}},{"type":"Feature","id":162,"geometry":{"type":"Point","coordinates":[-122.7441257003,53.914813658964896]},"properties":{"FID":162,"Bldg_ID":"B1002532","Bldg_Type":" ","Address":"499 George St","City":"PRINCE GEORGE"}},{"type":"Feature","id":163,"geometry":{"type":"Point","coordinates":[-128.14366010039819,52.162252168722574]},"properties":{"FID":163,"Bldg_ID":"B1002531","Bldg_Type":" ","Address":"79 Waglisla St","City":"BELLA BELLA"}},{"type":"Feature","id":164,"geometry":{"type":"Point","coordinates":[-124.98951289998605,49.684275249332835]},"properties":{"FID":164,"Bldg_ID":"B1002530","Bldg_Type":" ","Address":"107 1742 Cliffe Ave","City":"COURTENAY"}},{"type":"Feature","id":165,"geometry":{"type":"Point","coordinates":[-124.25053199959281,54.442357999183031]},"properties":{"FID":165,"Bldg_ID":"B1002523","Bldg_Type":" ","Address":"250 Douglas St","City":"FORT ST JAMES"}},{"type":"Feature","id":166,"geometry":{"type":"Point","coordinates":[-79.638915000432704,43.594770998733452]},"properties":{"FID":166,"Bldg_ID":"B1002517","Bldg_Type":" ","Address":"506-55 City Centre Dr","City":"MISSISSAUGA"}},{"type":"Feature","id":167,"geometry":{"type":"Point","coordinates":[-122.82794199991575,49.105300999468597]},"properties":{"FID":167,"Bldg_ID":"B1002512","Bldg_Type":" ","Address":"14245 56 Ave","City":"SURREY"}},{"type":"Feature","id":168,"geometry":{"type":"Point","coordinates":[-123.06871669969912,49.331023209370365]},"properties":{"FID":168,"Bldg_ID":"B1002507","Bldg_Type":" ","Address":"200 E 23rd St","City":"NORTH VANCOUVER"}},{"type":"Feature","id":169,"geometry":{"type":"Point","coordinates":[-124.32901189954423,49.325357858726292]},"properties":{"FID":169,"Bldg_ID":"B1002493","Bldg_Type":" ","Address":"494 Bay Ave","City":"PARKSVILLE"}},{"type":"Feature","id":170,"geometry":{"type":"Point","coordinates":[-115.75888889975948,49.535361108666599]},"properties":{"FID":170,"Bldg_ID":"B1002492","Bldg_Type":" ","Address":"205 Ind Rd","City":"CRANBROOK"}},{"type":"Feature","id":171,"geometry":{"type":"Point","coordinates":[-119.26563000015202,50.264356899204927]},"properties":{"FID":171,"Bldg_ID":"B1002489","Bldg_Type":" ","Address":"3002 27th St","City":"VERNON"}},{"type":"Feature","id":172,"geometry":{"type":"Point","coordinates":[-123.15112290004436,49.264050909491658]},"properties":{"FID":172,"Bldg_ID":"B1002469","Bldg_Type":" ","Address":"2025 W Broadway","City":"VANCOUVER"}},{"type":"Feature","id":173,"geometry":{"type":"Point","coordinates":[-121.63384340012634,49.104143908707222]},"properties":{"FID":173,"Bldg_ID":"B1002467","Bldg_Type":"Mixed","Address":"57657 Chilliwack Lk Rd","City":"CHILLIWACK"}},{"type":"Feature","id":174,"geometry":{"type":"Point","coordinates":[-122.98935829973053,49.224613368756849]},"properties":{"FID":174,"Bldg_ID":"B1002455","Bldg_Type":" ","Address":"5172 Kingsway St","City":"BURNABY"}},{"type":"Feature","id":175,"geometry":{"type":"Point","coordinates":[-122.85108600039015,49.231779999053188]},"properties":{"FID":175,"Bldg_ID":"B1002452","Bldg_Type":" ","Address":"1500 Woolridge St","City":"COQUITLAM"}},{"type":"Feature","id":176,"geometry":{"type":"Point","coordinates":[-120.32673400009898,50.677184998997895]},"properties":{"FID":176,"Bldg_ID":"B1002401","Bldg_Type":" ","Address":"450 Lansdowne St","City":"KAMLOOPS"}},{"type":"Feature","id":177,"geometry":{"type":"Point","coordinates":[-124.04710789940827,49.231679008778052]},"properties":{"FID":177,"Bldg_ID":"B1002400","Bldg_Type":" ","Address":"6531 Metral Dr","City":"NANAIMO"}},{"type":"Feature","id":178,"geometry":{"type":"Point","coordinates":[-119.58975969955202,49.49661511891118]},"properties":{"FID":178,"Bldg_ID":"B1002399","Bldg_Type":" ","Address":"444 Ellis St","City":"PENTICTON"}},{"type":"Feature","id":179,"geometry":{"type":"Point","coordinates":[-123.1451315995665,49.270001988749613]},"properties":{"FID":179,"Bldg_ID":"B1002393","Bldg_Type":" ","Address":"1770 Burrard St","City":"VANCOUVER"}},{"type":"Feature","id":180,"geometry":{"type":"Point","coordinates":[-122.80195310028938,49.103481889346845]},"properties":{"FID":180,"Bldg_ID":"B1002386","Bldg_Type":" ","Address":"5477 152nd St","City":"SURREY"}},{"type":"Feature","id":181,"geometry":{"type":"Point","coordinates":[-122.52957719983335,49.247528788882889]},"properties":{"FID":181,"Bldg_ID":"B1002381","Bldg_Type":"Mixed","Address":"24800 Alouette Rd","City":"MAPLE RIDGE"}},{"type":"Feature","id":182,"geometry":{"type":"Point","coordinates":[-116.02805970024083,50.508691518994844]},"properties":{"FID":182,"Bldg_ID":"B1002380","Bldg_Type":" ","Address":"625 4th St","City":"INVERMERE"}},{"type":"Feature","id":183,"geometry":{"type":"Point","coordinates":[-124.80568349935385,49.23389851894342]},"properties":{"FID":183,"Bldg_ID":"B1002369","Bldg_Type":" ","Address":"3019 4th Ave","City":"PORT ALBERNI"}},{"type":"Feature","id":184,"geometry":{"type":"Point","coordinates":[-123.1440111995789,49.263899899346121]},"properties":{"FID":184,"Bldg_ID":"B1002362","Bldg_Type":" ","Address":"1727 W Broadway","City":"VANCOUVER"}},{"type":"Feature","id":185,"geometry":{"type":"Point","coordinates":[-123.3613059006847,48.426370078718229]},"properties":{"FID":185,"Bldg_ID":"B1002359","Bldg_Type":" ","Address":"1321 Blanshard St","City":"VICTORIA"}},{"type":"Feature","id":186,"geometry":{"type":"Point","coordinates":[-125.76486069941056,54.222992649412802]},"properties":{"FID":186,"Bldg_ID":"B1002358","Bldg_Type":"Mixed","Address":"51 Francois Lk Dr","City":"BURNS LAKE"}},{"type":"Feature","id":187,"geometry":{"type":"Point","coordinates":[-119.49620500003132,49.89705599908023]},"properties":{"FID":187,"Bldg_ID":"B1002356","Bldg_Type":" ","Address":"1060 Manhattan Dr","City":"KELOWNA"}},{"type":"Feature","id":188,"geometry":{"type":"Point","coordinates":[-122.32346249985281,49.05350530919884]},"properties":{"FID":188,"Bldg_ID":"B1002354","Bldg_Type":" ","Address":"32525 Simon Ave","City":"ABBOTSFORD"}},{"type":"Feature","id":189,"geometry":{"type":"Point","coordinates":[-123.36394329967233,48.430514468726798]},"properties":{"FID":189,"Bldg_ID":"B1002347","Bldg_Type":" ","Address":"1803 Douglas St","City":"VICTORIA"}},{"type":"Feature","id":190,"geometry":{"type":"Point","coordinates":[-121.95961620007348,49.124226278782885]},"properties":{"FID":190,"Bldg_ID":"B1002341","Bldg_Type":" ","Address":"6640 Vedder Rd","City":"CHILLIWACK"}},{"type":"Feature","id":191,"geometry":{"type":"Point","coordinates":[-122.74821080048451,53.917164638718724]},"properties":{"FID":191,"Bldg_ID":"B1002337","Bldg_Type":" ","Address":"325 Brunswick St","City":"PRINCE GEORGE"}},{"type":"Feature","id":192,"geometry":{"type":"Point","coordinates":[-122.50470279947156,52.977888889176434]},"properties":{"FID":192,"Bldg_ID":"B1002334","Bldg_Type":" ","Address":"395 Elliot St","City":"QUESNEL"}},{"type":"Feature","id":193,"geometry":{"type":"Point","coordinates":[-122.75352779952669,49.250583329431954]},"properties":{"FID":193,"Bldg_ID":"B1002331","Bldg_Type":"Mixed","Address":"1451 Kingsway Ave","City":"PORT COQUITLAM"}},{"type":"Feature","id":194,"geometry":{"type":"Point","coordinates":[-122.51227540004223,49.255292039140379]},"properties":{"FID":194,"Bldg_ID":"B1002330","Bldg_Type":"Mixed","Address":"13777 256th St","City":"MAPLE RIDGE"}},{"type":"Feature","id":195,"geometry":{"type":"Point","coordinates":[-122.71190089993027,53.906938489193458]},"properties":{"FID":195,"Bldg_ID":"B1002329","Bldg_Type":"Steel","Address":"795 Hwy 16 E","City":"PRINCE GEORGE"}},{"type":"Feature","id":196,"geometry":{"type":"Point","coordinates":[-122.74802779954601,53.917416668896621]},"properties":{"FID":196,"Bldg_ID":"B1002278","Bldg_Type":" ","Address":"1411 3rd Ave","City":"PRINCE GEORGE"}},{"type":"Feature","id":197,"geometry":{"type":"Point","coordinates":[-122.49848930021186,52.983359938922177]},"properties":{"FID":197,"Bldg_ID":"B1002272","Bldg_Type":" ","Address":"644-674 Front St","City":"QUESNEL"}},{"type":"Feature","id":198,"geometry":{"type":"Point","coordinates":[-119.59516319940235,49.500947189163938]},"properties":{"FID":198,"Bldg_ID":"B1002266","Bldg_Type":" ","Address":"105 Martin St","City":"PENTICTON"}},{"type":"Feature","id":199,"geometry":{"type":"Point","coordinates":[-125.75765870062608,54.224921568704545]},"properties":{"FID":199,"Bldg_ID":"B1002264","Bldg_Type":" ","Address":"183 Hwy 16 W","City":"BURNS LAKE"}},{"type":"Feature","id":200,"geometry":{"type":"Point","coordinates":[-128.59097989954049,54.518641348721097]},"properties":{"FID":200,"Bldg_ID":"B1002261","Bldg_Type":" ","Address":"4634 Park Ave","City":"TERRACE"}},{"type":"Feature","id":201,"geometry":{"type":"Point","coordinates":[-127.17393620059961,54.778397239217306]},"properties":{"FID":201,"Bldg_ID":"B1002260","Bldg_Type":" ","Address":"1070 Main St","City":"SMITHERS"}},{"type":"Feature","id":202,"geometry":{"type":"Point","coordinates":[-127.17397550012163,54.780072808755698]},"properties":{"FID":202,"Bldg_ID":"B1002259","Bldg_Type":" ","Address":"3862A Broadway Ave","City":"SMITHERS"}},{"type":"Feature","id":203,"geometry":{"type":"Point","coordinates":[-122.69659999929986,58.807683329448203]},"properties":{"FID":203,"Bldg_ID":"B1002256","Bldg_Type":" ","Address":"5211-5217 Airport Dr","City":"FORT NELSON"}},{"type":"Feature","id":204,"geometry":{"type":"Point","coordinates":[-122.80138589962417,53.910928379266224]},"properties":{"FID":204,"Bldg_ID":"B1002253","Bldg_Type":" ","Address":"4186-15th Ave","City":"PRINCE GEORGE"}},{"type":"Feature","id":205,"geometry":{"type":"Point","coordinates":[-122.7657519002811,53.914860358961803]},"properties":{"FID":205,"Bldg_ID":"B1002252","Bldg_Type":" ","Address":"2155-10th Ave","City":"PRINCE GEORGE"}},{"type":"Feature","id":206,"geometry":{"type":"Point","coordinates":[-122.74286969953594,53.916325568826672]},"properties":{"FID":206,"Bldg_ID":"B1002251","Bldg_Type":" ","Address":"1108 3rd Ave","City":"PRINCE GEORGE"}},{"type":"Feature","id":207,"geometry":{"type":"Point","coordinates":[-122.7517260006084,53.919012058750823]},"properties":{"FID":207,"Bldg_ID":"B1002250","Bldg_Type":" ","Address":"1600 3rd Ave","City":"PRINCE GEORGE"}},{"type":"Feature","id":208,"geometry":{"type":"Point","coordinates":[-122.75564740023745,53.908664298852379]},"properties":{"FID":208,"Bldg_ID":"B1002249","Bldg_Type":" ","Address":"1669 Victoria St","City":"PRINCE GEORGE"}},{"type":"Feature","id":209,"geometry":{"type":"Point","coordinates":[-122.75722219966708,49.007249999242241]},"properties":{"FID":209,"Bldg_ID":"B1002247","Bldg_Type":"Concrete","Address":"298-Hwy 99","City":"SURREY"}},{"type":"Feature","id":210,"geometry":{"type":"Point","coordinates":[-122.51248859950348,49.255833348751437]},"properties":{"FID":210,"Bldg_ID":"B1002240","Bldg_Type":"Steel","Address":"13777 256th St","City":"MAPLE RIDGE"}},{"type":"Feature","id":211,"geometry":{"type":"Point","coordinates":[-119.4481051001971,49.884074368785242]},"properties":{"FID":211,"Bldg_ID":"B1002238","Bldg_Type":" ","Address":"1500 Hardy Pl","City":"KELOWNA"}},{"type":"Feature","id":212,"geometry":{"type":"Point","coordinates":[-123.35851619944077,48.425925718655947]},"properties":{"FID":212,"Bldg_ID":"B1002234","Bldg_Type":" ","Address":"914 Yates St","City":"VICTORIA"}},{"type":"Feature","id":213,"geometry":{"type":"Point","coordinates":[-123.36418480046893,48.423918099302185]},"properties":{"FID":213,"Bldg_ID":"B1002232","Bldg_Type":" ","Address":"732 Broughton St","City":"VICTORIA"}},{"type":"Feature","id":214,"geometry":{"type":"Point","coordinates":[-122.66320109956679,49.165760198647511]},"properties":{"FID":214,"Bldg_ID":"B0092722","Bldg_Type":" ","Address":"20159 88th Ave","City":"LANGLEY"}},{"type":"Feature","id":215,"geometry":{"type":"Point","coordinates":[-123.70869439936749,48.776999999435411]},"properties":{"FID":215,"Bldg_ID":"B0092720","Bldg_Type":" ","Address":"15 Craig St","City":"DUNCAN"}},{"type":"Feature","id":216,"geometry":{"type":"Point","coordinates":[-123.01095369974209,49.260461038886511]},"properties":{"FID":216,"Bldg_ID":"B0092718","Bldg_Type":" ","Address":"4170 Still Creek Dr","City":"BURNABY"}},{"type":"Feature","id":217,"geometry":{"type":"Point","coordinates":[-123.18170520024302,49.141317008948263]},"properties":{"FID":217,"Bldg_ID":"B0092717","Bldg_Type":"Wood","Address":"3999 Williams Rd","City":"RICHMOND"}},{"type":"Feature","id":218,"geometry":{"type":"Point","coordinates":[-123.94205560066946,49.16802777908233]},"properties":{"FID":218,"Bldg_ID":"B0092714","Bldg_Type":" ","Address":"125 Wallace St","City":"NANAIMO"}},{"type":"Feature","id":219,"geometry":{"type":"Point","coordinates":[-123.0963248004426,49.272591198813714]},"properties":{"FID":219,"Bldg_ID":"B0092712","Bldg_Type":" ","Address":"333 Terminal Ave","City":"VANCOUVER"}},{"type":"Feature","id":220,"geometry":{"type":"Point","coordinates":[-122.91076579934642,49.201194989386153]},"properties":{"FID":220,"Bldg_ID":"B0092710","Bldg_Type":" ","Address":"774 Columbia St","City":"NEW WESTMINSTER"}},{"type":"Feature","id":221,"geometry":{"type":"Point","coordinates":[-123.35750119992066,48.423508289192071]},"properties":{"FID":221,"Bldg_ID":"B0092707","Bldg_Type":" ","Address":"976 Meares St","City":"VICTORIA"}},{"type":"Feature","id":222,"geometry":{"type":"Point","coordinates":[-123.00668259981241,49.256059068996599]},"properties":{"FID":222,"Bldg_ID":"B0092701","Bldg_Type":" ","Address":"4370 Dominion St","City":"BURNABY"}},{"type":"Feature","id":223,"geometry":{"type":"Point","coordinates":[-122.84354349942637,49.187367918861526]},"properties":{"FID":223,"Bldg_ID":"B0092700","Bldg_Type":" ","Address":"13650 102 Ave","City":"SURREY"}},{"type":"Feature","id":224,"geometry":{"type":"Point","coordinates":[-122.66416219975932,49.174317748656684]},"properties":{"FID":224,"Bldg_ID":"B0092699","Bldg_Type":" ","Address":"9440 202nd St","City":"LANGLEY"}},{"type":"Feature","id":225,"geometry":{"type":"Point","coordinates":[-122.79878310004696,53.931006938677875]},"properties":{"FID":225,"Bldg_ID":"B0092694","Bldg_Type":" ","Address":"155 Mcdermid Dr","City":"PRINCE GEORGE"}},{"type":"Feature","id":226,"geometry":{"type":"Point","coordinates":[-119.68548000062941,50.818647998984289]},"properties":{"FID":226,"Bldg_ID":"B0092692","Bldg_Type":" ","Address":"830 Thompson Ave","City":"CHASE"}},{"type":"Feature","id":227,"geometry":{"type":"Point","coordinates":[-123.3665635006362,48.422593409087206]},"properties":{"FID":227,"Bldg_ID":"B0092689","Bldg_Type":" ","Address":"634 Humboldt St","City":"VICTORIA"}},{"type":"Feature","id":228,"geometry":{"type":"Point","coordinates":[-122.77962450003032,49.159069129124305]},"properties":{"FID":228,"Bldg_ID":"B0092685","Bldg_Type":" ","Address":"15955 Fraser Hwy","City":"SURREY"}},{"type":"Feature","id":229,"geometry":{"type":"Point","coordinates":[-120.24274370041952,55.750749129433487]},"properties":{"FID":229,"Bldg_ID":"B0092684","Bldg_Type":" ","Address":"10808 15th St","City":"DAWSON CREEK"}},{"type":"Feature","id":230,"geometry":{"type":"Point","coordinates":[-123.11538340031537,49.284762598728918]},"properties":{"FID":230,"Bldg_ID":"B0092681","Bldg_Type":" ","Address":"700 W Pender St","City":"VANCOUVER"}},{"type":"Feature","id":231,"geometry":{"type":"Point","coordinates":[-123.36470450066508,48.42349703912501]},"properties":{"FID":231,"Bldg_ID":"B0092671","Bldg_Type":" ","Address":"711 Broughton St","City":"VICTORIA"}},{"type":"Feature","id":232,"geometry":{"type":"Point","coordinates":[-122.75287309937281,53.911642979272983]},"properties":{"FID":232,"Bldg_ID":"B0092670","Bldg_Type":" ","Address":"1475 10th Ave","City":"PRINCE GEORGE"}},{"type":"Feature","id":233,"geometry":{"type":"Point","coordinates":[-125.00107729968175,49.688515849132131]},"properties":{"FID":233,"Bldg_ID":"B0092668","Bldg_Type":" ","Address":"730 Grant Ave","City":"COURTENAY"}},{"type":"Feature","id":234,"geometry":{"type":"Point","coordinates":[-122.85756760033836,49.138927099449091]},"properties":{"FID":234,"Bldg_ID":"B0092665","Bldg_Type":" ","Address":"7495 132nd St","City":"SURREY"}},{"type":"Feature","id":235,"geometry":{"type":"Point","coordinates":[-120.41411520039897,50.666443899444999]},"properties":{"FID":235,"Bldg_ID":"B0092663","Bldg_Type":"Steel","Address":"2250 Trans Can Hwy","City":"KAMLOOPS"}},{"type":"Feature","id":236,"geometry":{"type":"Point","coordinates":[-122.51399980062574,49.253390358717262]},"properties":{"FID":236,"Bldg_ID":"B0092662","Bldg_Type":"Mixed","Address":"13777 256th St","City":"MAPLE RIDGE"}},{"type":"Feature","id":237,"geometry":{"type":"Point","coordinates":[-122.53084480046341,49.24734396932967]},"properties":{"FID":237,"Bldg_ID":"B0092661","Bldg_Type":"Wood","Address":"24800 Alouette Rd","City":"MAPLE RIDGE"}},{"type":"Feature","id":238,"geometry":{"type":"Point","coordinates":[-122.53103590051337,49.247577758643359]},"properties":{"FID":238,"Bldg_ID":"B0092660","Bldg_Type":"Wood","Address":"24800 Alouette Rd","City":"MAPLE RIDGE"}},{"type":"Feature","id":239,"geometry":{"type":"Point","coordinates":[-123.12174300000859,49.288207999468348]},"properties":{"FID":239,"Bldg_ID":"B0092659","Bldg_Type":" ","Address":"1155 W Pender St","City":"VANCOUVER"}},{"type":"Feature","id":240,"geometry":{"type":"Point","coordinates":[-123.70462729938301,48.779114389435478]},"properties":{"FID":240,"Bldg_ID":"B0092646","Bldg_Type":" ","Address":"116 Queens Rd","City":"DUNCAN"}},{"type":"Feature","id":241,"geometry":{"type":"Point","coordinates":[-125.21540129940001,49.971101359011286]},"properties":{"FID":241,"Bldg_ID":"B0092638","Bldg_Type":" ","Address":"2231 S Island Hwy","City":"CAMPBELL RIVER"}},{"type":"Feature","id":242,"geometry":{"type":"Point","coordinates":[-122.77293250024427,49.267929889283089]},"properties":{"FID":242,"Bldg_ID":"B0092636","Bldg_Type":" ","Address":"2062  Manning St","City":"PORT COQUITLAM"}},{"type":"Feature","id":243,"geometry":{"type":"Point","coordinates":[-122.84251320026694,49.192397459340036]},"properties":{"FID":243,"Bldg_ID":"B0092634","Bldg_Type":" ","Address":"10453 Whalley Blvd","City":"SURREY"}},{"type":"Feature","id":244,"geometry":{"type":"Point","coordinates":[-125.25075480021198,50.028858348863764]},"properties":{"FID":244,"Bldg_ID":"B0092632","Bldg_Type":" ","Address":"1400 Dogwood St","City":"CAMPBELL RIVER"}},{"type":"Feature","id":245,"geometry":{"type":"Point","coordinates":[-122.31558479992493,49.052158179288206]},"properties":{"FID":245,"Bldg_ID":"B0092630","Bldg_Type":" ","Address":"2777 Gladwin Rd","City":"ABBOTSFORD"}},{"type":"Feature","id":246,"geometry":{"type":"Point","coordinates":[-127.49380159934812,50.719768168691147]},"properties":{"FID":246,"Bldg_ID":"B0092629","Bldg_Type":" ","Address":"8755 Gray St","City":"PORT HARDY"}},{"type":"Feature","id":247,"geometry":{"type":"Point","coordinates":[-123.37909900063686,48.432671658909399]},"properties":{"FID":247,"Bldg_ID":"B0092628","Bldg_Type":" ","Address":"645 Tyee Rd","City":"VICTORIA"}},{"type":"Feature","id":248,"geometry":{"type":"Point","coordinates":[-119.47777779947717,49.035999999278246]},"properties":{"FID":248,"Bldg_ID":"B0092624","Bldg_Type":"Mixed","Address":"9912 Hwy 3","City":"OSOYOOS"}},{"type":"Feature","id":249,"geometry":{"type":"Point","coordinates":[-124.80916190014301,49.257888179100945]},"properties":{"FID":249,"Bldg_ID":"B0092623","Bldg_Type":" ","Address":"4833 Southgate Rd","City":"PORT ALBERNI"}},{"type":"Feature","id":250,"geometry":{"type":"Point","coordinates":[-120.33152780061286,50.668638888978684]},"properties":{"FID":250,"Bldg_ID":"B0092621","Bldg_Type":" ","Address":"441 Columbia St","City":"KAMLOOPS"}},{"type":"Feature","id":251,"geometry":{"type":"Point","coordinates":[-123.4163633993947,48.595207298763775]},"properties":{"FID":251,"Bldg_ID":"B0092617","Bldg_Type":" ","Address":"7851 E Saanich Rd","City":"CENTRAL SAANICH"}},{"type":"Feature","id":252,"geometry":{"type":"Point","coordinates":[-123.08333350029451,49.31312910943096]},"properties":{"FID":252,"Bldg_ID":"B0092604","Bldg_Type":" ","Address":"224 W Esplanade","City":"NORTH VANCOUVER"}},{"type":"Feature","id":253,"geometry":{"type":"Point","coordinates":[-120.33627780007912,50.676138888970556]},"properties":{"FID":253,"Bldg_ID":"B0092602","Bldg_Type":" ","Address":"175 2nd Ave","City":"KAMLOOPS"}},{"type":"Feature","id":254,"geometry":{"type":"Point","coordinates":[-120.78528540042888,50.10832534946379]},"properties":{"FID":254,"Bldg_ID":"B0092597","Bldg_Type":" ","Address":"2194 Coutlee Ave","City":"MERRITT"}},{"type":"Feature","id":255,"geometry":{"type":"Point","coordinates":[-120.78549789942774,50.108246138598055]},"properties":{"FID":255,"Bldg_ID":"B0092596","Bldg_Type":" ","Address":"2180 Coutlee Ave","City":"MERRITT"}},{"type":"Feature","id":256,"geometry":{"type":"Point","coordinates":[-119.26175000046007,50.279499999359444]},"properties":{"FID":256,"Bldg_ID":"B0092595","Bldg_Type":" ","Address":"4607 23rd St","City":"VERNON"}},{"type":"Feature","id":257,"geometry":{"type":"Point","coordinates":[-120.84698790055124,56.247236429575288]},"properties":{"FID":257,"Bldg_ID":"B0092593","Bldg_Type":" ","Address":"10043 100th St","City":"FORT ST JOHN"}},{"type":"Feature","id":258,"geometry":{"type":"Point","coordinates":[-122.14487339981653,52.131161489233754]},"properties":{"FID":258,"Bldg_ID":"B0092592","Bldg_Type":" ","Address":"197 N 2nd Ave","City":"WILLIAMS LAKE"}},{"type":"Feature","id":259,"geometry":{"type":"Point","coordinates":[-121.2795277996661,50.723416669053492]},"properties":{"FID":259,"Bldg_ID":"B0092590","Bldg_Type":" ","Address":"318 Railway Ave","City":"ASHCROFT"}},{"type":"Feature","id":260,"geometry":{"type":"Point","coordinates":[-117.65924879981428,49.307387889130851]},"properties":{"FID":260,"Bldg_ID":"B0092582","Bldg_Type":" ","Address":"1472 Columbia Ave","City":"CASTLEGAR"}},{"type":"Feature","id":261,"geometry":{"type":"Point","coordinates":[-122.84488330032711,49.136270069497144]},"properties":{"FID":261,"Bldg_ID":"B0092563","Bldg_Type":" ","Address":"7350 King George Blvd","City":"SURREY"}},{"type":"Feature","id":262,"geometry":{"type":"Point","coordinates":[-122.49366670060702,52.979499998849839]},"properties":{"FID":262,"Bldg_ID":"B0092559","Bldg_Type":" ","Address":"410 Kinchant St","City":"QUESNEL"}},{"type":"Feature","id":263,"geometry":{"type":"Point","coordinates":[-119.27099059936042,50.262423908762287]},"properties":{"FID":263,"Bldg_ID":"B0092558","Bldg_Type":" ","Address":"2802 30th St","City":"VERNON"}},{"type":"Feature","id":264,"geometry":{"type":"Point","coordinates":[-122.89417940017177,49.163519519095097]},"properties":{"FID":264,"Bldg_ID":"B0092557","Bldg_Type":" ","Address":"11861 88 Ave","City":"DELTA"}},{"type":"Feature","id":265,"geometry":{"type":"Point","coordinates":[-123.39822219970885,48.650944439283627]},"properties":{"FID":265,"Bldg_ID":"B0092556","Bldg_Type":" ","Address":"9884 3rd St","City":"SIDNEY"}},{"type":"Feature","id":266,"geometry":{"type":"Point","coordinates":[-121.96340929989205,49.151380159270445]},"properties":{"FID":266,"Bldg_ID":"B0092554","Bldg_Type":" ","Address":"45540 Yale Rd","City":"CHILLIWACK"}},{"type":"Feature","id":267,"geometry":{"type":"Point","coordinates":[-119.49385390037347,49.886583579271957]},"properties":{"FID":267,"Bldg_ID":"B0092547","Bldg_Type":" ","Address":"478 Bernard Ave","City":"KELOWNA"}},{"type":"Feature","id":268,"geometry":{"type":"Point","coordinates":[-122.85752420045989,49.138052438898818]},"properties":{"FID":268,"Bldg_ID":"B0092540","Bldg_Type":" ","Address":"7445-132 St","City":"SURREY"}},{"type":"Feature","id":269,"geometry":{"type":"Point","coordinates":[-123.11772220002122,49.286166669009127]},"properties":{"FID":269,"Bldg_ID":"B0092539","Bldg_Type":" ","Address":"510 Burrard St","City":"VANCOUVER"}},{"type":"Feature","id":270,"geometry":{"type":"Point","coordinates":[-125.75557879961229,54.224983559259918]},"properties":{"FID":270,"Bldg_ID":"B0092515","Bldg_Type":" ","Address":"161 Hwy 16 W","City":"BURNS LAKE"}},{"type":"Feature","id":271,"geometry":{"type":"Point","coordinates":[-123.99399239957721,54.006984059536457]},"properties":{"FID":271,"Bldg_ID":"B0092510","Bldg_Type":" ","Address":"1560 Hwy 16 E","City":"VANDERHOOF"}},{"type":"Feature","id":272,"geometry":{"type":"Point","coordinates":[-122.74927300038462,53.917205159217147]},"properties":{"FID":272,"Bldg_ID":"B0092494","Bldg_Type":" ","Address":"1488 4th Ave","City":"PRINCE GEORGE"}},{"type":"Feature","id":273,"geometry":{"type":"Point","coordinates":[-122.79803609948733,49.191880558621094]},"properties":{"FID":273,"Bldg_ID":"B0092486","Bldg_Type":" ","Address":"10428 153 St","City":"SURREY"}},{"type":"Feature","id":274,"geometry":{"type":"Point","coordinates":[-133.7022513004087,59.574983379204944]},"properties":{"FID":274,"Bldg_ID":"B0092479","Bldg_Type":" ","Address":"3rd St","City":"ATLIN"}},{"type":"Feature","id":275,"geometry":{"type":"Point","coordinates":[-133.7022513004087,59.574983379204944]},"properties":{"FID":275,"Bldg_ID":"B0092478","Bldg_Type":" ","Address":"3rd St","City":"ATLIN"}},{"type":"Feature","id":276,"geometry":{"type":"Point","coordinates":[-123.9371492003139,49.168457238939972]},"properties":{"FID":276,"Bldg_ID":"B0092473","Bldg_Type":" ","Address":"65 Front St","City":"NANAIMO"}},{"type":"Feature","id":277,"geometry":{"type":"Point","coordinates":[-123.13975829954923,49.726349999158018]},"properties":{"FID":277,"Bldg_ID":"B0092467","Bldg_Type":" ","Address":"42000 Loggers Ln","City":"SQUAMISH"}},{"type":"Feature","id":278,"geometry":{"type":"Point","coordinates":[-123.13904170037449,49.726569438719736]},"properties":{"FID":278,"Bldg_ID":"B0092466","Bldg_Type":" ","Address":"42000 Loggers Ln","City":"SQUAMISH"}},{"type":"Feature","id":279,"geometry":{"type":"Point","coordinates":[-123.13886939941368,49.725847219479476]},"properties":{"FID":279,"Bldg_ID":"B0092465","Bldg_Type":" ","Address":"42000 Loggers Ln","City":"SQUAMISH"}},{"type":"Feature","id":280,"geometry":{"type":"Point","coordinates":[-128.60426939975608,54.512338889172412]},"properties":{"FID":280,"Bldg_ID":"B0092464","Bldg_Type":" ","Address":"4825 Keith Ave","City":"TERRACE"}},{"type":"Feature","id":281,"geometry":{"type":"Point","coordinates":[-128.60385449992111,54.512672469139972]},"properties":{"FID":281,"Bldg_ID":"B0092463","Bldg_Type":" ","Address":"4825 Keith Ave","City":"TERRACE"}},{"type":"Feature","id":282,"geometry":{"type":"Point","coordinates":[-122.65674860049459,49.118335598843217]},"properties":{"FID":282,"Bldg_ID":"B0092456","Bldg_Type":" ","Address":"20434 64th Ave","City":"LANGLEY"}},{"type":"Feature","id":283,"geometry":{"type":"Point","coordinates":[-123.11841600016434,49.287711998934704]},"properties":{"FID":283,"Bldg_ID":"B0092454","Bldg_Type":" ","Address":"1055 W Hastings St","City":"VANCOUVER"}},{"type":"Feature","id":284,"geometry":{"type":"Point","coordinates":[-116.0280193995403,50.509430558911902]},"properties":{"FID":284,"Bldg_ID":"B0092443","Bldg_Type":" ","Address":"625 4th St","City":"INVERMERE"}},{"type":"Feature","id":285,"geometry":{"type":"Point","coordinates":[-116.02799719925547,50.509638889327022]},"properties":{"FID":285,"Bldg_ID":"B0092441","Bldg_Type":" ","Address":"625 4th St","City":"INVERMERE"}},{"type":"Feature","id":286,"geometry":{"type":"Point","coordinates":[-116.028524999857,50.509405558672974]},"properties":{"FID":286,"Bldg_ID":"B0092439","Bldg_Type":" ","Address":"625 4th St","City":"INVERMERE"}},{"type":"Feature","id":287,"geometry":{"type":"Point","coordinates":[-128.59832799948694,54.513122998861505]},"properties":{"FID":287,"Bldg_ID":"B0092437","Bldg_Type":" ","Address":"2918 Eby St","City":"TERRACE"}},{"type":"Feature","id":288,"geometry":{"type":"Point","coordinates":[-128.60412779985913,54.512966669336002]},"properties":{"FID":288,"Bldg_ID":"B0092434","Bldg_Type":" ","Address":"4825 Keith Ave","City":"TERRACE"}},{"type":"Feature","id":289,"geometry":{"type":"Point","coordinates":[-120.8483611002078,56.254916668776232]},"properties":{"FID":289,"Bldg_ID":"B0092433","Bldg_Type":" ","Address":"10003 110th Ave","City":"FORT ST JOHN"}},{"type":"Feature","id":290,"geometry":{"type":"Point","coordinates":[-117.80357319957338,50.239297838615656]},"properties":{"FID":290,"Bldg_ID":"B0092432","Bldg_Type":" ","Address":"415 Broadway St","City":"NAKUSP"}},{"type":"Feature","id":291,"geometry":{"type":"Point","coordinates":[-115.76377670016677,49.514189869060999]},"properties":{"FID":291,"Bldg_ID":"B0092429","Bldg_Type":" ","Address":"1212 2nd St N","City":"CRANBROOK"}},{"type":"Feature","id":292,"geometry":{"type":"Point","coordinates":[-133.7022513004087,59.574983379204944]},"properties":{"FID":292,"Bldg_ID":"B0092428","Bldg_Type":" ","Address":"3rd St","City":"ATLIN"}},{"type":"Feature","id":293,"geometry":{"type":"Point","coordinates":[-122.32489310065779,49.053485169163501]},"properties":{"FID":293,"Bldg_ID":"B0092419","Bldg_Type":" ","Address":"32463 Simon Ave","City":"ABBOTSFORD"}},{"type":"Feature","id":294,"geometry":{"type":"Point","coordinates":[-120.33030559938007,50.668444438780611]},"properties":{"FID":294,"Bldg_ID":"B0092418","Bldg_Type":" ","Address":"447 Columbia St","City":"KAMLOOPS"}},{"type":"Feature","id":295,"geometry":{"type":"Point","coordinates":[-123.40622219934043,48.564388888941643]},"properties":{"FID":295,"Bldg_ID":"B0092413","Bldg_Type":" ","Address":"2261 Keating Cross Rd","City":"CENTRAL SAANICH"}},{"type":"Feature","id":296,"geometry":{"type":"Point","coordinates":[-122.72911109926264,58.805397218899856]},"properties":{"FID":296,"Bldg_ID":"B0092408","Bldg_Type":" ","Address":"6012 Alaska Hwy Mile 301","City":"FORT NELSON"}},{"type":"Feature","id":297,"geometry":{"type":"Point","coordinates":[-120.33400819934486,50.67562754869865]},"properties":{"FID":297,"Bldg_ID":"B0092398","Bldg_Type":" ","Address":"301 Victoria St","City":"KAMLOOPS"}},{"type":"Feature","id":298,"geometry":{"type":"Point","coordinates":[-120.78541390062364,50.109005558808825]},"properties":{"FID":298,"Bldg_ID":"B0092367","Bldg_Type":" ","Address":"2196 Quilchena St","City":"MERRITT"}},{"type":"Feature","id":299,"geometry":{"type":"Point","coordinates":[-117.80521950054617,50.241572218997504]},"properties":{"FID":299,"Bldg_ID":"B0092357","Bldg_Type":" ","Address":"204 6th Ave","City":"NAKUSP"}},{"type":"Feature","id":300,"geometry":{"type":"Point","coordinates":[-117.29599999926128,49.493194439326487]},"properties":{"FID":300,"Bldg_ID":"B0092354","Bldg_Type":" ","Address":"310 Ward St","City":"NELSON"}},{"type":"Feature","id":301,"geometry":{"type":"Point","coordinates":[-122.77342069930116,49.266938989368739]},"properties":{"FID":301,"Bldg_ID":"B0092353","Bldg_Type":" ","Address":"2099 Lougheed Hwy","City":"PORT COQUITLAM"}},{"type":"Feature","id":302,"geometry":{"type":"Point","coordinates":[-117.03919890029465,49.059076149408391]},"properties":{"FID":302,"Bldg_ID":"B0092344","Bldg_Type":" ","Address":"Summit Of Stagleap","City":"SALMO CRESTON SUMMIT"}},{"type":"Feature","id":303,"geometry":{"type":"Point","coordinates":[-123.4117679998385,48.485761998621868]},"properties":{"FID":303,"Bldg_ID":"B0092338","Bldg_Type":" ","Address":"4300 N Rd","City":"SAANICH"}},{"type":"Feature","id":304,"geometry":{"type":"Point","coordinates":[-121.42685279981686,49.374480559407061]},"properties":{"FID":304,"Bldg_ID":"B0092326","Bldg_Type":" ","Address":"1313-6th Ave","City":"HOPE"}},{"type":"Feature","id":305,"geometry":{"type":"Point","coordinates":[-116.52495829983543,49.110083329100846]},"properties":{"FID":305,"Bldg_ID":"B0092324","Bldg_Type":" ","Address":"1243 Northwest Blvd","City":"CRESTON"}},{"type":"Feature","id":306,"geometry":{"type":"Point","coordinates":[-123.41169440027129,48.486055559366541]},"properties":{"FID":306,"Bldg_ID":"B0092322","Bldg_Type":" ","Address":"4300 N Rd","City":"SAANICH"}},{"type":"Feature","id":307,"geometry":{"type":"Point","coordinates":[-116.52412499967882,49.110194438946486]},"properties":{"FID":307,"Bldg_ID":"B0092319","Bldg_Type":" ","Address":"1243 Northwest Blvd","City":"CRESTON"}},{"type":"Feature","id":308,"geometry":{"type":"Point","coordinates":[-129.98505070061339,58.4342092888689]},"properties":{"FID":308,"Bldg_ID":"B0092318","Bldg_Type":" ","Address":"Hwy 37-Block D\n","City":"DEASE LAKE"}},{"type":"Feature","id":309,"geometry":{"type":"Point","coordinates":[-129.99127499942784,55.938036108960091]},"properties":{"FID":309,"Bldg_ID":"B0092315","Bldg_Type":" ","Address":"703 Brightwell St","City":"STEWART"}},{"type":"Feature","id":310,"geometry":{"type":"Point","coordinates":[-119.2790556003134,50.700583329297487]},"properties":{"FID":310,"Bldg_ID":"B0092308","Bldg_Type":" ","Address":"550 2nd Ave NE","City":"SALMON ARM"}},{"type":"Feature","id":311,"geometry":{"type":"Point","coordinates":[-122.74533330053747,53.897444439238704]},"properties":{"FID":311,"Bldg_ID":"B0092307","Bldg_Type":" ","Address":"1200 La Salle Ave","City":"PRINCE GEORGE"}},{"type":"Feature","id":312,"geometry":{"type":"Point","coordinates":[-119.49204100016364,49.89012299928136]},"properties":{"FID":312,"Bldg_ID":"B0092298","Bldg_Type":" ","Address":"1358 St Paul St","City":"KELOWNA"}},{"type":"Feature","id":313,"geometry":{"type":"Point","coordinates":[-119.2617388999643,50.28165555945079]},"properties":{"FID":313,"Bldg_ID":"B0092296","Bldg_Type":" ","Address":"4791 23rd St","City":"VERNON"}},{"type":"Feature","id":314,"geometry":{"type":"Point","coordinates":[-128.59937839963621,54.518056179539599]},"properties":{"FID":314,"Bldg_ID":"B0092271","Bldg_Type":" ","Address":"3215 Eby St","City":"TERRACE"}},{"type":"Feature","id":315,"geometry":{"type":"Point","coordinates":[-121.94050829968542,49.155424999064422]},"properties":{"FID":315,"Bldg_ID":"B0092270","Bldg_Type":" ","Address":"46360 Airport Rd","City":"CHILLIWACK"}},{"type":"Feature","id":316,"geometry":{"type":"Point","coordinates":[-124.78714439941808,49.262813889437851]},"properties":{"FID":316,"Bldg_ID":"B0092269","Bldg_Type":" ","Address":"4885 Cherry Creek Rd","City":"PORT ALBERNI"}},{"type":"Feature","id":317,"geometry":{"type":"Point","coordinates":[-119.26797220050504,50.705638889313867]},"properties":{"FID":317,"Bldg_ID":"B0092259","Bldg_Type":" ","Address":"850 16th St NE","City":"SALMON ARM"}},{"type":"Feature","id":318,"geometry":{"type":"Point","coordinates":[-117.65499129958876,49.300353329371625]},"properties":{"FID":318,"Bldg_ID":"B0092258","Bldg_Type":" ","Address":"620 17 St","City":"CASTLEGAR"}},{"type":"Feature","id":319,"geometry":{"type":"Point","coordinates":[-119.59537780065941,49.477599999075387]},"properties":{"FID":319,"Bldg_ID":"B0092245","Bldg_Type":" ","Address":"102 Industrial Pl","City":"PENTICTON"}},{"type":"Feature","id":320,"geometry":{"type":"Point","coordinates":[-124.04882970005062,49.207204299373032]},"properties":{"FID":320,"Bldg_ID":"B0092240","Bldg_Type":" ","Address":"3945 Biggs Rd","City":"NANAIMO"}},{"type":"Feature","id":321,"geometry":{"type":"Point","coordinates":[-123.0795709999681,49.210439999096963]},"properties":{"FID":321,"Bldg_ID":"B0092237","Bldg_Type":" ","Address":"1308 SE Marine Dr","City":"VANCOUVER"}},{"type":"Feature","id":322,"geometry":{"type":"Point","coordinates":[-119.59573889998701,49.477713889299004]},"properties":{"FID":322,"Bldg_ID":"B0092228","Bldg_Type":" ","Address":"102 Industrial Pl","City":"PENTICTON"}},{"type":"Feature","id":323,"geometry":{"type":"Point","coordinates":[-116.96049940034669,51.295937418844041]},"properties":{"FID":323,"Bldg_ID":"B0092226","Bldg_Type":" ","Address":"1104 9th St","City":"GOLDEN"}},{"type":"Feature","id":324,"geometry":{"type":"Point","coordinates":[-122.13708329948142,52.13052777897169]},"properties":{"FID":324,"Bldg_ID":"B0092174","Bldg_Type":" ","Address":"640 Borland St","City":"WILLIAMS LAKE"}},{"type":"Feature","id":325,"geometry":{"type":"Point","coordinates":[-129.98595129921119,58.434713159022493]},"properties":{"FID":325,"Bldg_ID":"B0092172","Bldg_Type":" ","Address":"Hwy 37-Block D\n","City":"DEASE LAKE"}},{"type":"Feature","id":326,"geometry":{"type":"Point","coordinates":[-118.43956990037142,49.030539588720188]},"properties":{"FID":326,"Bldg_ID":"B0092170","Bldg_Type":" ","Address":"486 72 St","City":"GRAND FORKS"}},{"type":"Feature","id":327,"geometry":{"type":"Point","coordinates":[-127.17397220009089,54.777361109491729]},"properties":{"FID":327,"Bldg_ID":"B0092162","Bldg_Type":" ","Address":"1020 Murray St","City":"SMITHERS"}},{"type":"Feature","id":328,"geometry":{"type":"Point","coordinates":[-123.08347440064394,49.312287359132725]},"properties":{"FID":328,"Bldg_ID":"B0092161","Bldg_Type":" ","Address":"221 W Esplanade","City":"NORTH VANCOUVER"}},{"type":"Feature","id":329,"geometry":{"type":"Point","coordinates":[-123.3634444006494,48.422194438970834]},"properties":{"FID":329,"Bldg_ID":"B0092150","Bldg_Type":" ","Address":"810 Blanshard St","City":"VICTORIA"}},{"type":"Feature","id":330,"geometry":{"type":"Point","coordinates":[-122.85002779977286,49.187888888693315]},"properties":{"FID":330,"Bldg_ID":"B0092145","Bldg_Type":" ","Address":"13450 102nd Ave","City":"SURREY"}},{"type":"Feature","id":331,"geometry":{"type":"Point","coordinates":[-119.26752779939186,52.833194438895724]},"properties":{"FID":331,"Bldg_ID":"B0092144","Bldg_Type":" ","Address":"1300 4th Ave","City":"VALEMOUNT"}},{"type":"Feature","id":332,"geometry":{"type":"Point","coordinates":[-122.84024780008497,49.193010489266555]},"properties":{"FID":332,"Bldg_ID":"B0092143","Bldg_Type":" ","Address":"10475 138th St","City":"SURREY"}},{"type":"Feature","id":333,"geometry":{"type":"Point","coordinates":[-127.16003060063764,54.766602778982055]},"properties":{"FID":333,"Bldg_ID":"B0092140","Bldg_Type":" ","Address":"2984 Railway Ave","City":"SMITHERS"}},{"type":"Feature","id":334,"geometry":{"type":"Point","coordinates":[-123.36196689940087,48.422819769171539]},"properties":{"FID":334,"Bldg_ID":"B0092138","Bldg_Type":" ","Address":"836_844 Courtney St","City":"VICTORIA"}},{"type":"Feature","id":335,"geometry":{"type":"Point","coordinates":[-119.4238056006923,49.890166669022392]},"properties":{"FID":335,"Bldg_ID":"B0092137","Bldg_Type":" ","Address":"1690 Powick Rd","City":"KELOWNA"}},{"type":"Feature","id":336,"geometry":{"type":"Point","coordinates":[-122.71216670024296,53.906972219428077]},"properties":{"FID":336,"Bldg_ID":"B0092126","Bldg_Type":"Mixed","Address":"795 Hwy 16 E","City":"PRINCE GEORGE"}},{"type":"Feature","id":337,"geometry":{"type":"Point","coordinates":[-126.64683330036719,54.398361108823593]},"properties":{"FID":337,"Bldg_ID":"B0092118","Bldg_Type":" ","Address":"3400 11th St","City":"HOUSTON"}},{"type":"Feature","id":338,"geometry":{"type":"Point","coordinates":[-122.97235130062116,49.24491001924607]},"properties":{"FID":338,"Bldg_ID":"B0092115","Bldg_Type":" ","Address":"4425 Ledger Ave","City":"BURNABY"}},{"type":"Feature","id":339,"geometry":{"type":"Point","coordinates":[-124.31035169983758,49.319730939336459]},"properties":{"FID":339,"Bldg_ID":"B0092104","Bldg_Type":" ","Address":"154 Middleton Ave","City":"PARKSVILLE"}},{"type":"Feature","id":340,"geometry":{"type":"Point","coordinates":[-115.75295560060133,49.531236109420199]},"properties":{"FID":340,"Bldg_ID":"B0092103","Bldg_Type":" ","Address":"1902 Theatre Rd","City":"CRANBROOK"}},{"type":"Feature","id":341,"geometry":{"type":"Point","coordinates":[-118.43672220010811,49.032694439041848]},"properties":{"FID":341,"Bldg_ID":"B0092096","Bldg_Type":" ","Address":"7290 2nd St","City":"GRAND FORKS"}},{"type":"Feature","id":342,"geometry":{"type":"Point","coordinates":[-123.11199249936995,49.284745199020662]},"properties":{"FID":342,"Bldg_ID":"B0092093","Bldg_Type":" ","Address":"555 W Hastings St","City":"VANCOUVER"}},{"type":"Feature","id":343,"geometry":{"type":"Point","coordinates":[-128.65036099949779,54.049340998847669]},"properties":{"FID":343,"Bldg_ID":"B0092091","Bldg_Type":" ","Address":"603 Mountainview Sq","City":"KITIMAT"}},{"type":"Feature","id":344,"geometry":{"type":"Point","coordinates":[-120.41272580023654,50.665869278991025]},"properties":{"FID":344,"Bldg_ID":"B0092087","Bldg_Type":"Mixed","Address":"2250 Trans Can Hwy","City":"KAMLOOPS"}},{"type":"Feature","id":345,"geometry":{"type":"Point","coordinates":[-124.00580560000151,54.016555559312323]},"properties":{"FID":345,"Bldg_ID":"B0092086","Bldg_Type":" ","Address":"2440 Bute Ave","City":"VANDERHOOF"}},{"type":"Feature","id":346,"geometry":{"type":"Point","coordinates":[-119.27267220034015,50.263191748994679]},"properties":{"FID":346,"Bldg_ID":"B0092085","Bldg_Type":" ","Address":"3101 29th Ave","City":"VERNON"}},{"type":"Feature","id":347,"geometry":{"type":"Point","coordinates":[-123.14105559966147,49.172361108987765]},"properties":{"FID":347,"Bldg_ID":"B0092075","Bldg_Type":" ","Address":"7577 Elmbridge Way","City":"RICHMOND"}},{"type":"Feature","id":348,"geometry":{"type":"Point","coordinates":[-122.91687899936368,49.201266188833578]},"properties":{"FID":348,"Bldg_ID":"B0092061","Bldg_Type":" ","Address":"88 10th St","City":"NEW WESTMINSTER"}},{"type":"Feature","id":349,"geometry":{"type":"Point","coordinates":[-121.93366670048398,50.693972219391185]},"properties":{"FID":349,"Bldg_ID":"B0092056","Bldg_Type":" ","Address":"615 Main St","City":"LILLOOET"}},{"type":"Feature","id":350,"geometry":{"type":"Point","coordinates":[-115.06500420046738,49.503890628706721]},"properties":{"FID":350,"Bldg_ID":"B0092055","Bldg_Type":" ","Address":"401 4th Ave","City":"FERNIE"}},{"type":"Feature","id":351,"geometry":{"type":"Point","coordinates":[-118.20761110023166,51.004527779525581]},"properties":{"FID":351,"Bldg_ID":"B0092054","Bldg_Type":" ","Address":"1123 2nd St W","City":"REVELSTOKE"}},{"type":"Feature","id":352,"geometry":{"type":"Point","coordinates":[-124.00697219965424,54.016194438694974]},"properties":{"FID":352,"Bldg_ID":"B0092053","Bldg_Type":" ","Address":"189 Stewart St E","City":"VANDERHOOF"}},{"type":"Feature","id":353,"geometry":{"type":"Point","coordinates":[-126.58908330026888,52.387333329353716]},"properties":{"FID":353,"Bldg_ID":"B0092050","Bldg_Type":" ","Address":"1687 Lot 2_3 Airport Rd","City":"HAGENSBORG"}},{"type":"Feature","id":354,"geometry":{"type":"Point","coordinates":[-122.51212889934087,49.25517375916845]},"properties":{"FID":354,"Bldg_ID":"B0092049","Bldg_Type":"Mixed","Address":"13777 256th St","City":"MAPLE RIDGE"}},{"type":"Feature","id":355,"geometry":{"type":"Point","coordinates":[-123.11899999953116,49.28724999881149]},"properties":{"FID":355,"Bldg_ID":"B0092044","Bldg_Type":" ","Address":"1066 W Hastings St","City":"VANCOUVER"}},{"type":"Feature","id":356,"geometry":{"type":"Point","coordinates":[-121.76354580028168,49.23867292919612]},"properties":{"FID":356,"Bldg_ID":"B0092042","Bldg_Type":" ","Address":"7086 Pioneer Ave","City":"AGASSIZ"}},{"type":"Feature","id":357,"geometry":{"type":"Point","coordinates":[-123.4245555997816,48.560472218861158]},"properties":{"FID":357,"Bldg_ID":"B0092041","Bldg_Type":" ","Address":"6578 Bryn Rd","City":"CENTRAL SAANICH"}},{"type":"Feature","id":358,"geometry":{"type":"Point","coordinates":[-122.84733889939443,49.226447788662561]},"properties":{"FID":358,"Bldg_ID":"B0092040","Bldg_Type":" ","Address":"1478 Hartley Ave","City":"COQUITLAM"}},{"type":"Feature","id":359,"geometry":{"type":"Point","coordinates":[-122.83373600004499,49.174636999002082]},"properties":{"FID":359,"Bldg_ID":"B0092030","Bldg_Type":" ","Address":"9460 140th St","City":"SURREY"}},{"type":"Feature","id":360,"geometry":{"type":"Point","coordinates":[-123.39208100055626,48.481149998850888]},"properties":{"FID":360,"Bldg_ID":"B0092026","Bldg_Type":" ","Address":"4220 Commerce Cir","City":"SAANICH"}},{"type":"Feature","id":361,"geometry":{"type":"Point","coordinates":[-123.41215999997911,48.485742999421696]},"properties":{"FID":361,"Bldg_ID":"B0092024","Bldg_Type":" ","Address":"4300 N Rd","City":"SAANICH"}},{"type":"Feature","id":362,"geometry":{"type":"Point","coordinates":[-123.09804189990786,49.282830609286982]},"properties":{"FID":362,"Bldg_ID":"B0092017","Bldg_Type":"Mixed","Address":"211 Gore Ave","City":"VANCOUVER"}},{"type":"Feature","id":363,"geometry":{"type":"Point","coordinates":[-119.43882970011239,49.884791078969023]},"properties":{"FID":363,"Bldg_ID":"B0092016","Bldg_Type":" ","Address":"1640 Dilworth Rd","City":"KELOWNA"}},{"type":"Feature","id":364,"geometry":{"type":"Point","coordinates":[-123.07009770035697,49.262002208724454]},"properties":{"FID":364,"Bldg_ID":"B0092001","Bldg_Type":" ","Address":"2525 Commercial Dr","City":"VANCOUVER"}},{"type":"Feature","id":365,"geometry":{"type":"Point","coordinates":[-128.58035950049296,54.515558779368163]},"properties":{"FID":365,"Bldg_ID":"B0091979","Bldg_Type":" ","Address":"102 4450 Greig Ave","City":"TERRACE"}},{"type":"Feature","id":366,"geometry":{"type":"Point","coordinates":[-119.27341670059369,50.28263888872479]},"properties":{"FID":366,"Bldg_ID":"B0091966","Bldg_Type":" ","Address":"3115 48th Ave","City":"VERNON"}},{"type":"Feature","id":367,"geometry":{"type":"Point","coordinates":[-123.76377779971506,49.471138888877533]},"properties":{"FID":367,"Bldg_ID":"B0091929","Bldg_Type":" ","Address":"5480 Shorncliffe Ave","City":"SECHELT"}},{"type":"Feature","id":368,"geometry":{"type":"Point","coordinates":[-123.09844439939312,49.282722219146542]},"properties":{"FID":368,"Bldg_ID":"B0091916","Bldg_Type":"Mixed","Address":"265 E Cordova St","City":"VANCOUVER"}},{"type":"Feature","id":369,"geometry":{"type":"Point","coordinates":[-121.95318870043346,49.171019249533472]},"properties":{"FID":369,"Bldg_ID":"B0091910","Bldg_Type":" ","Address":"45960 Wellington Ave","City":"CHILLIWACK"}},{"type":"Feature","id":370,"geometry":{"type":"Point","coordinates":[-127.16979099940825,54.780623999111185]},"properties":{"FID":370,"Bldg_ID":"B0091909","Bldg_Type":" ","Address":"3842 3rd Ave.","City":"SMITHERS"}},{"type":"Feature","id":371,"geometry":{"type":"Point","coordinates":[-123.3660037002153,48.425875668999701]},"properties":{"FID":371,"Bldg_ID":"B0091904","Bldg_Type":" ","Address":"1215 Broad St","City":"VICTORIA"}},{"type":"Feature","id":372,"geometry":{"type":"Point","coordinates":[-121.6353522997525,49.10415496937533]},"properties":{"FID":372,"Bldg_ID":"B0091894","Bldg_Type":"Wood","Address":"57657 Chilliwack Lk Rd","City":"CHILLIWACK"}},{"type":"Feature","id":373,"geometry":{"type":"Point","coordinates":[-122.602960000393,49.21934499874569]},"properties":{"FID":373,"Bldg_ID":"B0091890","Bldg_Type":" ","Address":"22356 Mcintosh Ave","City":"MAPLE RIDGE"}},{"type":"Feature","id":374,"geometry":{"type":"Point","coordinates":[-122.59986490012288,49.219776768643918]},"properties":{"FID":374,"Bldg_ID":"B0091884","Bldg_Type":" ","Address":"22470 Dewdney Trunk Rd","City":"MAPLE RIDGE"}},{"type":"Feature","id":375,"geometry":{"type":"Point","coordinates":[-123.38439239940556,48.4905381190529]},"properties":{"FID":375,"Bldg_ID":"B0091872","Bldg_Type":" ","Address":"4460 Chatterton Way","City":"SAANICH"}},{"type":"Feature","id":376,"geometry":{"type":"Point","coordinates":[-122.75314380027974,53.918735348941674]},"properties":{"FID":376,"Bldg_ID":"B0091864","Bldg_Type":" ","Address":"1705 3rd Ave","City":"PRINCE GEORGE"}},{"type":"Feature","id":377,"geometry":{"type":"Point","coordinates":[-119.27960139948165,50.704212978653118]},"properties":{"FID":377,"Bldg_ID":"B0091854","Bldg_Type":" ","Address":"550 Lakeshore Rd NE","City":"SALMON ARM"}},{"type":"Feature","id":378,"geometry":{"type":"Point","coordinates":[-119.49142300040324,49.886172999157111]},"properties":{"FID":378,"Bldg_ID":"B0091852","Bldg_Type":" ","Address":"565 Bernard Ave","City":"KELOWNA"}},{"type":"Feature","id":379,"geometry":{"type":"Point","coordinates":[-123.07941670037097,49.179777779511724]},"properties":{"FID":379,"Bldg_ID":"B0091825","Bldg_Type":" ","Address":"4600 Jacombs Rd","City":"RICHMOND"}},{"type":"Feature","id":380,"geometry":{"type":"Point","coordinates":[-123.7099167004794,48.784222218864208]},"properties":{"FID":380,"Bldg_ID":"B0091817","Bldg_Type":" ","Address":"161 4th St","City":"DUNCAN"}},{"type":"Feature","id":381,"geometry":{"type":"Point","coordinates":[-121.58648540057268,51.091682109352668]},"properties":{"FID":381,"Bldg_ID":"B0091816","Bldg_Type":" ","Address":"1423 Cariboo Hwy","City":"CLINTON"}},{"type":"Feature","id":382,"geometry":{"type":"Point","coordinates":[-123.04773829988805,49.261372169025009]},"properties":{"FID":382,"Bldg_ID":"B0091801","Bldg_Type":" ","Address":"108 2780 E Broadway","City":"VANCOUVER"}},{"type":"Feature","id":383,"geometry":{"type":"Point","coordinates":[-122.82758139934619,49.28269137895969]},"properties":{"FID":383,"Bldg_ID":"B0091800","Bldg_Type":" ","Address":"205 Newport Dr","City":"PORT MOODY"}},{"type":"Feature","id":384,"geometry":{"type":"Point","coordinates":[-120.32655760008014,50.675588738881913]},"properties":{"FID":384,"Bldg_ID":"B0091788","Bldg_Type":" ","Address":"619 Victoria St","City":"KAMLOOPS"}},{"type":"Feature","id":385,"geometry":{"type":"Point","coordinates":[-120.50691659956776,49.458053578712622]},"properties":{"FID":385,"Bldg_ID":"B0091785","Bldg_Type":" ","Address":"136 Tapton Ave","City":"PRINCETON"}},{"type":"Feature","id":386,"geometry":{"type":"Point","coordinates":[-121.95377780036075,49.170722218729608]},"properties":{"FID":386,"Bldg_ID":"B0091782","Bldg_Type":"Concrete","Address":"46085 Yale Rd","City":"CHILLIWACK"}},{"type":"Feature","id":387,"geometry":{"type":"Point","coordinates":[-119.49219649976115,49.888324779406254]},"properties":{"FID":387,"Bldg_ID":"B0091778","Bldg_Type":" ","Address":"1420 St Paul St","City":"KELOWNA"}},{"type":"Feature","id":388,"geometry":{"type":"Point","coordinates":[-123.0898364996012,49.283269208765624]},"properties":{"FID":388,"Bldg_ID":"B0091768","Bldg_Type":" ","Address":"687 Powell St","City":"VANCOUVER"}},{"type":"Feature","id":389,"geometry":{"type":"Point","coordinates":[-122.86297220009875,49.153388888769726]},"properties":{"FID":389,"Bldg_ID":"B0091762","Bldg_Type":" ","Address":"8307 130th St","City":"SURREY"}},{"type":"Feature","id":390,"geometry":{"type":"Point","coordinates":[-121.44090530004785,49.379029489095807]},"properties":{"FID":390,"Bldg_ID":"B0091757","Bldg_Type":" ","Address":"833 3rd Ave","City":"HOPE"}},{"type":"Feature","id":391,"geometry":{"type":"Point","coordinates":[-123.37724999987077,48.441777779276194]},"properties":{"FID":391,"Bldg_ID":"B0091756","Bldg_Type":" ","Address":"395 Waterfront Cr","City":"VICTORIA"}},{"type":"Feature","id":392,"geometry":{"type":"Point","coordinates":[-132.11594439978458,53.253861109377425]},"properties":{"FID":392,"Bldg_ID":"B0091752","Bldg_Type":"Mixed","Address":"1229 Oceanview Dr","City":"QUEEN CHARLOTTE"}},{"type":"Feature","id":393,"geometry":{"type":"Point","coordinates":[-122.84622819965412,49.119251199423282]},"properties":{"FID":393,"Bldg_ID":"B0091717","Bldg_Type":" ","Address":"13545 64th Ave","City":"SURREY"}},{"type":"Feature","id":394,"geometry":{"type":"Point","coordinates":[-123.50883059934444,48.860149998973689]},"properties":{"FID":394,"Bldg_ID":"B0091702","Bldg_Type":" ","Address":"343 Lower Ganges Rd","City":"SALTSPRING ISLAND"}},{"type":"Feature","id":395,"geometry":{"type":"Point","coordinates":[-121.96528380038981,49.148153219227368]},"properties":{"FID":395,"Bldg_ID":"B0091696","Bldg_Type":" ","Address":"45467 Yale Rd","City":"CHILLIWACK"}},{"type":"Feature","id":396,"geometry":{"type":"Point","coordinates":[-123.37904199973626,48.439232999082293]},"properties":{"FID":396,"Bldg_ID":"B0091693","Bldg_Type":" ","Address":"2940 Jutland Rd","City":"VICTORIA"}},{"type":"Feature","id":397,"geometry":{"type":"Point","coordinates":[-120.32824440027117,50.67049166933807]},"properties":{"FID":397,"Bldg_ID":"B0091686","Bldg_Type":"Mixed","Address":"561 Columbia St","City":"KAMLOOPS"}},{"type":"Feature","id":398,"geometry":{"type":"Point","coordinates":[-120.32982020023472,50.670032588962215]},"properties":{"FID":398,"Bldg_ID":"B0091685","Bldg_Type":"Mixed","Address":"521 Columbia St","City":"KAMLOOPS"}},{"type":"Feature","id":399,"geometry":{"type":"Point","coordinates":[-124.78777779944281,49.263255558727764]},"properties":{"FID":399,"Bldg_ID":"B0091669","Bldg_Type":" ","Address":"4885 Cherry Creek Rd","City":"PORT ALBERNI"}},{"type":"Feature","id":400,"geometry":{"type":"Point","coordinates":[-122.70571519942477,53.901198358907479]},"properties":{"FID":400,"Bldg_ID":"B0091653","Bldg_Type":"Wood","Address":"1211 Gunn Rd","City":"PRINCE GEORGE"}},{"type":"Feature","id":401,"geometry":{"type":"Point","coordinates":[-128.64988920040599,54.051182209034991]},"properties":{"FID":401,"Bldg_ID":"B0091619","Bldg_Type":" ","Address":"564 Mountain View Sq\n","City":"KITIMAT"}},{"type":"Feature","id":402,"geometry":{"type":"Point","coordinates":[-123.3747665993984,48.434848889334347]},"properties":{"FID":402,"Bldg_ID":"B0091584","Bldg_Type":" ","Address":"343 Bay St","City":"VICTORIA"}},{"type":"Feature","id":403,"geometry":{"type":"Point","coordinates":[-121.94116110046271,49.1557416694625]},"properties":{"FID":403,"Bldg_ID":"B0091580","Bldg_Type":" ","Address":"46360 Airport Rd","City":"CHILLIWACK"}},{"type":"Feature","id":404,"geometry":{"type":"Point","coordinates":[-120.84698790055124,56.247236429575288]},"properties":{"FID":404,"Bldg_ID":"B0091508","Bldg_Type":" ","Address":"9941 101 Ave","City":"FORT ST JOHN"}},{"type":"Feature","id":405,"geometry":{"type":"Point","coordinates":[-121.62458329973462,55.696416668787883]},"properties":{"FID":405,"Bldg_ID":"B0091486","Bldg_Type":" ","Address":"4821 S Access Rd","City":"CHETWYND"}},{"type":"Feature","id":406,"geometry":{"type":"Point","coordinates":[-121.63463889960825,49.103638888989742]},"properties":{"FID":406,"Bldg_ID":"B0091467","Bldg_Type":"Concrete","Address":"57657 Chilliwack Lk Rd","City":"CHILLIWACK"}},{"type":"Feature","id":407,"geometry":{"type":"Point","coordinates":[-119.38820220056297,49.888273869552407]},"properties":{"FID":407,"Bldg_ID":"B0091462","Bldg_Type":" ","Address":"147 Park Rd","City":"KELOWNA"}},{"type":"Feature","id":408,"geometry":{"type":"Point","coordinates":[-123.36358129958441,48.418630599082917]},"properties":{"FID":408,"Bldg_ID":"B0091426","Bldg_Type":" ","Address":"835 Humboldt St","City":"VICTORIA"}},{"type":"Feature","id":409,"geometry":{"type":"Point","coordinates":[-122.32369449997459,49.053972219325274]},"properties":{"FID":409,"Bldg_ID":"B0091424","Bldg_Type":" ","Address":"2828 Cruickshank St","City":"ABBOTSFORD"}},{"type":"Feature","id":410,"geometry":{"type":"Point","coordinates":[-122.75927780060654,53.911527779023544]},"properties":{"FID":410,"Bldg_ID":"B0091420","Bldg_Type":" ","Address":"1600 15th Ave","City":"PRINCE GEORGE"}},{"type":"Feature","id":411,"geometry":{"type":"Point","coordinates":[-122.75352779952669,49.250583329431954]},"properties":{"FID":411,"Bldg_ID":"B0091374","Bldg_Type":"Mixed","Address":"1451 Kingsway Ave","City":"PORT COQUITLAM"}},{"type":"Feature","id":412,"geometry":{"type":"Point","coordinates":[-122.81019439934123,49.230277779069574]},"properties":{"FID":412,"Bldg_ID":"B0091356","Bldg_Type":"Mixed","Address":"70 Colony Farm Rd","City":"COQUITLAM"}},{"type":"Feature","id":413,"geometry":{"type":"Point","coordinates":[-122.81044440007321,49.230305559406567]},"properties":{"FID":413,"Bldg_ID":"B0091355","Bldg_Type":"Mixed","Address":"70 Colony Farm Rd","City":"COQUITLAM"}},{"type":"Feature","id":414,"geometry":{"type":"Point","coordinates":[-122.81063889999376,49.230249999020771]},"properties":{"FID":414,"Bldg_ID":"B0091354","Bldg_Type":"Mixed","Address":"70 Colony Farm Rd","City":"COQUITLAM"}},{"type":"Feature","id":415,"geometry":{"type":"Point","coordinates":[-122.8108055999881,49.230166669385476]},"properties":{"FID":415,"Bldg_ID":"B0091353","Bldg_Type":"Mixed","Address":"70 Colony Farm Rd","City":"COQUITLAM"}},{"type":"Feature","id":416,"geometry":{"type":"Point","coordinates":[-123.02419799941497,49.232732689163647]},"properties":{"FID":416,"Bldg_ID":"B0091223","Bldg_Type":" ","Address":"3665 Kingsway","City":"VANCOUVER"}},{"type":"Feature","id":417,"geometry":{"type":"Point","coordinates":[-123.52154830049619,49.407094389281113]},"properties":{"FID":417,"Bldg_ID":"B0091218","Bldg_Type":" ","Address":"938 Gibsons Way","City":"GIBSONS"}},{"type":"Feature","id":418,"geometry":{"type":"Point","coordinates":[-118.43619440003772,49.032527778996574]},"properties":{"FID":418,"Bldg_ID":"B0091206","Bldg_Type":" ","Address":"7275 Riverside Dr","City":"GRAND FORKS"}},{"type":"Feature","id":419,"geometry":{"type":"Point","coordinates":[-122.84338890021662,49.194222219470895]},"properties":{"FID":419,"Bldg_ID":"B0091173","Bldg_Type":" ","Address":"13680 105a Ave","City":"SURREY"}},{"type":"Feature","id":420,"geometry":{"type":"Point","coordinates":[-119.68184289984288,49.602249199046213]},"properties":{"FID":420,"Bldg_ID":"B0090964","Bldg_Type":" ","Address":"13211 Henry Ave","City":"SUMMERLAND"}},{"type":"Feature","id":421,"geometry":{"type":"Point","coordinates":[-120.36688890034355,50.665944439542798]},"properties":{"FID":421,"Bldg_ID":"B0090921","Bldg_Type":" ","Address":"970 Camosun Cr","City":"KAMLOOPS"}},{"type":"Feature","id":422,"geometry":{"type":"Point","coordinates":[-125.31314430002048,52.459581728781536]},"properties":{"FID":422,"Bldg_ID":"B0090475","Bldg_Type":"Mixed","Address":"Chilcotin Hwy 20","City":"ANAHIM LAKE"}},{"type":"Feature","id":423,"geometry":{"type":"Point","coordinates":[-117.66391869982162,49.3170802094875]},"properties":{"FID":423,"Bldg_ID":"B0090429","Bldg_Type":"Wood","Address":"845 Columbia Ave","City":"CASTLEGAR"}},{"type":"Feature","id":424,"geometry":{"type":"Point","coordinates":[-122.8108332995531,49.228111108681041]},"properties":{"FID":424,"Bldg_ID":"B0090425","Bldg_Type":"Steel","Address":"70 Colony Farm Rd","City":"COQUITLAM"}},{"type":"Feature","id":425,"geometry":{"type":"Point","coordinates":[-122.80980559970003,49.228166668995435]},"properties":{"FID":425,"Bldg_ID":"B0090424","Bldg_Type":"Mixed","Address":"70 Colony Farm Rd","City":"COQUITLAM"}},{"type":"Feature","id":426,"geometry":{"type":"Point","coordinates":[-122.81061109964968,49.228472219469346]},"properties":{"FID":426,"Bldg_ID":"B0090423","Bldg_Type":"Mixed","Address":"70 Colony Farm Rd","City":"COQUITLAM"}},{"type":"Feature","id":427,"geometry":{"type":"Point","coordinates":[-122.80998369988482,49.230116328973537]},"properties":{"FID":427,"Bldg_ID":"B0090422","Bldg_Type":"Mixed","Address":"70 Colony Farm Rd","City":"COQUITLAM"}},{"type":"Feature","id":428,"geometry":{"type":"Point","coordinates":[-122.8100055003823,49.230218278903578]},"properties":{"FID":428,"Bldg_ID":"B0090421","Bldg_Type":"Mixed","Address":"70 Colony Farm Rd","City":"COQUITLAM"}},{"type":"Feature","id":429,"geometry":{"type":"Point","coordinates":[-122.810999999399,49.229916669128343]},"properties":{"FID":429,"Bldg_ID":"B0090419","Bldg_Type":"Mixed","Address":"70 Colony Farm Rd","City":"COQUITLAM"}},{"type":"Feature","id":430,"geometry":{"type":"Point","coordinates":[-122.81041670059695,49.229611109251259]},"properties":{"FID":430,"Bldg_ID":"B0090418","Bldg_Type":"Mixed","Address":"70 Colony Farm Rd","City":"COQUITLAM"}},{"type":"Feature","id":431,"geometry":{"type":"Point","coordinates":[-122.80986109974354,49.229749999385241]},"properties":{"FID":431,"Bldg_ID":"B0090417","Bldg_Type":"Mixed","Address":"70 Colony Farm Rd","City":"COQUITLAM"}},{"type":"Feature","id":432,"geometry":{"type":"Point","coordinates":[-122.81002780036543,49.229194438890005]},"properties":{"FID":432,"Bldg_ID":"B0090416","Bldg_Type":"Mixed","Address":"70 Colony Farm Rd","City":"COQUITLAM"}},{"type":"Feature","id":433,"geometry":{"type":"Point","coordinates":[-122.81086110060187,49.229055558867628]},"properties":{"FID":433,"Bldg_ID":"B0090415","Bldg_Type":"Mixed","Address":"70 Colony Farm Rd","City":"COQUITLAM"}},{"type":"Feature","id":434,"geometry":{"type":"Point","coordinates":[-122.8115000000479,49.229472218740845]},"properties":{"FID":434,"Bldg_ID":"B0090414","Bldg_Type":"Mixed","Address":"70 Colony Farm Rd","City":"COQUITLAM"}},{"type":"Feature","id":435,"geometry":{"type":"Point","coordinates":[-123.12463860020767,49.279818099219021]},"properties":{"FID":435,"Bldg_ID":"B0090404","Bldg_Type":" ","Address":"808 Nelson St","City":"VANCOUVER"}},{"type":"Feature","id":436,"geometry":{"type":"Point","coordinates":[-122.81236110031936,49.229694439137958]},"properties":{"FID":436,"Bldg_ID":"B0090391","Bldg_Type":"Mixed","Address":"70 Colony Farm Rd","City":"COQUITLAM"}},{"type":"Feature","id":437,"geometry":{"type":"Point","coordinates":[-119.28059499970824,50.702587879268386]},"properties":{"FID":437,"Bldg_ID":"B0090378","Bldg_Type":" ","Address":"351 Hudson Ave NE","City":"SALMON ARM"}},{"type":"Feature","id":438,"geometry":{"type":"Point","coordinates":[-124.04788550039443,49.234057178856425]},"properties":{"FID":438,"Bldg_ID":"B0090271","Bldg_Type":" ","Address":"6551 Aulds Rd","City":"NANAIMO"}},{"type":"Feature","id":439,"geometry":{"type":"Point","coordinates":[-123.11850830049426,49.260711108796556]},"properties":{"FID":439,"Bldg_ID":"B0090258","Bldg_Type":"Mixed","Address":"655 W 12th Ave","City":"VANCOUVER"}},{"type":"Feature","id":440,"geometry":{"type":"Point","coordinates":[-124.52189259946192,49.845868448705332]},"properties":{"FID":440,"Bldg_ID":"B0090218","Bldg_Type":" ","Address":"6975 Alberni St","City":"POWELL RIVER"}},{"type":"Feature","id":441,"geometry":{"type":"Point","coordinates":[-117.03902780029553,49.059055558749904]},"properties":{"FID":441,"Bldg_ID":"B0090213","Bldg_Type":"Mixed","Address":"Summit Of Stagleap\n","City":"SALMO CRESTON SUMMIT"}},{"type":"Feature","id":442,"geometry":{"type":"Point","coordinates":[-122.78034790048297,53.887865218858067]},"properties":{"FID":442,"Bldg_ID":"B0090209","Bldg_Type":" ","Address":"2809 Ferry Ave","City":"PRINCE GEORGE"}},{"type":"Feature","id":443,"geometry":{"type":"Point","coordinates":[-122.30271740066,49.135142659251599]},"properties":{"FID":443,"Bldg_ID":"B0090207","Bldg_Type":" ","Address":"33276 2nd Ave","City":"MISSION"}},{"type":"Feature","id":444,"geometry":{"type":"Point","coordinates":[-122.75144299977828,53.914446009286365]},"properties":{"FID":444,"Bldg_ID":"B0090205","Bldg_Type":" ","Address":"1441 7th Ave","City":"PRINCE GEORGE"}},{"type":"Feature","id":445,"geometry":{"type":"Point","coordinates":[-126.58725000013325,52.385111109226848]},"properties":{"FID":445,"Bldg_ID":"B0090162","Bldg_Type":" ","Address":"1650 Airport Rd","City":"HAGENSBORG"}},{"type":"Feature","id":446,"geometry":{"type":"Point","coordinates":[-119.26797220050504,50.705638889313867]},"properties":{"FID":446,"Bldg_ID":"B0090155","Bldg_Type":" ","Address":"850 16th St NE","City":"SALMON ARM"}},{"type":"Feature","id":447,"geometry":{"type":"Point","coordinates":[-119.26461939978809,50.252302779081987]},"properties":{"FID":447,"Bldg_ID":"B0090152","Bldg_Type":" ","Address":"2501 14th Ave","City":"VERNON"}},{"type":"Feature","id":448,"geometry":{"type":"Point","coordinates":[-119.49145400043214,49.890561539059938]},"properties":{"FID":448,"Bldg_ID":"B0090130","Bldg_Type":" ","Address":"1345 St Paul St","City":"KELOWNA"}},{"type":"Feature","id":449,"geometry":{"type":"Point","coordinates":[-122.60387049940616,49.21877739877548]},"properties":{"FID":449,"Bldg_ID":"B0090123","Bldg_Type":" ","Address":"22323 119th Ave","City":"MAPLE RIDGE"}},{"type":"Feature","id":450,"geometry":{"type":"Point","coordinates":[-123.99392219997286,49.200744438898276]},"properties":{"FID":450,"Bldg_ID":"B0090095","Bldg_Type":" ","Address":"2080 Labieux Rd","City":"NANAIMO"}},{"type":"Feature","id":451,"geometry":{"type":"Point","coordinates":[-122.91324970050486,49.199091868688249]},"properties":{"FID":451,"Bldg_ID":"B0090036","Bldg_Type":" ","Address":"960 Quayside Dr","City":"NEW WESTMINSTER"}},{"type":"Feature","id":452,"geometry":{"type":"Point","coordinates":[-122.80875000021975,50.321111108757528]},"properties":{"FID":452,"Bldg_ID":"B0090035","Bldg_Type":" ","Address":"1366 Aster St","City":"PEMBERTON"}},{"type":"Feature","id":453,"geometry":{"type":"Point","coordinates":[-117.80424009927356,50.240492719369399]},