{"type":"FeatureCollection","crs":{"type":"name","properties":{"name":"EPSG:3005"}},"features":[{"type":"Feature","id":0,"geometry":{"type":"Point","coordinates":[1209926.7909999997,993467.9380000001]},"properties":{"FID":0,"BLDNG_ID":"B0067974","BLDNG_TYPE":"Office","ADDRESS":"3990 22nd Ave.","CITY_NAME":"PRINCE GEORGE","LATITUDE":53.902394,"LONGITUDE":-122.79645,"FCODE":"BF12450130","OBJECTID":597}},{"type":"Feature","id":1,"geometry":{"type":"Point","coordinates":[594631.7070000004,933933.3590000039]},"properties":{"FID":1,"BLDNG_ID":"B0084327","BLDNG_TYPE":"Mobile Home","ADDRESS":"3507 2 - 3rd Ave.","CITY_NAME":"QUEEN CHARLOTTE CITY","LATITUDE":53.254932,"LONGITUDE":-132.09665,"FCODE":"BF12450130","OBJECTID":598}},{"type":"Feature","id":2,"geometry":{"type":"Point","coordinates":[1219894.018,467962.049999997]},"properties":{"FID":2,"BLDNG_ID":"B0078174","BLDNG_TYPE":"Jail","ADDRESS":"7900 Fraser Park Dr.","CITY_NAME":"BURNABY","LATITUDE":49.185861,"LONGITUDE":-122.98577,"FCODE":"BF12450130","OBJECTID":599}},{"type":"Feature","id":3,"geometry":{"type":"Point","coordinates":[1478558.835,607980.7970000021]},"properties":{"FID":3,"BLDNG_ID":"B0091966","BLDNG_TYPE":"Other","ADDRESS":"3115 48th Ave.","CITY_NAME":"VERNON","LATITUDE":50.282639,"LONGITUDE":-119.27341,"FCODE":"BF12450130","OBJECTID":600}},{"type":"Feature","id":4,"geometry":{"type":"Point","coordinates":[948704.4279999997,818236.2789999992]},"properties":{"FID":4,"BLDNG_ID":"B0082834","BLDNG_TYPE":"Storage Small","ADDRESS":"636 Cliff St.","CITY_NAME":"BELLA COOLA","LATITUDE":52.371826,"LONGITUDE":-126.75476,"FCODE":"BF12450130","OBJECTID":601}},{"type":"Feature","id":5,"geometry":{"type":"Point","coordinates":[924941.1679999991,1087362.0860000039]},"properties":{"FID":5,"BLDNG_ID":"B0091909","BLDNG_TYPE":"Office","ADDRESS":"3842 3rd Ave.","CITY_NAME":"SMITHERS","LATITUDE":54.780624,"LONGITUDE":-127.16979,"FCODE":"BF12450130","OBJECTID":602}},{"type":"Feature","id":6,"geometry":{"type":"Point","coordinates":[1479379.1409999998,607668.064000004]},"properties":{"FID":6,"BLDNG_ID":"B0092595","BLDNG_TYPE":"Storage Small","ADDRESS":"4607 23rd St","CITY_NAME":"VERNON","LATITUDE":50.279141,"LONGITUDE":-119.26237,"FCODE":"BF12450130","OBJECTID":603}},{"type":"Feature","id":7,"geometry":{"type":"Point","coordinates":[1232505.276000001,473445.3350000009]},"properties":{"FID":7,"BLDNG_ID":"B0090421","BLDNG_TYPE":"Dormitory","ADDRESS":"70 Colony Farm Rd.","CITY_NAME":"COQUITLAM","LATITUDE":49.230194,"LONGITUDE":-122.80975,"FCODE":"BF12450130","OBJECTID":604}},{"type":"Feature","id":8,"geometry":{"type":"Point","coordinates":[1186600.960999999,789403.1839999985]},"properties":{"FID":8,"BLDNG_ID":"B0082149","BLDNG_TYPE":"Residential Detached","ADDRESS":"Stum Lake Rd.","CITY_NAME":"ALEXIS CREEK","LATITUDE":52.083428,"LONGITUDE":-123.27196,"FCODE":"BF12450130","OBJECTID":605}},{"type":"Feature","id":9,"geometry":{"type":"Point","coordinates":[1463778.7009999994,516704.055999998]},"properties":{"FID":9,"BLDNG_ID":"B0092228","BLDNG_TYPE":"Warehouse","ADDRESS":"102 Industrial Pl","CITY_NAME":"PENTICTON","LATITUDE":49.477714,"LONGITUDE":-119.59573,"FCODE":"BF12450130","OBJECTID":606}},{"type":"Feature","id":10,"geometry":{"type":"Point","coordinates":[827017.6339999989,1008487.4739999985]},"properties":{"FID":10,"BLDNG_ID":"B0091619","BLDNG_TYPE":"Office","ADDRESS":"564 Mountain View Sq.","CITY_NAME":"KITIMAT","LATITUDE":54.050535,"LONGITUDE":-128.64891,"FCODE":"BF12450130","OBJECTID":607}},{"type":"Feature","id":11,"geometry":{"type":"Point","coordinates":[1318949.3910000012,464135.5160000017]},"properties":{"FID":11,"BLDNG_ID":"B0076661","BLDNG_TYPE":"Storage Small","ADDRESS":"57657 Chilliwack Lake Rd.","CITY_NAME":"CHILLIWACK","LATITUDE":49.105003,"LONGITUDE":-121.6341,"FCODE":"BF12450130","OBJECTID":608}},{"type":"Feature","id":12,"geometry":{"type":"Point","coordinates":[1325015.260999999,747798.1210000031]},"properties":{"FID":12,"BLDNG_ID":"B0067295","BLDNG_TYPE":"Office","ADDRESS":"170 Cedar Ave. S.","CITY_NAME":"HUNDRED MILE HOUSE","LATITUDE":51.645457,"LONGITUDE":-121.29351,"FCODE":"BF12450130","OBJECTID":609}},{"type":"Feature","id":13,"geometry":{"type":"Point","coordinates":[1469547.9509999987,562106.2740000067]},"properties":{"FID":13,"BLDNG_ID":"B0067420","BLDNG_TYPE":"Office","ADDRESS":"1726 Dolphin Ave.","CITY_NAME":"KELOWNA","LATITUDE":49.879639,"LONGITUDE":-119.45875,"FCODE":"BF12450130","OBJECTID":610}},{"type":"Feature","id":14,"geometry":{"type":"Point","coordinates":[1295205.193,470036.8139999984]},"properties":{"FID":14,"BLDNG_ID":"B0091782","BLDNG_TYPE":"Courthouse","ADDRESS":"46085 Yale Rd.","CITY_NAME":"CHILLIWACK","LATITUDE":49.170722,"LONGITUDE":-121.95377,"FCODE":"BF12450130","OBJECTID":611}},{"type":"Feature","id":15,"geometry":{"type":"Point","coordinates":[1227105.7100000018,594645.7759999912]},"properties":{"FID":15,"BLDNG_ID":"B0090035","BLDNG_TYPE":"Office","ADDRESS":"1366 Aster St.","CITY_NAME":"PEMBERTON","LATITUDE":50.32127,"LONGITUDE":-122.80882,"FCODE":"BF12450130","OBJECTID":612}},{"type":"Feature","id":16,"geometry":{"type":"Point","coordinates":[1143028.4379999996,425516.9100000011]},"properties":{"FID":16,"BLDNG_ID":"B0092129","BLDNG_TYPE":"Ambulance","ADDRESS":"3 North Shore Road","CITY_NAME":"COWICHAN LAKE","LATITUDE":48.828168,"LONGITUDE":-124.05472,"FCODE":"BF12450130","OBJECTID":613}},{"type":"Feature","id":17,"geometry":{"type":"Point","coordinates":[1704247.1339999991,659733.9359999998]},"properties":{"FID":17,"BLDNG_ID":"B0077988","BLDNG_TYPE":"Ambulance","ADDRESS":"1116 10th St.","CITY_NAME":"INVERMERE","LATITUDE":50.505972,"LONGITUDE":-116.03422,"FCODE":"BF12450130","OBJECTID":614}},{"type":"Feature","id":18,"geometry":{"type":"Point","coordinates":[1184079.9539999997,1150954.4350000042]},"properties":{"FID":18,"BLDNG_ID":"B0078088","BLDNG_TYPE":"Storage Small","ADDRESS":"1 Cicada Rd.","CITY_NAME":"MACKENZIE","LATITUDE":55.322,"LONGITUDE":-123.09175,"FCODE":"BF12450130","OBJECTID":615}},{"type":"Feature","id":19,"geometry":{"type":"Point","coordinates":[1544297.6989999996,694670.7029999997]},"properties":{"FID":19,"BLDNG_ID":"B0086918","BLDNG_TYPE":"Trailer Other","ADDRESS":"1761 Big Eddy Rd.","CITY_NAME":"REVELSTOKE","LATITUDE":50.996939,"LONGITUDE":-118.22291,"FCODE":"BF12450130","OBJECTID":616}},{"type":"Feature","id":20,"geometry":{"type":"Point","coordinates":[1212920.1190000016,995245.5409999983]},"properties":{"FID":20,"BLDNG_ID":"B0092494","BLDNG_TYPE":"Office","ADDRESS":"1488 4th Ave","CITY_NAME":"PRINCE GEORGE","LATITUDE":53.917083,"LONGITUDE":-122.74959,"FCODE":"BF12450130","OBJECTID":617}},{"type":"Feature","id":21,"geometry":{"type":"Point","coordinates":[1400039.948999999,644507.5610000016]},"properties":{"FID":21,"BLDNG_ID":"B0092418","BLDNG_TYPE":"Office","ADDRESS":"447 Columbia St","CITY_NAME":"KAMLOOPS","LATITUDE":50.67127,"LONGITUDE":-120.33091,"FCODE":"BF12450130","OBJECTID":618}},{"type":"Feature","id":22,"geometry":{"type":"Point","coordinates":[1400218.8340000003,644330.7580000041]},"properties":{"FID":22,"BLDNG_ID":"B0092502","BLDNG_TYPE":"Office","ADDRESS":"561 Columbia St.","CITY_NAME":"KAMLOOPS","LATITUDE":50.669558,"LONGITUDE":-120.32858,"FCODE":"BF12450130","OBJECTID":619}},{"type":"Feature","id":23,"geometry":{"type":"Point","coordinates":[1232451.179,473251.35199999623]},"properties":{"FID":23,"BLDNG_ID":"B0090423","BLDNG_TYPE":"Dormitory","ADDRESS":"70 Colony Farm Rd.","CITY_NAME":"COQUITLAM","LATITUDE":49.228472,"LONGITUDE":-122.81061,"FCODE":"BF12450130","OBJECTID":620}},{"type":"Feature","id":24,"geometry":{"type":"Point","coordinates":[1209890.8770000006,993565.3570000026]},"properties":{"FID":24,"BLDNG_ID":"B0078566","BLDNG_TYPE":"Storage Small","ADDRESS":"3980 22nd Ave.","CITY_NAME":"PRINCE GEORGE","LATITUDE":53.903281,"LONGITUDE":-122.79693,"FCODE":"BF12450130","OBJECTID":621}},{"type":"Feature","id":25,"geometry":{"type":"Point","coordinates":[1238582.8699999994,460144.08400000166]},"properties":{"FID":25,"BLDNG_ID":"B0067105","BLDNG_TYPE":"Ambulance","ADDRESS":"5833 176th St.","CITY_NAME":"SURREY","LATITUDE":49.108098,"LONGITUDE":-122.73488,"FCODE":"BF12450130","OBJECTID":622}},{"type":"Feature","id":26,"geometry":{"type":"Point","coordinates":[1232747.4760000003,475643.09399999864]},"properties":{"FID":26,"BLDNG_ID":"B0078477","BLDNG_TYPE":"Site Service","ADDRESS":"2601 Lougheed Hwy.","CITY_NAME":"COQUITLAM","LATITUDE":49.249856,"LONGITUDE":-122.80507,"FCODE":"BF12450130","OBJECTID":623}},{"type":"Feature","id":27,"geometry":{"type":"Point","coordinates":[1324644.255999999,747635.5249999994]},"properties":{"FID":27,"BLDNG_ID":"B0076984","BLDNG_TYPE":"Storage Small","ADDRESS":"300 Cariboo Hwy.","CITY_NAME":"HUNDRED MILE HOUSE","LATITUDE":51.644222,"LONGITUDE":-121.29902,"FCODE":"BF12450130","OBJECTID":624}},{"type":"Feature","id":28,"geometry":{"type":"Point","coordinates":[1195513.2959999996,382129.910000002]},"properties":{"FID":28,"BLDNG_ID":"B0092150","BLDNG_TYPE":"Office","ADDRESS":"810 Blanshard St.","CITY_NAME":"VICTORIA","LATITUDE":48.422194,"LONGITUDE":-123.36344,"FCODE":"BF12450130","OBJECTID":625}},{"type":"Feature","id":29,"geometry":{"type":"Point","coordinates":[1208007.6429999997,476125.16500000097]},"properties":{"FID":29,"BLDNG_ID":"B1002362","BLDNG_TYPE":"Office","ADDRESS":"1727 West Broadway","CITY_NAME":"VANCOUVER","LATITUDE":49.263704,"LONGITUDE":-123.14401,"FCODE":"BF12450130","OBJECTID":626}},{"type":"Feature","id":30,"geometry":{"type":"Point","coordinates":[1208633.0480000009,465993.54400000256]},"properties":{"FID":30,"BLDNG_ID":"B0092075","BLDNG_TYPE":"Courthouse","ADDRESS":"7577 Elmbridge Way","CITY_NAME":"RICHMOND","LATITUDE":49.172361,"LONGITUDE":-123.14105,"FCODE":"BF12450130","OBJECTID":627}},{"type":"Feature","id":31,"geometry":{"type":"Point","coordinates":[1387266.5770000003,937843.0500000017]},"properties":{"FID":31,"BLDNG_ID":"B0083196","BLDNG_TYPE":"Office","ADDRESS":"852 2nd Ave.","CITY_NAME":"MCBRIDE","LATITUDE":53.3035,"LONGITUDE":-120.1695,"FCODE":"BF12450130","OBJECTID":628}},{"type":"Feature","id":32,"geometry":{"type":"Point","coordinates":[1213064.4789999996,995338.5930000013]},"properties":{"FID":32,"BLDNG_ID":"B1002337","BLDNG_TYPE":"Office","ADDRESS":"325 Brunswick Street","CITY_NAME":"PRINCE GEORGE","LATITUDE":53.917856,"LONGITUDE":-122.74733,"FCODE":"BF12450130","OBJECTID":629}},{"type":"Feature","id":33,"geometry":{"type":"Point","coordinates":[1072357.9219999996,519574.7769999979]},"properties":{"FID":33,"BLDNG_ID":"B0092031","BLDNG_TYPE":"Office","ADDRESS":"961 England Ave.","CITY_NAME":"COURTENAY","LATITUDE":49.687771,"LONGITUDE":-124.99758,"FCODE":"BF12450130","OBJECTID":630}},{"type":"Feature","id":34,"geometry":{"type":"Point","coordinates":[1191721.9999999998,407302.63299999945]},"properties":{"FID":34,"BLDNG_ID":"B0092333","BLDNG_TYPE":"Health Unit","ADDRESS":"2357 James White Boulevard","CITY_NAME":"SIDNEY","LATITUDE":48.650117,"LONGITUDE":-123.40207,"FCODE":"BF12450130","OBJECTID":631}},{"type":"Feature","id":35,"geometry":{"type":"Point","coordinates":[1605040.7849999997,488659.1490000058]},"properties":{"FID":35,"BLDNG_ID":"B0067368","BLDNG_TYPE":"Office","ADDRESS":"Bay Ave. & Helena S","CITY_NAME":"TRAIL","LATITUDE":49.094904,"LONGITUDE":-117.70606,"FCODE":"BF12450130","OBJECTID":632}},{"type":"Feature","id":36,"geometry":{"type":"Point","coordinates":[804620.0309999998,1138525.707000005]},"properties":{"FID":36,"BLDNG_ID":"B0091647","BLDNG_TYPE":"Office","ADDRESS":"50896 Nass Rd.","CITY_NAME":"NEW AIYANSH","LATITUDE":55.206476,"LONGITUDE":-129.07802,"FCODE":"BF12450130","OBJECTID":633}},{"type":"Feature","id":37,"geometry":{"type":"Point","coordinates":[1360724.9480000013,1209692.2830000017]},"properties":{"FID":37,"BLDNG_ID":"B0078129","BLDNG_TYPE":"Health Unit","ADDRESS":"1001 110th Ave.","CITY_NAME":"DAWSON CREEK","LATITUDE":55.750444,"LONGITUDE":-120.23475,"FCODE":"BF12450130","OBJECTID":634}},{"type":"Feature","id":38,"geometry":{"type":"Point","coordinates":[1150429.0739999984,463176.45299999975]},"properties":{"FID":38,"BLDNG_ID":"B0091829","BLDNG_TYPE":"Office","ADDRESS":"345 Wallace St.","CITY_NAME":"NANAIMO","LATITUDE":49.16522,"LONGITUDE":-123.93922,"FCODE":"BF12450130","OBJECTID":635}},{"type":"Feature","id":39,"geometry":{"type":"Point","coordinates":[1544360.2519999999,694730.8229999989]},"properties":{"FID":39,"BLDNG_ID":"B0086868","BLDNG_TYPE":"Yard Office","ADDRESS":"1761 Big Eddy Rd.","CITY_NAME":"REVELSTOKE","LATITUDE":50.997414,"LONGITUDE":-118.22193,"FCODE":"BF12450130","OBJECTID":636}},{"type":"Feature","id":40,"geometry":{"type":"Point","coordinates":[1315539.9829999988,588548.0500000007]},"properties":{"FID":40,"BLDNG_ID":"B0091557","BLDNG_TYPE":"Residential Detached","ADDRESS":"136 Loring Way","CITY_NAME":"LYTTON","LATITUDE":50.223807,"LONGITUDE":-121.57432,"FCODE":"BF12450130","OBJECTID":637}},{"type":"Feature","id":41,"geometry":{"type":"Point","coordinates":[1195418.9050000003,383036.7620000001]},"properties":{"FID":41,"BLDNG_ID":"B1002347","BLDNG_TYPE":"Office","ADDRESS":"1803 Douglas Street","CITY_NAME":"VICTORIA","LATITUDE":48.430393,"LONGITUDE":-123.36426,"FCODE":"BF12450130","OBJECTID":638}},{"type":"Feature","id":42,"geometry":{"type":"Point","coordinates":[1452034.0960000013,890511.4300000016]},"properties":{"FID":42,"BLDNG_ID":"B0091333","BLDNG_TYPE":"Residential Detached","ADDRESS":"1300 8th Ave.","CITY_NAME":"VALEMOUNT","LATITUDE":52.829447,"LONGITUDE":-119.26746,"FCODE":"BF12450130","OBJECTID":639}},{"type":"Feature","id":43,"geometry":{"type":"Point","coordinates":[1231935.8260000001,459750.98000000045]},"properties":{"FID":43,"BLDNG_ID":"B0078169","BLDNG_TYPE":"Jail","ADDRESS":"14323 57th Ave.","CITY_NAME":"SURREY","LATITUDE":49.107283,"LONGITUDE":-122.82597,"FCODE":"BF12450130","OBJECTID":640}},{"type":"Feature","id":44,"geometry":{"type":"Point","coordinates":[1474492.3959999997,563575.2720000027]},"properties":{"FID":44,"BLDNG_ID":"B0067414","BLDNG_TYPE":"Other","ADDRESS":"125 Park Road","CITY_NAME":"KELOWNA","LATITUDE":49.888667,"LONGITUDE":-119.38836,"FCODE":"BF12450130","OBJECTID":641}},{"type":"Feature","id":45,"geometry":{"type":"Point","coordinates":[1359640.852,1212215.9519999996]},"properties":{"FID":45,"BLDNG_ID":"B0078051","BLDNG_TYPE":"Storage Small","ADDRESS":"9000 17th St.","CITY_NAME":"DAWSON CREEK","LATITUDE":55.773769,"LONGITUDE":-120.24873,"FCODE":"BF12450130","OBJECTID":642}},{"type":"Feature","id":46,"geometry":{"type":"Point","coordinates":[564792.9299999997,1644990.085]},"properties":{"FID":46,"BLDNG_ID":"B0078095","BLDNG_TYPE":"Warehouse","ADDRESS":"Mcbride Blvd.","CITY_NAME":"ATLIN","LATITUDE":59.574983,"LONGITUDE":-133.70215,"FCODE":"BF12450130","OBJECTID":643}},{"type":"Feature","id":47,"geometry":{"type":"Point","coordinates":[1318286.2380000004,1262149.5530000012]},"properties":{"FID":47,"BLDNG_ID":"B0092667","BLDNG_TYPE":"Office","ADDRESS":"10123 102 Avenue","CITY_NAME":"FORT ST. JOHN","LATITUDE":56.24836,"LONGITUDE":-120.84961,"FCODE":"BF12450130","OBJECTID":644}},{"type":"Feature","id":48,"geometry":{"type":"Point","coordinates":[1360451.0570000003,1210914.1570000034]},"properties":{"FID":48,"BLDNG_ID":"B0067256","BLDNG_TYPE":"Ambulance","ADDRESS":"10101 13th St.","CITY_NAME":"DAWSON CREEK","LATITUDE":55.761555,"LONGITUDE":-120.23752,"FCODE":"BF12450130","OBJECTID":645}},{"type":"Feature","id":49,"geometry":{"type":"Point","coordinates":[1452567.6350000007,890560.7639999986]},"properties":{"FID":49,"BLDNG_ID":"B0091331","BLDNG_TYPE":"Residential Detached","ADDRESS":"1045 8th Ave.","CITY_NAME":"VALEMOUNT","LATITUDE":52.829432,"LONGITUDE":-119.25949,"FCODE":"BF12450130","OBJECTID":646}},{"type":"Feature","id":50,"geometry":{"type":"Point","coordinates":[1627670.8179999993,738393.1659999974]},"properties":{"FID":50,"BLDNG_ID":"B0092410","BLDNG_TYPE":"Storage Small","ADDRESS":"800 9th St. N","CITY_NAME":"GOLDEN","LATITUDE":51.298049,"LONGITUDE":-116.96429,"FCODE":"BF12450130","OBJECTID":647}},{"type":"Feature","id":51,"geometry":{"type":"Point","coordinates":[1230315.8359999994,467429.28400000464]},"properties":{"FID":51,"BLDNG_ID":"B0067895","BLDNG_TYPE":"Ambulance","ADDRESS":"13700 96th Ave.","CITY_NAME":"SURREY","LATITUDE":49.176983,"LONGITUDE":-122.84343,"FCODE":"BF12450130","OBJECTID":648}},{"type":"Feature","id":52,"geometry":{"type":"Point","coordinates":[1583256.8369999991,614185.4790000003]},"properties":{"FID":52,"BLDNG_ID":"B0092432","BLDNG_TYPE":"Courthouse","ADDRESS":"415 Broadways St.","CITY_NAME":"NAKUSP","LATITUDE":50.239097,"LONGITUDE":-117.80367,"FCODE":"BF12450130","OBJECTID":649}},{"type":"Feature","id":53,"geometry":{"type":"Point","coordinates":[598800.2190000014,1017906.9440000039]},"properties":{"FID":53,"BLDNG_ID":"B0091279","BLDNG_TYPE":"Residential Detached","ADDRESS":"1631 Delkatla St.","CITY_NAME":"MASSET","LATITUDE":54.007854,"LONGITUDE":-132.1436,"FCODE":"BF12450130","OBJECTID":650}},{"type":"Feature","id":54,"geometry":{"type":"Point","coordinates":[1224033.7479999987,467629.6490000002]},"properties":{"FID":54,"BLDNG_ID":"B0091687","BLDNG_TYPE":"Office","ADDRESS":"610 Derwent Way","CITY_NAME":"DELTA","LATITUDE":49.181271,"LONGITUDE":-122.9293,"FCODE":"BF12450130","OBJECTID":651}},{"type":"Feature","id":55,"geometry":{"type":"Point","coordinates":[751746.7749999997,1223511.934999995]},"properties":{"FID":55,"BLDNG_ID":"B0091319","BLDNG_TYPE":"Residential Detached","ADDRESS":"1410 Raven","CITY_NAME":"STEWART","LATITUDE":55.943324,"LONGITUDE":-129.98473,"FCODE":"BF12450130","OBJECTID":652}},{"type":"Feature","id":56,"geometry":{"type":"Point","coordinates":[1198970.742,965049.6339999977]},"properties":{"FID":56,"BLDNG_ID":"B0076646","BLDNG_TYPE":"Office","ADDRESS":"15875 Hutda Lake Rd.","CITY_NAME":"HUTDA LAKE","LATITUDE":53.652306,"LONGITUDE":-122.98191,"FCODE":"BF12450130","OBJECTID":653}},{"type":"Feature","id":57,"geometry":{"type":"Point","coordinates":[1583200.4890000003,614360.3179999962]},"properties":{"FID":57,"BLDNG_ID":"B0087536","BLDNG_TYPE":"Residential Detached","ADDRESS":"109 West 6th Ave.","CITY_NAME":"NAKUSP","LATITUDE":50.240717,"LONGITUDE":-117.80417,"FCODE":"BF12450130","OBJECTID":654}},{"type":"Feature","id":58,"geometry":{"type":"Point","coordinates":[1400016.6429999992,644835.934000005]},"properties":{"FID":58,"BLDNG_ID":"B0067428","BLDNG_TYPE":"Office","ADDRESS":"444 St. Paul St.","CITY_NAME":"KAMLOOPS","LATITUDE":50.674227,"LONGITUDE":-120.33086,"FCODE":"BF12450130","OBJECTID":655}},{"type":"Feature","id":59,"geometry":{"type":"Point","coordinates":[1466987.0840000012,562629.6369999992]},"properties":{"FID":59,"BLDNG_ID":"B0092547","BLDNG_TYPE":"Office","ADDRESS":"478 Bernard Ave","CITY_NAME":"KELOWNA","LATITUDE":49.886444,"LONGITUDE":-119.49355,"FCODE":"BF12450130","OBJECTID":656}},{"type":"Feature","id":60,"geometry":{"type":"Point","coordinates":[1110858.55,1051904.727000001]},"properties":{"FID":60,"BLDNG_ID":"B0083360","BLDNG_TYPE":"Storage Small","ADDRESS":"Stones Bay Rd.","CITY_NAME":"FORT ST. JAMES","LATITUDE":54.4565,"LONGITUDE":-124.28583,"FCODE":"BF12450130","OBJECTID":657}},{"type":"Feature","id":61,"geometry":{"type":"Point","coordinates":[1213299.8839999998,993068.9410000006]},"properties":{"FID":61,"BLDNG_ID":"B0092307","BLDNG_TYPE":"School","ADDRESS":"1200 La Salle Ave","CITY_NAME":"PRINCE GEORGE","LATITUDE":53.897444,"LONGITUDE":-122.74533,"FCODE":"BF12450130","OBJECTID":658}},{"type":"Feature","id":62,"geometry":{"type":"Point","coordinates":[1294528.531,467475.7290000012]},"properties":{"FID":62,"BLDNG_ID":"B0091696","BLDNG_TYPE":"Office","ADDRESS":"45467 Yale Rd.","CITY_NAME":"CHILLIWACK","LATITUDE":49.148054,"LONGITUDE":-121.96503,"FCODE":"BF12450130","OBJECTID":659}},{"type":"Feature","id":63,"geometry":{"type":"Point","coordinates":[1375240.4820000008,581656.8800000018]},"properties":{"FID":63,"BLDNG_ID":"B0078234","BLDNG_TYPE":"Storage Small","ADDRESS":"Hwy. 5a & Airport Rd.","CITY_NAME":"MERRITT","LATITUDE":50.125356,"LONGITUDE":-120.74697,"FCODE":"BF12450130","OBJECTID":660}},{"type":"Feature","id":64,"geometry":{"type":"Point","coordinates":[1167794.5820000013,424744.05399999954]},"properties":{"FID":64,"BLDNG_ID":"B0078297","BLDNG_TYPE":"Weigh Station","ADDRESS":"6710 Hwy. 1 S.","CITY_NAME":"DUNCAN","LATITUDE":48.814553,"LONGITUDE":-123.71844,"FCODE":"BF12450130","OBJECTID":661}},{"type":"Feature","id":65,"geometry":{"type":"Point","coordinates":[1464624.4710000015,516781.419999999]},"properties":{"FID":65,"BLDNG_ID":"B0067407","BLDNG_TYPE":"Office","ADDRESS":"1873 Main St.","CITY_NAME":"PENTICTON","LATITUDE":49.477719,"LONGITUDE":-119.58402,"FCODE":"BF12450130","OBJECTID":662}},{"type":"Feature","id":66,"geometry":{"type":"Point","coordinates":[1398645.6980000008,645271.6579999989]},"properties":{"FID":66,"BLDNG_ID":"B0092398","BLDNG_TYPE":"Office","ADDRESS":"301 Victoria St","CITY_NAME":"KAMLOOPS","LATITUDE":50.679112,"LONGITUDE":-120.34972,"FCODE":"BF12450130","OBJECTID":663}},{"type":"Feature","id":67,"geometry":{"type":"Point","coordinates":[1194577.8989999995,384100.35700000264]},"properties":{"FID":67,"BLDNG_ID":"B0092643","BLDNG_TYPE":"Office","ADDRESS":"410 Garbally Rd.","CITY_NAME":"VICTORIA","LATITUDE":48.440253,"LONGITUDE":-123.37506,"FCODE":"BF12450130","OBJECTID":664}},{"type":"Feature","id":68,"geometry":{"type":"Point","coordinates":[1332136.7559999984,494970.0969999982]},"properties":{"FID":68,"BLDNG_ID":"B0092326","BLDNG_TYPE":"Storage Vehicle","ADDRESS":"1313 - 6th Ave.","CITY_NAME":"HOPE","LATITUDE":49.374481,"LONGITUDE":-121.42685,"FCODE":"BF12450130","OBJECTID":665}},{"type":"Feature","id":69,"geometry":{"type":"Point","coordinates":[1295054.1089999997,464812.9870000044]},"properties":{"FID":69,"BLDNG_ID":"B1002341","BLDNG_TYPE":"Office","ADDRESS":"6640 Vedder Road","CITY_NAME":"CHILLIWACK","LATITUDE":49.123854,"LONGITUDE":-121.95992,"FCODE":"BF12450130","OBJECTID":666}},{"type":"Feature","id":70,"geometry":{"type":"Point","coordinates":[1195481.654,382702.4369999999]},"properties":{"FID":70,"BLDNG_ID":"B0067622","BLDNG_TYPE":"Office","ADDRESS":"722 Johnson St.","CITY_NAME":"VICTORIA","LATITUDE":48.427361,"LONGITUDE":-123.36358,"FCODE":"BF12450130","OBJECTID":667}},{"type":"Feature","id":71,"geometry":{"type":"Point","coordinates":[1208705.4770000002,466089.6340000015]},"properties":{"FID":71,"BLDNG_ID":"B0068086","BLDNG_TYPE":"Office","ADDRESS":"5760 Minoru Blvd.","CITY_NAME":"RICHMOND","LATITUDE":49.173199,"LONGITUDE":-123.14001,"FCODE":"BF12450130","OBJECTID":668}},{"type":"Feature","id":72,"geometry":{"type":"Point","coordinates":[1168670.3670000015,420565.23199999984]},"properties":{"FID":72,"BLDNG_ID":"B0092720","BLDNG_TYPE":"Office","ADDRESS":"15 Craig St.","CITY_NAME":"DUNCAN","LATITUDE":48.776681,"LONGITUDE":-123.70838,"FCODE":"BF12450130","OBJECTID":669}},{"type":"Feature","id":73,"geometry":{"type":"Point","coordinates":[1629550.7190000003,536579.7250000006]},"properties":{"FID":73,"BLDNG_ID":"B0091851","BLDNG_TYPE":"Storage Open","ADDRESS":"110 Cedar St.","CITY_NAME":"NELSON","LATITUDE":49.496639,"LONGITUDE":-117.29297,"FCODE":"BF12450130","OBJECTID":670}},{"type":"Feature","id":74,"geometry":{"type":"Point","coordinates":[1230287.9049999984,468436.70100000594]},"properties":{"FID":74,"BLDNG_ID":"B0092263","BLDNG_TYPE":"Office","ADDRESS":"10095 Whalley Blvd.","CITY_NAME":"SURREY","LATITUDE":49.186053,"LONGITUDE":-122.84319,"FCODE":"BF12450130","OBJECTID":671}},{"type":"Feature","id":75,"geometry":{"type":"Point","coordinates":[1233788.6549999989,459308.76900000125]},"properties":{"FID":75,"BLDNG_ID":"B0092142","BLDNG_TYPE":"Office","ADDRESS":"5460 152nd St.,","CITY_NAME":"SURREY","LATITUDE":49.102556,"LONGITUDE":-122.80092,"FCODE":"BF12450130","OBJECTID":672}},{"type":"Feature","id":76,"geometry":{"type":"Point","coordinates":[1229780.8570000008,468618.2680000067]},"properties":{"FID":76,"BLDNG_ID":"B0092145","BLDNG_TYPE":"Office","ADDRESS":"13450 102nd Ave.","CITY_NAME":"SURREY","LATITUDE":49.187889,"LONGITUDE":-122.85002,"FCODE":"BF12450130","OBJECTID":673}},{"type":"Feature","id":77,"geometry":{"type":"Point","coordinates":[1212200.282,481746.30199999735]},"properties":{"FID":77,"BLDNG_ID":"B0092604","BLDNG_TYPE":"Office","ADDRESS":"224 W. Esplanade","CITY_NAME":"NORTH VANCOUVER","LATITUDE":49.312712,"LONGITUDE":-123.08333,"FCODE":"BF12450130","OBJECTID":674}},{"type":"Feature","id":78,"geometry":{"type":"Point","coordinates":[1229545.0309999986,462955.47400000226]},"properties":{"FID":78,"BLDNG_ID":"B0092540","BLDNG_TYPE":"Office","ADDRESS":"2021 7445 - 132 St.","CITY_NAME":"SURREY","LATITUDE":49.137061,"LONGITUDE":-122.8567,"FCODE":"BF12450130","OBJECTID":675}},{"type":"Feature","id":79,"geometry":{"type":"Point","coordinates":[1215024.1559999995,476204.0909999944]},"properties":{"FID":79,"BLDNG_ID":"B0091801","BLDNG_TYPE":"Office","ADDRESS":"2780 E. Broadway","CITY_NAME":"VANCOUVER","LATITUDE":49.261824,"LONGITUDE":-123.04774,"FCODE":"BF12450130","OBJECTID":676}},{"type":"Feature","id":80,"geometry":{"type":"Point","coordinates":[1474539.1420000019,567076.5399999982]},"properties":{"FID":80,"BLDNG_ID":"B0092339","BLDNG_TYPE":"Office","ADDRESS":"2355 Acland Rd.","CITY_NAME":"KELOWNA","LATITUDE":49.919972,"LONGITUDE":-119.38316,"FCODE":"BF12450130","OBJECTID":677}},{"type":"Feature","id":81,"geometry":{"type":"Point","coordinates":[1232472.4930000012,473453.12600000296]},"properties":{"FID":81,"BLDNG_ID":"B0091356","BLDNG_TYPE":"Hospital","ADDRESS":"70 Colony Farm Rd.","CITY_NAME":"COQUITLAM","LATITUDE":49.230278,"LONGITUDE":-122.81019,"FCODE":"BF12450130","OBJECTID":678}},{"type":"Feature","id":82,"geometry":{"type":"Point","coordinates":[1657269.5399999996,569584.3780000005]},"properties":{"FID":82,"BLDNG_ID":"B0092081","BLDNG_TYPE":"Ambulance","ADDRESS":"1409 Ainsworth","CITY_NAME":"RIONDEL","LATITUDE":49.759809,"LONGITUDE":-116.8551,"FCODE":"BF12450130","OBJECTID":679}},{"type":"Feature","id":83,"geometry":{"type":"Point","coordinates":[1186438.9300000002,789377.2180000003]},"properties":{"FID":83,"BLDNG_ID":"B0092505","BLDNG_TYPE":"Mobile Home","ADDRESS":"2635 Forest Lane, Lot C","CITY_NAME":"ALEXIS CREEK","LATITUDE":52.083251,"LONGITUDE":-123.27434,"FCODE":"BF12450130","OBJECTID":680}},{"type":"Feature","id":84,"geometry":{"type":"Point","coordinates":[1192002.6790000002,407404.85699999984]},"properties":{"FID":84,"BLDNG_ID":"B0092556","BLDNG_TYPE":"Courthouse","ADDRESS":"9884 3rd Street","CITY_NAME":"SIDNEY","LATITUDE":48.650944,"LONGITUDE":-123.39822,"FCODE":"BF12450130","OBJECTID":681}},{"type":"Feature","id":85,"geometry":{"type":"Point","coordinates":[899590.2039999994,1139594.9069999987]},"properties":{"FID":85,"BLDNG_ID":"B0091289","BLDNG_TYPE":"Residential Detached","ADDRESS":"4547 13th Ave.","CITY_NAME":"NEW HAZELTON","LATITUDE":55.244055,"LONGITUDE":-127.58297,"FCODE":"BF12450130","OBJECTID":682}},{"type":"Feature","id":86,"geometry":{"type":"Point","coordinates":[1212700.6879999996,995440.026999996]},"properties":{"FID":86,"BLDNG_ID":"B0091864","BLDNG_TYPE":"Office","ADDRESS":"1705 3rd Ave.","CITY_NAME":"PRINCE GEORGE","LATITUDE":53.918914,"LONGITUDE":-122.7528,"FCODE":"BF12450130","OBJECTID":683}},{"type":"Feature","id":87,"geometry":{"type":"Point","coordinates":[1466738.3609999998,563826.4610000029]},"properties":{"FID":87,"BLDNG_ID":"B1002356","BLDNG_TYPE":"Office","ADDRESS":"1060 Manhattan Dr.","CITY_NAME":"KELOWNA","LATITUDE":49.897365,"LONGITUDE":-119.49547,"FCODE":"BF12450130","OBJECTID":684}},{"type":"Feature","id":88,"geometry":{"type":"Point","coordinates":[1604989.3880000007,489779.24100000225]},"properties":{"FID":88,"BLDNG_ID":"B0077845","BLDNG_TYPE":"Ambulance","ADDRESS":"1200 Hospital Bench","CITY_NAME":"TRAIL","LATITUDE":49.104972,"LONGITUDE":-117.70497,"FCODE":"BF12450130","OBJECTID":685}},{"type":"Feature","id":89,"geometry":{"type":"Point","coordinates":[1195493.315999999,381780.6269999994]},"properties":{"FID":89,"BLDNG_ID":"B0078317","BLDNG_TYPE":"Office","ADDRESS":"835 Humboldt St.","CITY_NAME":"VICTORIA","LATITUDE":48.419056,"LONGITUDE":-123.36388,"FCODE":"BF12450130","OBJECTID":686}},{"type":"Feature","id":90,"geometry":{"type":"Point","coordinates":[924633.0689999996,1087309.3140000002]},"properties":{"FID":90,"BLDNG_ID":"B1002259","BLDNG_TYPE":"Office","ADDRESS":"3862A BROADWAY AVE.","CITY_NAME":"SMITHERS","LATITUDE":54.780106,"LONGITUDE":-127.17457,"FCODE":"BF12450130","OBJECTID":687}},{"type":"Feature","id":91,"geometry":{"type":"Point","coordinates":[1195158.2610000009,381863.7719999999]},"properties":{"FID":91,"BLDNG_ID":"B0092534","BLDNG_TYPE":"Museum","ADDRESS":"675 Belleville St.","CITY_NAME":"VICTORIA","LATITUDE":48.419917,"LONGITUDE":-123.36836,"FCODE":"BF12450130","OBJECTID":688}},{"type":"Feature","id":92,"geometry":{"type":"Point","coordinates":[1195804.8769999996,382519.71300000325]},"properties":{"FID":92,"BLDNG_ID":"B0067634","BLDNG_TYPE":"Office","ADDRESS":"1250 Quadra St.","CITY_NAME":"VICTORIA","LATITUDE":48.425607,"LONGITUDE":-123.35932,"FCODE":"BF12450130","OBJECTID":689}},{"type":"Feature","id":93,"geometry":{"type":"Point","coordinates":[595282.8420000004,933924.4480000017]},"properties":{"FID":93,"BLDNG_ID":"B1002258","BLDNG_TYPE":"Office","ADDRESS":"302 - 2ND AVE","CITY_NAME":"QUEEN CHARLOTTE CITY","LATITUDE":53.255354,"LONGITUDE":-132.0869,"FCODE":"BF12450130","OBJECTID":690}},{"type":"Feature","id":94,"geometry":{"type":"Point","coordinates":[1218667.9780000001,472644.8309999965]},"properties":{"FID":94,"BLDNG_ID":"B0091359","BLDNG_TYPE":"Office","ADDRESS":"4680 Kingsway","CITY_NAME":"BURNABY","LATITUDE":49.22844,"LONGITUDE":-122.99984,"FCODE":"BF12450130","OBJECTID":691}},{"type":"Feature","id":95,"geometry":{"type":"Point","coordinates":[1186162.7380000004,789338.6350000054]},"properties":{"FID":95,"BLDNG_ID":"B0091231","BLDNG_TYPE":"Mobile Home","ADDRESS":"7714 Hwy 20","CITY_NAME":"ALEXIS CREEK","LATITUDE":52.083,"LONGITUDE":-123.2784,"FCODE":"BF12450130","OBJECTID":692}},{"type":"Feature","id":96,"geometry":{"type":"Point","coordinates":[1318545.0280000009,1135848.148]},"properties":{"FID":96,"BLDNG_ID":"B1002450","BLDNG_TYPE":"Ambulance","ADDRESS":"103 Becker Rd.","CITY_NAME":"TUMBLER RIDGE","LATITUDE":55.119521,"LONGITUDE":-120.98983,"FCODE":"BF12450130","OBJECTID":693}},{"type":"Feature","id":97,"geometry":{"type":"Point","coordinates":[1195315.3249999995,381951.7099999981]},"properties":{"FID":97,"BLDNG_ID":"B1002459","BLDNG_TYPE":"Hospitality","ADDRESS":"713 Douglas St.","CITY_NAME":"VICTORIA","LATITUDE":48.420656,"LONGITUDE":-123.3662,"FCODE":"BF12450130","OBJECTID":694}},{"type":"Feature","id":98,"geometry":{"type":"Point","coordinates":[1195511.2409999997,382074.3130000001]},"properties":{"FID":98,"BLDNG_ID":"B0092155","BLDNG_TYPE":"Office","ADDRESS":"780 Blanshard St.","CITY_NAME":"VICTORIA","LATITUDE":48.421694,"LONGITUDE":-123.3635,"FCODE":"BF12450130","OBJECTID":695}},{"type":"Feature","id":99,"geometry":{"type":"Point","coordinates":[1244383.6730000013,461605.03900000174]},"properties":{"FID":99,"BLDNG_ID":"B1002451","BLDNG_TYPE":"Office","ADDRESS":"20486 64th Ave.","CITY_NAME":"LANGLEY","LATITUDE":49.118798,"LONGITUDE":-122.65467,"FCODE":"BF12450130","OBJECTID":696}},{"type":"Feature","id":100,"geometry":{"type":"Point","coordinates":[1212303.9170000001,993347.1669999957]},"properties":{"FID":100,"BLDNG_ID":"B0092612","BLDNG_TYPE":"Office","ADDRESS":"1788 Diefenbaker Drive","CITY_NAME":"PRINCE GEORGE","LATITUDE":53.900344,"LONGITUDE":-122.76031,"FCODE":"BF12450130","OBJECTID":697}},{"type":"Feature","id":101,"geometry":{"type":"Point","coordinates":[1122874.774000001,479655.4569999995]},"properties":{"FID":101,"BLDNG_ID":"B0092104","BLDNG_TYPE":"Office","ADDRESS":"154 Middleton St.","CITY_NAME":"PARKSVILLE","LATITUDE":49.32005,"LONGITUDE":-124.31115,"FCODE":"BF12450130","OBJECTID":698}},{"type":"Feature","id":102,"geometry":{"type":"Point","coordinates":[895382.1109999997,1141475.9730000058]},"properties":{"FID":102,"BLDNG_ID":"B1002376","BLDNG_TYPE":"Office","ADDRESS":"2510 Hwy 62","CITY_NAME":"HAZELTON","LATITUDE":55.260042,"LONGITUDE":-127.64998,"FCODE":"BF12450130","OBJECTID":699}},{"type":"Feature","id":103,"geometry":{"type":"Point","coordinates":[1232066.9279999998,474857.37700000405]},"properties":{"FID":103,"BLDNG_ID":"B0021790","BLDNG_TYPE":"Dormitory","ADDRESS":"2601 Lougheed Hwy.","CITY_NAME":"COQUITLAM","LATITUDE":49.243068,"LONGITUDE":-122.81488,"FCODE":"BF12450130","OBJECTID":700}},{"type":"Feature","id":104,"geometry":{"type":"Point","coordinates":[1318930.927999999,464154.470999999]},"properties":{"FID":104,"BLDNG_ID":"B0024000","BLDNG_TYPE":"Storage Small","ADDRESS":"57657 Chilliwack Lake Rd.","CITY_NAME":"CHILLIWACK","LATITUDE":49.105183,"LONGITUDE":-121.63434,"FCODE":"BF12450130","OBJECTID":701}},{"type":"Feature","id":105,"geometry":{"type":"Point","coordinates":[1309768.6720000003,460323.03900000174]},"properties":{"FID":105,"BLDNG_ID":"B0024208","BLDNG_TYPE":"Dormitory","ADDRESS":"53033 Chilliwack Lake Rd.","CITY_NAME":"CHILLIWACK","LATITUDE":49.075764,"LONGITUDE":-121.76259,"FCODE":"BF12450130","OBJECTID":702}},{"type":"Feature","id":106,"geometry":{"type":"Point","coordinates":[1218141.1850000008,475437.1869999999]},"properties":{"FID":106,"BLDNG_ID":"B0019604","BLDNG_TYPE":"Hospital","ADDRESS":"3405 Willingdon Ave.","CITY_NAME":"BURNABY","LATITUDE":49.25375,"LONGITUDE":-123.00544,"FCODE":"BF12450130","OBJECTID":703}},{"type":"Feature","id":107,"geometry":{"type":"Point","coordinates":[1374778.6789999995,468909.8500000015]},"properties":{"FID":107,"BLDNG_ID":"B0022863","BLDNG_TYPE":"Site Service","ADDRESS":"7413 Southern Trans Prov Hwy.","CITY_NAME":"ALLISON PASS","LATITUDE":49.114194,"LONGITUDE":-120.86763,"FCODE":"BF12450130","OBJECTID":704}},{"type":"Feature","id":108,"geometry":{"type":"Point","coordinates":[1106246.9109999998,537734.0410000002]},"properties":{"FID":108,"BLDNG_ID":"B0015669","BLDNG_TYPE":"Courthouse","ADDRESS":"6953 Alberni St.","CITY_NAME":"POWELL RIVER","LATITUDE":49.845722,"LONGITUDE":-124.52297,"FCODE":"BF12450130","OBJECTID":705}},{"type":"Feature","id":109,"geometry":{"type":"Point","coordinates":[1194930.8520000004,381602.3979999991]},"properties":{"FID":109,"BLDNG_ID":"B0010595","BLDNG_TYPE":"Office","ADDRESS":"515 Superior St.","CITY_NAME":"VICTORIA","LATITUDE":48.417639,"LONGITUDE":-123.37155,"FCODE":"BF12450130","OBJECTID":706}},{"type":"Feature","id":110,"geometry":{"type":"Point","coordinates":[1191808.0299999998,388674.1980000008]},"properties":{"FID":110,"BLDNG_ID":"B0011809","BLDNG_TYPE":"Jail","ADDRESS":"4216 Wilkinson Rd.","CITY_NAME":"SAANICH","LATITUDE":48.482361,"LONGITUDE":-123.41013,"FCODE":"BF12450130","OBJECTID":707}},{"type":"Feature","id":111,"geometry":{"type":"Point","coordinates":[1232971.9859999996,476264.4779999908]},"properties":{"FID":111,"BLDNG_ID":"B0022277","BLDNG_TYPE":"Dormitory","ADDRESS":"2601 Lougheed Hwy.","CITY_NAME":"COQUITLAM","LATITUDE":49.255352,"LONGITUDE":-122.8016,"FCODE":"BF12450130","OBJECTID":708}},{"type":"Feature","id":112,"geometry":{"type":"Point","coordinates":[1233084.394,476201.4110000003]},"properties":{"FID":112,"BLDNG_ID":"B0022111","BLDNG_TYPE":"Site Service","ADDRESS":"2601 Lougheed Hwy.","CITY_NAME":"COQUITLAM","LATITUDE":49.254739,"LONGITUDE":-122.8001,"FCODE":"BF12450130","OBJECTID":709}},{"type":"Feature","id":113,"geometry":{"type":"Point","coordinates":[1309768.6720000003,460323.03900000174]},"properties":{"FID":113,"BLDNG_ID":"B0024307","BLDNG_TYPE":"Animal Shelter","ADDRESS":"53033 Chilliwack Lake Rd.","CITY_NAME":"CHILLIWACK","LATITUDE":49.075764,"LONGITUDE":-121.76259,"FCODE":"BF12450130","OBJECTID":710}},{"type":"Feature","id":114,"geometry":{"type":"Point","coordinates":[1195624.0170000005,382146.3750000037]},"properties":{"FID":114,"BLDNG_ID":"B0010900","BLDNG_TYPE":"Courthouse","ADDRESS":"850 Burdett St.","CITY_NAME":"VICTORIA","LATITUDE":48.422306,"LONGITUDE":-123.36194,"FCODE":"BF12450130","OBJECTID":711}},{"type":"Feature","id":115,"geometry":{"type":"Point","coordinates":[1232933.609999999,476022.6560000079]},"properties":{"FID":115,"BLDNG_ID":"B0022061","BLDNG_TYPE":"Dormitory","ADDRESS":"2601 Lougheed Hwy.","CITY_NAME":"COQUITLAM","LATITUDE":49.253193,"LONGITUDE":-122.80228,"FCODE":"BF12450130","OBJECTID":712}},{"type":"Feature","id":116,"geometry":{"type":"Point","coordinates":[1309768.6720000003,460323.03900000174]},"properties":{"FID":116,"BLDNG_ID":"B0024166","BLDNG_TYPE":"Dormitory","ADDRESS":"53033 Chilliwack Lake Rd.","CITY_NAME":"CHILLIWACK","LATITUDE":49.075764,"LONGITUDE":-121.76259,"FCODE":"BF12450130","OBJECTID":713}},{"type":"Feature","id":117,"geometry":{"type":"Point","coordinates":[1232886.8440000003,475602.84899999853]},"properties":{"FID":117,"BLDNG_ID":"B0021923","BLDNG_TYPE":"Dormitory","ADDRESS":"2601 Lougheed Hwy.","CITY_NAME":"COQUITLAM","LATITUDE":49.249438,"LONGITUDE":-122.80318,"FCODE":"BF12450130","OBJECTID":714}},{"type":"Feature","id":118,"geometry":{"type":"Point","coordinates":[1232826.1319999984,475993.8479999993]},"properties":{"FID":118,"BLDNG_ID":"B0021998","BLDNG_TYPE":"Dormitory","ADDRESS":"2601 Lougheed Hwy.","CITY_NAME":"COQUITLAM","LATITUDE":49.252978,"LONGITUDE":-122.80377,"FCODE":"BF12450130","OBJECTID":715}},{"type":"Feature","id":119,"geometry":{"type":"Point","coordinates":[1233097.3509999998,476766.94099999685]},"properties":{"FID":119,"BLDNG_ID":"B0022350","BLDNG_TYPE":"Storage Small","ADDRESS":"2601 Lougheed Hwy.","CITY_NAME":"COQUITLAM","LATITUDE":49.259819,"LONGITUDE":-122.79957,"FCODE":"BF12450130","OBJECTID":716}},{"type":"Feature","id":120,"geometry":{"type":"Point","coordinates":[1217910.3180000002,475483.0249999985]},"properties":{"FID":120,"BLDNG_ID":"B0019695","BLDNG_TYPE":"Dormitory","ADDRESS":"3405 Willingdon Ave.","CITY_NAME":"BURNABY","LATITUDE":49.25425,"LONGITUDE":-123.00858,"FCODE":"BF12450130","OBJECTID":717}},{"type":"Feature","id":121,"geometry":{"type":"Point","coordinates":[1232827.014000001,475472.0080000013]},"properties":{"FID":121,"BLDNG_ID":"B0021899","BLDNG_TYPE":"Dormitory","ADDRESS":"2601 Lougheed Hwy.","CITY_NAME":"COQUITLAM","LATITUDE":49.248286,"LONGITUDE":-122.80408,"FCODE":"BF12450130","OBJECTID":718}},{"type":"Feature","id":122,"geometry":{"type":"Point","coordinates":[1232895.355,476133.2799999984]},"properties":{"FID":122,"BLDNG_ID":"B0022095","BLDNG_TYPE":"Hospital","ADDRESS":"2601 Lougheed Hwy.","CITY_NAME":"COQUITLAM","LATITUDE":49.254204,"LONGITUDE":-122.80274,"FCODE":"BF12450130","OBJECTID":719}},{"type":"Feature","id":123,"geometry":{"type":"Point","coordinates":[1296094.8610000005,908529.7599999988]},"properties":{"FID":123,"BLDNG_ID":"B0031179","BLDNG_TYPE":"Industrial Maintenance","ADDRESS":"Gardner St.","CITY_NAME":"WELLS","LATITUDE":53.100639,"LONGITUDE":-121.56558,"FCODE":"BF12450130","OBJECTID":720}},{"type":"Feature","id":124,"geometry":{"type":"Point","coordinates":[1217975.0319999997,475485.7610000018]},"properties":{"FID":124,"BLDNG_ID":"B0019703","BLDNG_TYPE":"Dormitory","ADDRESS":"3405 Willingdon Ave.","CITY_NAME":"BURNABY","LATITUDE":49.25425,"LONGITUDE":-123.00769,"FCODE":"BF12450130","OBJECTID":721}},{"type":"Feature","id":125,"geometry":{"type":"Point","coordinates":[1217957.4100000004,475327.46900000144]},"properties":{"FID":125,"BLDNG_ID":"B0019711","BLDNG_TYPE":"Dormitory","ADDRESS":"3405 Willingdon Ave.","CITY_NAME":"BURNABY","LATITUDE":49.252833,"LONGITUDE":-123.00802,"FCODE":"BF12450130","OBJECTID":722}},{"type":"Feature","id":126,"geometry":{"type":"Point","coordinates":[1225491.221000001,470069.3520000009]},"properties":{"FID":126,"BLDNG_ID":"B0046979","BLDNG_TYPE":"Courthouse","ADDRESS":"651 Carnarvon St.","CITY_NAME":"NEW WESTMINSTER","LATITUDE":49.202639,"LONGITUDE":-122.90788,"FCODE":"BF12450130","OBJECTID":723}},{"type":"Feature","id":127,"geometry":{"type":"Point","coordinates":[1703980.2749999994,660774.9040000001]},"properties":{"FID":127,"BLDNG_ID":"B0034231","BLDNG_TYPE":"Storage Small","ADDRESS":"Industrial Rd. 1","CITY_NAME":"INVERMERE","LATITUDE":50.515569,"LONGITUDE":-116.03588,"FCODE":"BF12450130","OBJECTID":724}},{"type":"Feature","id":128,"geometry":{"type":"Point","coordinates":[1319283.6999999993,980209.3329999913]},"properties":{"FID":128,"BLDNG_ID":"B0036509","BLDNG_TYPE":"Storage Vehicle","ADDRESS":"Hwy. 16","CITY_NAME":"SLIM CREEK","LATITUDE":53.728033,"LONGITUDE":-121.14583,"FCODE":"BF12450130","OBJECTID":725}},{"type":"Feature","id":129,"geometry":{"type":"Point","coordinates":[1311231.3519999997,1265066.901000008]},"properties":{"FID":129,"BLDNG_ID":"B0037812","BLDNG_TYPE":"Warehouse","ADDRESS":"8553 Hwy. 97 N.","CITY_NAME":"CHARLIE LAKE","LATITUDE":56.278981,"LONGITUDE":-120.96002,"FCODE":"BF12450130","OBJECTID":726}},{"type":"Feature","id":130,"geometry":{"type":"Point","coordinates":[924623.5419999994,1087077.5050000036]},"properties":{"FID":130,"BLDNG_ID":"B0040535","BLDNG_TYPE":"Courthouse","ADDRESS":"3793 Alfred Ave.","CITY_NAME":"SMITHERS","LATITUDE":54.778028,"LONGITUDE":-127.17466,"FCODE":"BF12450130","OBJECTID":727}},{"type":"Feature","id":131,"geometry":{"type":"Point","coordinates":[1704319.8419999997,660942.7079999987]},"properties":{"FID":131,"BLDNG_ID":"B0042416","BLDNG_TYPE":"Warehouse","ADDRESS":"Industrial Rd. 1","CITY_NAME":"INVERMERE","LATITUDE":50.516633,"LONGITUDE":-116.03081,"FCODE":"BF12450130","OBJECTID":728}},{"type":"Feature","id":132,"geometry":{"type":"Point","coordinates":[1214098.6689999993,994877.8130000001]},"properties":{"FID":132,"BLDNG_ID":"B0050492","BLDNG_TYPE":"Warehouse","ADDRESS":"410 3rd Ave.","CITY_NAME":"PRINCE GEORGE","LATITUDE":53.913306,"LONGITUDE":-122.73188,"FCODE":"BF12450130","OBJECTID":729}},{"type":"Feature","id":133,"geometry":{"type":"Point","coordinates":[1209479.7620000008,478157.6199999936]},"properties":{"FID":133,"BLDNG_ID":"B0045047","BLDNG_TYPE":"Office","ADDRESS":"800 Hornby St.","CITY_NAME":"VANCOUVER","LATITUDE":49.281444,"LONGITUDE":-123.12269,"FCODE":"BF12450130","OBJECTID":730}},{"type":"Feature","id":134,"geometry":{"type":"Point","coordinates":[1122459.9820000012,479763.5649999995]},"properties":{"FID":134,"BLDNG_ID":"B0055095","BLDNG_TYPE":"Office","ADDRESS":"198 Morrison Ave.","CITY_NAME":"PARKSVILLE","LATITUDE":49.321112,"LONGITUDE":-124.31681,"FCODE":"BF12450130","OBJECTID":731}},{"type":"Feature","id":135,"geometry":{"type":"Point","coordinates":[1072301.6139999998,519640.3839999996]},"properties":{"FID":135,"BLDNG_ID":"B0059840","BLDNG_TYPE":"Office","ADDRESS":"941 England Ave.","CITY_NAME":"COURTENAY","LATITUDE":49.688368,"LONGITUDE":-124.99835,"FCODE":"BF12450130","OBJECTID":732}},{"type":"Feature","id":136,"geometry":{"type":"Point","coordinates":[1195258.2810000004,382245.9499999974]},"properties":{"FID":136,"BLDNG_ID":"B0050906","BLDNG_TYPE":"Office","ADDRESS":"633 Courtney St.","CITY_NAME":"VICTORIA","LATITUDE":48.423325,"LONGITUDE":-123.36682,"FCODE":"BF12450130","OBJECTID":733}},{"type":"Feature","id":137,"geometry":{"type":"Point","coordinates":[1033201.9389999988,435762.731999998]},"properties":{"FID":137,"BLDNG_ID":"B0051730","BLDNG_TYPE":"Office","ADDRESS":"1620 Peninsula Rd.","CITY_NAME":"UCLUELET","LATITUDE":48.937176,"LONGITUDE":-125.54743,"FCODE":"BF12450130","OBJECTID":734}},{"type":"Feature","id":138,"geometry":{"type":"Point","coordinates":[1197085.7030000002,381929.4289999986]},"properties":{"FID":138,"BLDNG_ID":"B0049825","BLDNG_TYPE":"Storage Small","ADDRESS":"1401 Rockland Ave.","CITY_NAME":"VICTORIA","LATITUDE":48.419859,"LONGITUDE":-123.34236,"FCODE":"BF12450130","OBJECTID":735}},{"type":"Feature","id":139,"geometry":{"type":"Point","coordinates":[613627.9089999993,930888.6709999992]},"properties":{"FID":139,"BLDNG_ID":"B0053603","BLDNG_TYPE":"School","ADDRESS":"406 Copper Bay Rd.","CITY_NAME":"SANDSPIT","LATITUDE":53.242039,"LONGITUDE":-131.80852,"FCODE":"BF12450130","OBJECTID":736}},{"type":"Feature","id":140,"geometry":{"type":"Point","coordinates":[1195057.7540000014,382483.00100000016]},"properties":{"FID":140,"BLDNG_ID":"B0055657","BLDNG_TYPE":"Office","ADDRESS":"31 Bastion Sq.","CITY_NAME":"VICTORIA","LATITUDE":48.425527,"LONGITUDE":-123.3694,"FCODE":"BF12450130","OBJECTID":737}},{"type":"Feature","id":141,"geometry":{"type":"Point","coordinates":[1213765.5150000006,475274.30399999954]},"properties":{"FID":141,"BLDNG_ID":"B0057232","BLDNG_TYPE":"Office","ADDRESS":"3455 Victoria Dr.","CITY_NAME":"VANCOUVER","LATITUDE":49.253934,"LONGITUDE":-123.06553,"FCODE":"BF12450130","OBJECTID":738}},{"type":"Feature","id":142,"geometry":{"type":"Point","coordinates":[1195303.7379999992,382165.2879999997]},"properties":{"FID":142,"BLDNG_ID":"B0054601","BLDNG_TYPE":"Office","ADDRESS":"808 Douglas St.","CITY_NAME":"VICTORIA","LATITUDE":48.422583,"LONGITUDE":-123.36625,"FCODE":"BF12450130","OBJECTID":739}},{"type":"Feature","id":143,"geometry":{"type":"Point","coordinates":[1195403.6459999997,382691.30199999735]},"properties":{"FID":143,"BLDNG_ID":"B0055756","BLDNG_TYPE":"Office","ADDRESS":"1405 Douglas St.","CITY_NAME":"VICTORIA","LATITUDE":48.427287,"LONGITUDE":-123.36464,"FCODE":"BF12450130","OBJECTID":740}},{"type":"Feature","id":144,"geometry":{"type":"Point","coordinates":[1223450.297000001,470946.73100000154]},"properties":{"FID":144,"BLDNG_ID":"B0061564","BLDNG_TYPE":"Ambulance","ADDRESS":"833 12th St.","CITY_NAME":"NEW WESTMINSTER","LATITUDE":49.211327,"LONGITUDE":-122.93532,"FCODE":"BF12450130","OBJECTID":741}},{"type":"Feature","id":145,"geometry":{"type":"Point","coordinates":[1209422.7569999988,478065.71899999864]},"properties":{"FID":145,"BLDNG_ID":"B0046581","BLDNG_TYPE":"Courthouse","ADDRESS":"800 Smithe St.","CITY_NAME":"VANCOUVER","LATITUDE":49.280639,"LONGITUDE":-123.12352,"FCODE":"BF12450130","OBJECTID":742}},{"type":"Feature","id":146,"geometry":{"type":"Point","coordinates":[1244270.9480000013,460086.8530000001]},"properties":{"FID":146,"BLDNG_ID":"B0060566","BLDNG_TYPE":"Courthouse","ADDRESS":"20389 Fraser Hwy.","CITY_NAME":"LANGLEY","LATITUDE":49.105194,"LONGITUDE":-122.65719,"FCODE":"BF12450130","OBJECTID":743}},{"type":"Feature","id":147,"geometry":{"type":"Point","coordinates":[1195582.9679999996,382804.9160000039]},"properties":{"FID":147,"BLDNG_ID":"B0063404","BLDNG_TYPE":"Office","ADDRESS":"1520 Blanshard St.","CITY_NAME":"VICTORIA","LATITUDE":48.42825,"LONGITUDE":-123.36216,"FCODE":"BF12450130","OBJECTID":744}},{"type":"Feature","id":148,"geometry":{"type":"Point","coordinates":[1387858.3979999996,937683.6130000008]},"properties":{"FID":148,"BLDNG_ID":"B0061754","BLDNG_TYPE":"Ambulance","ADDRESS":"594 Kings St.","CITY_NAME":"MCBRIDE","LATITUDE":53.301639,"LONGITUDE":-120.16082,"FCODE":"BF12450130","OBJECTID":745}},{"type":"Feature","id":149,"geometry":{"type":"Point","coordinates":[1073098.0480000002,518989.54500000086]},"properties":{"FID":149,"BLDNG_ID":"B0067122","BLDNG_TYPE":"Ambulance","ADDRESS":"1890 Cliffe Ave.","CITY_NAME":"COURTENAY","LATITUDE":49.682413,"LONGITUDE":-124.98745,"FCODE":"BF12450130","OBJECTID":746}},{"type":"Feature","id":150,"geometry":{"type":"Point","coordinates":[952701.0589999997,545636.2280000001]},"properties":{"FID":150,"BLDNG_ID":"B0092276","BLDNG_TYPE":"Site Service","ADDRESS":"105 School House Hill Rd.","CITY_NAME":"TAHSIS","LATITUDE":49.924766,"LONGITUDE":-126.65864,"FCODE":"BF12450130","OBJECTID":1}},{"type":"Feature","id":151,"geometry":{"type":"Point","coordinates":[1195210.0149999997,382175.9210000038]},"properties":{"FID":151,"BLDNG_ID":"B0092689","BLDNG_TYPE":"Office","ADDRESS":"634 Humboldt St","CITY_NAME":"VICTORIA","LATITUDE":48.422711,"LONGITUDE":-123.3675,"FCODE":"BF12450130","OBJECTID":2}},{"type":"Feature","id":152,"geometry":{"type":"Point","coordinates":[1268883.1740000006,455553.0759999994]},"properties":{"FID":152,"BLDNG_ID":"B0067760","BLDNG_TYPE":"Office","ADDRESS":"2865 Cruickshank St.","CITY_NAME":"ABBOTSFORD","LATITUDE":49.05345,"LONGITUDE":-122.32417,"FCODE":"BF12450130","OBJECTID":3}},{"type":"Feature","id":153,"geometry":{"type":"Point","coordinates":[1167412.4869999995,421420.7450000001]},"properties":{"FID":153,"BLDNG_ID":"B0067812","BLDNG_TYPE":"Trailer Office","ADDRESS":"3088 Gibbins Rd.","CITY_NAME":"DUNCAN","LATITUDE":48.784748,"LONGITUDE":-123.72509,"FCODE":"BF12450130","OBJECTID":4}},{"type":"Feature","id":154,"geometry":{"type":"Point","coordinates":[1212704.0010000004,995049.4499999983]},"properties":{"FID":154,"BLDNG_ID":"B0091376","BLDNG_TYPE":"Hospital","ADDRESS":"1584 7th Ave.","CITY_NAME":"PRINCE GEORGE","LATITUDE":53.915417,"LONGITUDE":-122.75302,"FCODE":"BF12450130","OBJECTID":5}},{"type":"Feature","id":155,"geometry":{"type":"Point","coordinates":[1243363.1940000001,467683.7410000013]},"properties":{"FID":155,"BLDNG_ID":"B0092699","BLDNG_TYPE":"Office","ADDRESS":"9440 202nd St.","CITY_NAME":"LANGLEY","LATITUDE":49.173888,"LONGITUDE":-122.6647,"FCODE":"BF12450130","OBJECTID":6}},{"type":"Feature","id":156,"geometry":{"type":"Point","coordinates":[1252725.2479999992,476296.84600000177]},"properties":{"FID":156,"BLDNG_ID":"B0092661","BLDNG_TYPE":"Jail","ADDRESS":"N. 248th St.","CITY_NAME":"MAPLE RIDGE","LATITUDE":49.247274,"LONGITUDE":-122.53081,"FCODE":"BF12450130","OBJECTID":7}},{"type":"Feature","id":157,"geometry":{"type":"Point","coordinates":[1397880.291999999,643643.8030000087]},"properties":{"FID":157,"BLDNG_ID":"B0078232","BLDNG_TYPE":"Storage Small","ADDRESS":"1265 Dalhousie Dr.","CITY_NAME":"KAMLOOPS","LATITUDE":50.665083,"LONGITUDE":-120.36235,"FCODE":"BF12450130","OBJECTID":8}},{"type":"Feature","id":158,"geometry":{"type":"Point","coordinates":[1308352.1489999997,1267756.9249999989]},"properties":{"FID":158,"BLDNG_ID":"B0078294","BLDNG_TYPE":"Weigh Station","ADDRESS":"9011 Hwy 97 North","CITY_NAME":"CHARLIE LAKE","LATITUDE":56.304853,"LONGITUDE":-121.00342,"FCODE":"BF12450130","OBJECTID":9}},{"type":"Feature","id":159,"geometry":{"type":"Point","coordinates":[1194821.0019999996,381454.7480000006]},"properties":{"FID":159,"BLDNG_ID":"B0092690","BLDNG_TYPE":"Office","ADDRESS":"239 Menzies St.","CITY_NAME":"VICTORIA","LATITUDE":48.416346,"LONGITUDE":-123.3731,"FCODE":"BF12450130","OBJECTID":10}},{"type":"Feature","id":160,"geometry":{"type":"Point","coordinates":[1190748.7789999994,384844.0419999985]},"properties":{"FID":160,"BLDNG_ID":"B0091976","BLDNG_TYPE":"Office","ADDRESS":"1505 Admirals Rd.","CITY_NAME":"VIEW ROYAL","LATITUDE":48.448217,"LONGITUDE":-123.4263,"FCODE":"BF12450130","OBJECTID":11}},{"type":"Feature","id":161,"geometry":{"type":"Point","coordinates":[1233130.95,476737.7960000001]},"properties":{"FID":161,"BLDNG_ID":"B0022343","BLDNG_TYPE":"Dormitory","ADDRESS":"2601 Lougheed Hwy.","CITY_NAME":"COQUITLAM","LATITUDE":49.259543,"LONGITUDE":-122.79913,"FCODE":"BF12450130","OBJECTID":12}},{"type":"Feature","id":162,"geometry":{"type":"Point","coordinates":[1205750.333000001,524885.6249999981]},"properties":{"FID":162,"BLDNG_ID":"B0091657","BLDNG_TYPE":"Office","ADDRESS":"1140 Hunter Place Rd.","CITY_NAME":"SQUAMISH","LATITUDE":49.702864,"LONGITUDE":-123.14802,"FCODE":"BF12450130","OBJECTID":13}},{"type":"Feature","id":163,"geometry":{"type":"Point","coordinates":[1186438.9300000002,789377.2180000003]},"properties":{"FID":163,"BLDNG_ID":"B0092506","BLDNG_TYPE":"Mobile Home","ADDRESS":"2638 Forest Lane, Lot D","CITY_NAME":"ALEXIS CREEK","LATITUDE":52.083251,"LONGITUDE":-123.27434,"FCODE":"BF12450130","OBJECTID":14}},{"type":"Feature","id":164,"geometry":{"type":"Point","coordinates":[1474607.4670000006,654419.5050000036]},"properties":{"FID":164,"BLDNG_ID":"B0092259","BLDNG_TYPE":"Storage Small","ADDRESS":"850 16th St. N.E.","CITY_NAME":"SALMON ARM","LATITUDE":50.701366,"LONGITUDE":-119.26672,"FCODE":"BF12450130","OBJECTID":15}},{"type":"Feature","id":165,"geometry":{"type":"Point","coordinates":[1582958.7070000006,614580.1520000007]},"properties":{"FID":165,"BLDNG_ID":"B1002357","BLDNG_TYPE":"Ambulance","ADDRESS":"300 - 8th Ave.","CITY_NAME":"NAKUSP","LATITUDE":50.24293,"LONGITUDE":-117.80718,"FCODE":"BF12450130","OBJECTID":16}},{"type":"Feature","id":166,"geometry":{"type":"Point","coordinates":[1397884.4770000004,643628.3159999996]},"properties":{"FID":166,"BLDNG_ID":"B0078231","BLDNG_TYPE":"Storage Small","ADDRESS":"1265 Dalhousie Dr.","CITY_NAME":"KAMLOOPS","LATITUDE":50.664942,"LONGITUDE":-120.36231,"FCODE":"BF12450130","OBJECTID":17}},{"type":"Feature","id":167,"geometry":{"type":"Point","coordinates":[1088309.3920000005,472635.0049999999]},"properties":{"FID":167,"BLDNG_ID":"B0091669","BLDNG_TYPE":"Office","ADDRESS":"4885 Cherry Creek Rd.","CITY_NAME":"PORT ALBERNI","LATITUDE":49.263256,"LONGITUDE":-124.78777,"FCODE":"BF12450130","OBJECTID":18}},{"type":"Feature","id":168,"geometry":{"type":"Point","coordinates":[1478833.2970000005,605809.2829999998]},"properties":{"FID":168,"BLDNG_ID":"B0092085","BLDNG_TYPE":"Office","ADDRESS":"3101 29 Avenue","CITY_NAME":"VERNON","LATITUDE":50.262977,"LONGITUDE":-119.27247,"FCODE":"BF12450130","OBJECTID":19}},{"type":"Feature","id":169,"geometry":{"type":"Point","coordinates":[1230225.7489999998,469865.65299999993]},"properties":{"FID":169,"BLDNG_ID":"B0092555","BLDNG_TYPE":"Office","ADDRESS":"13639 108 Ave.","CITY_NAME":"SURREY","LATITUDE":49.198927,"LONGITUDE":-122.84317,"FCODE":"BF12450130","OBJECTID":20}},{"type":"Feature","id":170,"geometry":{"type":"Point","coordinates":[1087133.1160000006,471577.19099999964]},"properties":{"FID":170,"BLDNG_ID":"B0078213","BLDNG_TYPE":"Ambulance","ADDRESS":"4760 Roger St.","CITY_NAME":"PORT ALBERNI","LATITUDE":49.253917,"LONGITUDE":-124.80416,"FCODE":"BF12450130","OBJECTID":21}},{"type":"Feature","id":171,"geometry":{"type":"Point","coordinates":[1197633.4319999996,385980.90800000075]},"properties":{"FID":171,"BLDNG_ID":"B0067611","BLDNG_TYPE":"Office","ADDRESS":"3200 Shelbourne St.","CITY_NAME":"SAANICH","LATITUDE":48.456159,"LONGITUDE":-123.33292,"FCODE":"BF12450130","OBJECTID":22}},{"type":"Feature","id":172,"geometry":{"type":"Point","coordinates":[1315015.2109999994,589507.765000008]},"properties":{"FID":172,"BLDNG_ID":"B0091536","BLDNG_TYPE":"Residential Detached","ADDRESS":"625 Main St.","CITY_NAME":"LYTTON","LATITUDE":50.232711,"LONGITUDE":-121.58082,"FCODE":"BF12450130","OBJECTID":23}},{"type":"Feature","id":173,"geometry":{"type":"Point","coordinates":[1150213.297,463482.23900000006]},"properties":{"FID":173,"BLDNG_ID":"B0092714","BLDNG_TYPE":"Office","ADDRESS":"125 Wallace St","CITY_NAME":"NANAIMO","LATITUDE":49.168028,"LONGITUDE":-123.94205,"FCODE":"BF12450130","OBJECTID":24}},{"type":"Feature","id":174,"geometry":{"type":"Point","coordinates":[1236496.0469999996,475894.60500000045]},"properties":{"FID":174,"BLDNG_ID":"B1002331","BLDNG_TYPE":"Jail","ADDRESS":"1451 Kingsway","CITY_NAME":"PORT COQUITLAM","LATITUDE":49.250583,"LONGITUDE":-122.75352,"FCODE":"BF12450130","OBJECTID":25}},{"type":"Feature","id":175,"geometry":{"type":"Point","coordinates":[1195311.266,381937.12399999984]},"properties":{"FID":175,"BLDNG_ID":"B1002481","BLDNG_TYPE":"Commercial","ADDRESS":"709 Douglas Street","CITY_NAME":"VICTORIA","LATITUDE":48.420526,"LONGITUDE":-123.36626,"FCODE":"BF12450130","OBJECTID":26}},{"type":"Feature","id":176,"geometry":{"type":"Point","coordinates":[1194684.6230000001,382063.9609999992]},"properties":{"FID":176,"BLDNG_ID":"B1002461","BLDNG_TYPE":"Hospitality","ADDRESS":"254 Belleville St.","CITY_NAME":"VICTORIA","LATITUDE":48.421878,"LONGITUDE":-123.37464,"FCODE":"BF12450130","OBJECTID":27}},{"type":"Feature","id":177,"geometry":{"type":"Point","coordinates":[1269567.1630000002,455494.3479999937]},"properties":{"FID":177,"BLDNG_ID":"B0092630","BLDNG_TYPE":"Office","ADDRESS":"2777 Gladwin Road","CITY_NAME":"ABBOTSFORD","LATITUDE":49.052602,"LONGITUDE":-122.31488,"FCODE":"BF12450130","OBJECTID":28}},{"type":"Feature","id":178,"geometry":{"type":"Point","coordinates":[1215564.7119999994,476139.37600000855]},"properties":{"FID":178,"BLDNG_ID":"B1002487","BLDNG_TYPE":"Office","ADDRESS":"49.261039","CITY_NAME":"VANCOUVER","LATITUDE":49.261039,"LONGITUDE":-123.04036,"FCODE":"BF12450130","OBJECTID":29}},{"type":"Feature","id":179,"geometry":{"type":"Point","coordinates":[1072321.5219999996,519856.3570000017]},"properties":{"FID":179,"BLDNG_ID":"B1002488","BLDNG_TYPE":"Ambulance","ADDRESS":"580 Duncan Rd","CITY_NAME":"COURTENAY","LATITUDE":49.690308,"LONGITUDE":-124.99803,"FCODE":"BF12450130","OBJECTID":30}},{"type":"Feature","id":180,"geometry":{"type":"Point","coordinates":[1189074.8159999987,1540024.747000006]},"properties":{"FID":180,"BLDNG_ID":"B0092408","BLDNG_TYPE":"Warehouse","ADDRESS":"6000 Alaska Highway","CITY_NAME":"FORT NELSON","LATITUDE":58.805397,"LONGITUDE":-122.72911,"FCODE":"BF12450130","OBJECTID":31}},{"type":"Feature","id":181,"geometry":{"type":"Point","coordinates":[1142273.1579999991,467752.8699999992]},"properties":{"FID":181,"BLDNG_ID":"B0013763","BLDNG_TYPE":"Dormitory","ADDRESS":"3945 Biggs Rd.","CITY_NAME":"NANAIMO","LATITUDE":49.208475,"LONGITUDE":-124.04916,"FCODE":"BF12450130","OBJECTID":32}},{"type":"Feature","id":182,"geometry":{"type":"Point","coordinates":[1195197.7310000006,381744.9470000034]},"properties":{"FID":182,"BLDNG_ID":"B0010231","BLDNG_TYPE":"Site Service","ADDRESS":"617 Government St.","CITY_NAME":"VICTORIA","LATITUDE":48.418833,"LONGITUDE":-123.36788,"FCODE":"BF12450130","OBJECTID":33}},{"type":"Feature","id":183,"geometry":{"type":"Point","coordinates":[1195080.3680000007,381574.0260000024]},"properties":{"FID":183,"BLDNG_ID":"B0010686","BLDNG_TYPE":"Storage Small","ADDRESS":"584 Michigan St.","CITY_NAME":"VICTORIA","LATITUDE":48.417333,"LONGITUDE":-123.36955,"FCODE":"BF12450130","OBJECTID":34}},{"type":"Feature","id":184,"geometry":{"type":"Point","coordinates":[1309768.6720000003,460323.03900000174]},"properties":{"FID":184,"BLDNG_ID":"B0024190","BLDNG_TYPE":"Dormitory","ADDRESS":"53033 Chilliwack Lake Rd.","CITY_NAME":"CHILLIWACK","LATITUDE":49.075764,"LONGITUDE":-121.76259,"FCODE":"BF12450130","OBJECTID":35}},{"type":"Feature","id":185,"geometry":{"type":"Point","coordinates":[1168489.2919999987,420653.426]},"properties":{"FID":185,"BLDNG_ID":"B0014639","BLDNG_TYPE":"Office","ADDRESS":"238 Government St.","CITY_NAME":"DUNCAN","LATITUDE":48.777528,"LONGITUDE":-123.7108,"FCODE":"BF12450130","OBJECTID":36}},{"type":"Feature","id":186,"geometry":{"type":"Point","coordinates":[1232687.0749999988,475390.51800000016]},"properties":{"FID":186,"BLDNG_ID":"B0021659","BLDNG_TYPE":"Hospital","ADDRESS":"2601 Lougheed Hwy.","CITY_NAME":"COQUITLAM","LATITUDE":49.24761,"LONGITUDE":-122.80605,"FCODE":"BF12450130","OBJECTID":37}},{"type":"Feature","id":187,"geometry":{"type":"Point","coordinates":[1463707.0939999998,519311.92800000124]},"properties":{"FID":187,"BLDNG_ID":"B0027136","BLDNG_TYPE":"Courthouse","ADDRESS":"152 Main St.","CITY_NAME":"PENTICTON","LATITUDE":49.501139,"LONGITUDE":-119.59347,"FCODE":"BF12450130","OBJECTID":38}},{"type":"Feature","id":188,"geometry":{"type":"Point","coordinates":[1232690.6879999985,475587.75699999835]},"properties":{"FID":188,"BLDNG_ID":"B0021667","BLDNG_TYPE":"Ambulance","ADDRESS":"2601 Lougheed Hwy.","CITY_NAME":"COQUITLAM","LATITUDE":49.249382,"LONGITUDE":-122.80588,"FCODE":"BF12450130","OBJECTID":39}},{"type":"Feature","id":189,"geometry":{"type":"Point","coordinates":[1309946.962,460684.55600000266]},"properties":{"FID":189,"BLDNG_ID":"B0024133","BLDNG_TYPE":"Industrial Maintenance","ADDRESS":"53033 Chilliwack Lake Rd.","CITY_NAME":"CHILLIWACK","LATITUDE":49.078917,"LONGITUDE":-121.75986,"FCODE":"BF12450130","OBJECTID":40}},{"type":"Feature","id":190,"geometry":{"type":"Point","coordinates":[1194910.9519999993,381527.6329999985]},"properties":{"FID":190,"BLDNG_ID":"B0010512","BLDNG_TYPE":"Office","ADDRESS":"526 Michigan St.","CITY_NAME":"VICTORIA","LATITUDE":48.416972,"LONGITUDE":-123.37186,"FCODE":"BF12450130","OBJECTID":41}},{"type":"Feature","id":191,"geometry":{"type":"Point","coordinates":[1232799.785,475944.756000001]},"properties":{"FID":191,"BLDNG_ID":"B0021972","BLDNG_TYPE":"Dormitory","ADDRESS":"2601 Lougheed Hwy.","CITY_NAME":"COQUITLAM","LATITUDE":49.252547,"LONGITUDE":-122.80416,"FCODE":"BF12450130","OBJECTID":42}},{"type":"Feature","id":192,"geometry":{"type":"Point","coordinates":[1469848.4730000002,484139.1969999969]},"properties":{"FID":192,"BLDNG_ID":"B0027003","BLDNG_TYPE":"Office","ADDRESS":"583 Fairview Rd.","CITY_NAME":"OLIVER","LATITUDE":49.180917,"LONGITUDE":-119.55322,"FCODE":"BF12450130","OBJECTID":43}},{"type":"Feature","id":193,"geometry":{"type":"Point","coordinates":[1252634.1509999998,476262.7729999991]},"properties":{"FID":193,"BLDNG_ID":"B0023234","BLDNG_TYPE":"Site Service","ADDRESS":"N. 248th St.","CITY_NAME":"MAPLE RIDGE","LATITUDE":49.247008,"LONGITUDE":-122.53208,"FCODE":"BF12450130","OBJECTID":44}},{"type":"Feature","id":194,"geometry":{"type":"Point","coordinates":[1400160.050000001,644516.6430000002]},"properties":{"FID":194,"BLDNG_ID":"B0029769","BLDNG_TYPE":"Office","ADDRESS":"515 Columbia St.","CITY_NAME":"KAMLOOPS","LATITUDE":50.671265,"LONGITUDE":-120.3292,"FCODE":"BF12450130","OBJECTID":45}},{"type":"Feature","id":195,"geometry":{"type":"Point","coordinates":[1501023.544,606438.9890000029]},"properties":{"FID":195,"BLDNG_ID":"B0026914","BLDNG_TYPE":"Health Unit","ADDRESS":"2135 Norris Ave.","CITY_NAME":"LUMBY","LATITUDE":50.24925,"LONGITUDE":-118.96183,"FCODE":"BF12450130","OBJECTID":46}},{"type":"Feature","id":196,"geometry":{"type":"Point","coordinates":[1232564.9230000007,475426.29000000004]},"properties":{"FID":196,"BLDNG_ID":"B0022087","BLDNG_TYPE":"Hospital","ADDRESS":"2601 Lougheed Hwy.","CITY_NAME":"COQUITLAM","LATITUDE":49.247981,"LONGITUDE":-122.8077,"FCODE":"BF12450130","OBJECTID":47}},{"type":"Feature","id":197,"geometry":{"type":"Point","coordinates":[1209640.7420000006,478330.98000000045]},"properties":{"FID":197,"BLDNG_ID":"B0016766","BLDNG_TYPE":"Museum","ADDRESS":"800 W. Georgia St.","CITY_NAME":"VANCOUVER","LATITUDE":49.282944,"LONGITUDE":-123.12038,"FCODE":"BF12450130","OBJECTID":48}},{"type":"Feature","id":198,"geometry":{"type":"Point","coordinates":[1232556.9629999995,475342.58100000117]},"properties":{"FID":198,"BLDNG_ID":"B0022079","BLDNG_TYPE":"Industrial Maintenance","ADDRESS":"2601 Lougheed Hwy.","CITY_NAME":"COQUITLAM","LATITUDE":49.247232,"LONGITUDE":-122.80786,"FCODE":"BF12450130","OBJECTID":49}},{"type":"Feature","id":199,"geometry":{"type":"Point","coordinates":[1232782.9889999996,475523.96199999284]},"properties":{"FID":199,"BLDNG_ID":"B0022210","BLDNG_TYPE":"Site Service","ADDRESS":"2601 Lougheed Hwy.","CITY_NAME":"COQUITLAM","LATITUDE":49.248771,"LONGITUDE":-122.80465,"FCODE":"BF12450130","OBJECTID":50}},{"type":"Feature","id":200,"geometry":{"type":"Point","coordinates":[1195022.597,381630.481999998]},"properties":{"FID":200,"BLDNG_ID":"B0010611","BLDNG_TYPE":"Office","ADDRESS":"545 Superior St.","CITY_NAME":"VICTORIA","LATITUDE":48.417861,"LONGITUDE":-123.3703,"FCODE":"BF12450130","OBJECTID":51}},{"type":"Feature","id":201,"geometry":{"type":"Point","coordinates":[1194934.0610000002,381738.2309999997]},"properties":{"FID":201,"BLDNG_ID":"B0010033","BLDNG_TYPE":"Office","ADDRESS":"431 Menzies St.","CITY_NAME":"VICTORIA","LATITUDE":48.418861,"LONGITUDE":-123.37144,"FCODE":"BF12450130","OBJECTID":52}},{"type":"Feature","id":202,"geometry":{"type":"Point","coordinates":[1630452.0659999992,537755.2289999984]},"properties":{"FID":202,"BLDNG_ID":"B0032979","BLDNG_TYPE":"Ambulance","ADDRESS":"820 Nelson Ave.","CITY_NAME":"NELSON","LATITUDE":49.506139,"LONGITUDE":-117.27863,"FCODE":"BF12450130","OBJECTID":53}},{"type":"Feature","id":203,"geometry":{"type":"Point","coordinates":[1209549.641,478231.510999999]},"properties":{"FID":203,"BLDNG_ID":"B0043398","BLDNG_TYPE":"School","ADDRESS":"800 Hornby St.","CITY_NAME":"VANCOUVER","LATITUDE":49.282083,"LONGITUDE":-123.12169,"FCODE":"BF12450130","OBJECTID":54}},{"type":"Feature","id":204,"geometry":{"type":"Point","coordinates":[1318938.627000001,464138.5610000016]},"properties":{"FID":204,"BLDNG_ID":"B0024026","BLDNG_TYPE":"Storage Small","ADDRESS":"57657 Chilliwack Lake Rd.","CITY_NAME":"CHILLIWACK","LATITUDE":49.105036,"LONGITUDE":-121.63425,"FCODE":"BF12450130","OBJECTID":55}},{"type":"Feature","id":205,"geometry":{"type":"Point","coordinates":[1197085.7030000002,381929.4289999986]},"properties":{"FID":205,"BLDNG_ID":"B0049817","BLDNG_TYPE":"Storage Small","ADDRESS":"1401 Rockland Ave.","CITY_NAME":"VICTORIA","LATITUDE":48.419859,"LONGITUDE":-123.34236,"FCODE":"BF12450130","OBJECTID":56}},{"type":"Feature","id":206,"geometry":{"type":"Point","coordinates":[1159039.7460000003,890392.8089999938]},"properties":{"FID":206,"BLDNG_ID":"B0043992","BLDNG_TYPE":"Storage Small","ADDRESS":"9594 Nazko Road\nNazko Black Water","CITY_NAME":"NAZKO","LATITUDE":52.997303,"LONGITUDE":-123.62506,"FCODE":"BF12450130","OBJECTID":57}},{"type":"Feature","id":207,"geometry":{"type":"Point","coordinates":[1296100.1349999998,908564.2460000003]},"properties":{"FID":207,"BLDNG_ID":"B0031187","BLDNG_TYPE":"Storage Small","ADDRESS":"Gardner St.","CITY_NAME":"WELLS","LATITUDE":53.100944,"LONGITUDE":-121.56547,"FCODE":"BF12450130","OBJECTID":58}},{"type":"Feature","id":208,"geometry":{"type":"Point","coordinates":[1775932.4230000009,543574.6280000033]},"properties":{"FID":208,"BLDNG_ID":"B0034538","BLDNG_TYPE":"Storage Vehicle","ADDRESS":"2260 Jaffray Shop Rd.","CITY_NAME":"JAFFRAY","LATITUDE":49.378836,"LONGITUDE":-115.28181,"FCODE":"BF12450130","OBJECTID":59}},{"type":"Feature","id":209,"geometry":{"type":"Point","coordinates":[1319180.8100000003,980327.8000000026]},"properties":{"FID":209,"BLDNG_ID":"B0047019","BLDNG_TYPE":"Storage Vehicle","ADDRESS":"Hwy. 16","CITY_NAME":"SLIM CREEK","LATITUDE":53.729156,"LONGITUDE":-121.14727,"FCODE":"BF12450130","OBJECTID":60}},{"type":"Feature","id":210,"geometry":{"type":"Point","coordinates":[1528126.7249999987,470526.5649999995]},"properties":{"FID":210,"BLDNG_ID":"B0059782","BLDNG_TYPE":"Ambulance","ADDRESS":"661 8th Ave.","CITY_NAME":"MIDWAY","LATITUDE":49.008369,"LONGITUDE":-118.77782,"FCODE":"BF12450130","OBJECTID":61}},{"type":"Feature","id":211,"geometry":{"type":"Point","coordinates":[1387366.4600000014,937636.5759999985]},"properties":{"FID":211,"BLDNG_ID":"B0061945","BLDNG_TYPE":"Office","ADDRESS":"Robson Ctr","CITY_NAME":"MCBRIDE","LATITUDE":53.301582,"LONGITUDE":-120.16825,"FCODE":"BF12450130","OBJECTID":62}},{"type":"Feature","id":212,"geometry":{"type":"Point","coordinates":[1075130.2039999997,1006812.949]},"properties":{"FID":212,"BLDNG_ID":"B0061176","BLDNG_TYPE":"Ambulance","ADDRESS":"130 Chowsunket Rd. S.","CITY_NAME":"FRASER LAKE","LATITUDE":54.059062,"LONGITUDE":-124.84949,"FCODE":"BF12450130","OBJECTID":63}},{"type":"Feature","id":213,"geometry":{"type":"Point","coordinates":[1197085.7030000002,381929.4289999986]},"properties":{"FID":213,"BLDNG_ID":"B0049833","BLDNG_TYPE":"Laundry","ADDRESS":"1401 Rockland Ave.","CITY_NAME":"VICTORIA","LATITUDE":48.419859,"LONGITUDE":-123.34236,"FCODE":"BF12450130","OBJECTID":64}},{"type":"Feature","id":214,"geometry":{"type":"Point","coordinates":[1401333.2860000008,644795.4309999989]},"properties":{"FID":214,"BLDNG_ID":"B0052522","BLDNG_TYPE":"Office","ADDRESS":"1165 Battle St.","CITY_NAME":"KAMLOOPS","LATITUDE":50.672917,"LONGITUDE":-120.31233,"FCODE":"BF12450130","OBJECTID":65}},{"type":"Feature","id":215,"geometry":{"type":"Point","coordinates":[1210587.4789999996,476363.9389999984]},"properties":{"FID":215,"BLDNG_ID":"B0061556","BLDNG_TYPE":"Ambulance","ADDRESS":"181 W. 7th Ave.","CITY_NAME":"VANCOUVER","LATITUDE":49.264909,"LONGITUDE":-123.1085,"FCODE":"BF12450130","OBJECTID":66}},{"type":"Feature","id":216,"geometry":{"type":"Point","coordinates":[1464367.857999999,517662.4470000006]},"properties":{"FID":216,"BLDNG_ID":"B0061788","BLDNG_TYPE":"Office","ADDRESS":"40 Calgary Ave.","CITY_NAME":"PENTICTON","LATITUDE":49.485822,"LONGITUDE":-119.58645,"FCODE":"BF12450130","OBJECTID":67}},{"type":"Feature","id":217,"geometry":{"type":"Point","coordinates":[1150256.135999999,463409.4879999999]},"properties":{"FID":217,"BLDNG_ID":"B0051888","BLDNG_TYPE":"Office","ADDRESS":"190 Wallace St.","CITY_NAME":"NANAIMO","LATITUDE":49.167362,"LONGITUDE":-123.94149,"FCODE":"BF12450130","OBJECTID":68}},{"type":"Feature","id":218,"geometry":{"type":"Point","coordinates":[1319186.3019999992,980269.1400000006]},"properties":{"FID":218,"BLDNG_ID":"B0080143","BLDNG_TYPE":"Mobile Home","ADDRESS":"Hwy. 16","CITY_NAME":"SLIM CREEK","LATITUDE":53.728628,"LONGITUDE":-121.14725,"FCODE":"BF12450130","OBJECTID":69}},{"type":"Feature","id":219,"geometry":{"type":"Point","coordinates":[1212847.6870000018,476192.6889999956]},"properties":{"FID":219,"BLDNG_ID":"B0064469","BLDNG_TYPE":"Office","ADDRESS":"471 E. Broadway","CITY_NAME":"VANCOUVER","LATITUDE":49.262534,"LONGITUDE":-123.0776,"FCODE":"BF12450130","OBJECTID":70}},{"type":"Feature","id":220,"geometry":{"type":"Point","coordinates":[1053934.7139999997,557197.5750000011]},"properties":{"FID":220,"BLDNG_ID":"B0048801","BLDNG_TYPE":"Courthouse","ADDRESS":"500 13th Ave.","CITY_NAME":"CAMPBELL RIVER","LATITUDE":50.028111,"LONGITUDE":-125.24725,"FCODE":"BF12450130","OBJECTID":71}},{"type":"Feature","id":221,"geometry":{"type":"Point","coordinates":[1220517.3900000004,474561.43099999987]},"properties":{"FID":221,"BLDNG_ID":"B0062760","BLDNG_TYPE":"Office","ADDRESS":"4940 Canada Way","CITY_NAME":"BURNABY","LATITUDE":49.244966,"LONGITUDE":-122.97337,"FCODE":"BF12450130","OBJECTID":72}},{"type":"Feature","id":222,"geometry":{"type":"Point","coordinates":[1142215.7339999997,467691.6899999995]},"properties":{"FID":222,"BLDNG_ID":"B1002379","BLDNG_TYPE":"Trailer Office","ADDRESS":"3945 Biggs Rd","CITY_NAME":"NANAIMO","LATITUDE":49.207939,"LONGITUDE":-124.04997,"FCODE":"BF12450130","OBJECTID":73}},{"type":"Feature","id":223,"geometry":{"type":"Point","coordinates":[1053335.7939999995,557022.5899999989]},"properties":{"FID":223,"BLDNG_ID":"B0058453","BLDNG_TYPE":"Office","ADDRESS":"1180 Ironwood St.","CITY_NAME":"CAMPBELL RIVER","LATITUDE":50.026595,"LONGITUDE":-125.25563,"FCODE":"BF12450130","OBJECTID":74}},{"type":"Feature","id":224,"geometry":{"type":"Point","coordinates":[1318538.5099999998,1261966.0919999992]},"properties":{"FID":224,"BLDNG_ID":"B0061911","BLDNG_TYPE":"Office","ADDRESS":"9900 100th Ave.","CITY_NAME":"FORT ST. JOHN","LATITUDE":56.246556,"LONGITUDE":-120.84576,"FCODE":"BF12450130","OBJECTID":75}},{"type":"Feature","id":225,"geometry":{"type":"Point","coordinates":[1213414.759,482602.16200000234]},"properties":{"FID":225,"BLDNG_ID":"B0063347","BLDNG_TYPE":"Ambulance","ADDRESS":"1304 St. Andrews","CITY_NAME":"NORTH VANCOUVER","LATITUDE":49.319956,"LONGITUDE":-123.06617,"FCODE":"BF12450130","OBJECTID":76}},{"type":"Feature","id":226,"geometry":{"type":"Point","coordinates":[924749.2679999993,1087025.8029999966]},"properties":{"FID":226,"BLDNG_ID":"B0062133","BLDNG_TYPE":"Office","ADDRESS":"3726 Alfred Ave.","CITY_NAME":"SMITHERS","LATITUDE":54.777583,"LONGITUDE":-127.17269,"FCODE":"BF12450130","OBJECTID":77}},{"type":"Feature","id":227,"geometry":{"type":"Point","coordinates":[1360003.174000001,1210650.9849999975]},"properties":{"FID":227,"BLDNG_ID":"B0061200","BLDNG_TYPE":"Office","ADDRESS":"1508 102nd Ave.","CITY_NAME":"DAWSON CREEK","LATITUDE":55.759531,"LONGITUDE":-120.24499,"FCODE":"BF12450130","OBJECTID":78}},{"type":"Feature","id":228,"geometry":{"type":"Point","coordinates":[1217922.737999999,475677.9450000003]},"properties":{"FID":228,"BLDNG_ID":"B0067103","BLDNG_TYPE":"Office","ADDRESS":"3133 Sumner Avenue","CITY_NAME":"BURNABY","LATITUDE":49.255998,"LONGITUDE":-123.0083,"FCODE":"BF12450130","OBJECTID":79}},{"type":"Feature","id":229,"geometry":{"type":"Point","coordinates":[923430.4049999987,618922.943]},"properties":{"FID":229,"BLDNG_ID":"B0063990","BLDNG_TYPE":"Office","ADDRESS":"2217 Mine Road Pl.","CITY_NAME":"PORT MCNEILL","LATITUDE":50.58015,"LONGITUDE":-127.08178,"FCODE":"BF12450130","OBJECTID":80}},{"type":"Feature","id":230,"geometry":{"type":"Point","coordinates":[925491.8510000001,1085843.8330000034]},"properties":{"FID":230,"BLDNG_ID":"B0066308","BLDNG_TYPE":"Warehouse","ADDRESS":"2984 Railway Ave.","CITY_NAME":"SMITHERS","LATITUDE":54.767106,"LONGITUDE":-127.16082,"FCODE":"BF12450130","OBJECTID":81}},{"type":"Feature","id":231,"geometry":{"type":"Point","coordinates":[1211844.3870000006,999023.4929999998]},"properties":{"FID":231,"BLDNG_ID":"B0067019","BLDNG_TYPE":"Ambulance","ADDRESS":"2343 Hart Hwy.","CITY_NAME":"PRINCE GEORGE","LATITUDE":53.95134,"LONGITUDE":-122.76336,"FCODE":"BF12450130","OBJECTID":82}},{"type":"Feature","id":232,"geometry":{"type":"Point","coordinates":[1273898.5510000016,1197723.9120000005]},"properties":{"FID":232,"BLDNG_ID":"B0066290","BLDNG_TYPE":"Courthouse","ADDRESS":"5021 49th Ave.","CITY_NAME":"CHETWYND","LATITUDE":55.699126,"LONGITUDE":-121.63014,"FCODE":"BF12450130","OBJECTID":83}},{"type":"Feature","id":233,"geometry":{"type":"Point","coordinates":[1208601.3279999993,479166.934000005]},"properties":{"FID":233,"BLDNG_ID":"B0064899","BLDNG_TYPE":"Office","ADDRESS":"1725 Robson St.","CITY_NAME":"VANCOUVER","LATITUDE":49.290841,"LONGITUDE":-123.13418,"FCODE":"BF12450130","OBJECTID":84}},{"type":"Feature","id":234,"geometry":{"type":"Point","coordinates":[1226937.3530000004,473221.2310000006]},"properties":{"FID":234,"BLDNG_ID":"B0066142","BLDNG_TYPE":"Ambulance","ADDRESS":"444 Rousseau St.","CITY_NAME":"NEW WESTMINSTER","LATITUDE":49.23041,"LONGITUDE":-122.88618,"FCODE":"BF12450130","OBJECTID":85}},{"type":"Feature","id":235,"geometry":{"type":"Point","coordinates":[1212060.242,997655.649000003]},"properties":{"FID":235,"BLDNG_ID":"B0078075","BLDNG_TYPE":"Weigh Station","ADDRESS":"Hart Hwy. 97 N.","CITY_NAME":"PRINCE GEORGE","LATITUDE":53.939008,"LONGITUDE":-122.76102,"FCODE":"BF12450130","OBJECTID":86}},{"type":"Feature","id":236,"geometry":{"type":"Point","coordinates":[1209383.3900000006,477981.2819999987]},"properties":{"FID":236,"BLDNG_ID":"B0090404","BLDNG_TYPE":"Office","ADDRESS":"808 Nelson St.","CITY_NAME":"VANCOUVER","LATITUDE":49.279894,"LONGITUDE":-123.12411,"FCODE":"BF12450130","OBJECTID":87}},{"type":"Feature","id":237,"geometry":{"type":"Point","coordinates":[1146325.493,467006.8880000012]},"properties":{"FID":237,"BLDNG_ID":"B0090095","BLDNG_TYPE":"Office","ADDRESS":"2080 Labieux Rd.","CITY_NAME":"NANAIMO","LATITUDE":49.200744,"LONGITUDE":-123.99392,"FCODE":"BF12450130","OBJECTID":88}},{"type":"Feature","id":238,"geometry":{"type":"Point","coordinates":[1015405.8529999999,1025491.7870000014]},"properties":{"FID":238,"BLDNG_ID":"B0071985","BLDNG_TYPE":"Courthouse","ADDRESS":"508 Hwy. 16 W.","CITY_NAME":"BURNS LAKE","LATITUDE":54.231656,"LONGITUDE":-125.7631,"FCODE":"BF12450130","OBJECTID":89}},{"type":"Feature","id":239,"geometry":{"type":"Point","coordinates":[1481351.6260000006,625756.0630000001]},"properties":{"FID":239,"BLDNG_ID":"B0067547","BLDNG_TYPE":"Health Unit","ADDRESS":"3800 Patten Dr.","CITY_NAME":"ARMSTRONG","LATITUDE":50.439252,"LONGITUDE":-119.21051,"FCODE":"BF12450130","OBJECTID":90}},{"type":"Feature","id":240,"geometry":{"type":"Point","coordinates":[1209501.6659999997,478103.6370000029]},"properties":{"FID":240,"BLDNG_ID":"B0067080","BLDNG_TYPE":"Office","ADDRESS":"900 Howe St.","CITY_NAME":"VANCOUVER","LATITUDE":49.280951,"LONGITUDE":-123.12242,"FCODE":"BF12450130","OBJECTID":91}},{"type":"Feature","id":241,"geometry":{"type":"Point","coordinates":[1248001.283999999,473072.5510000028]},"properties":{"FID":241,"BLDNG_ID":"B0067083","BLDNG_TYPE":"Office","ADDRESS":"11996 Edge St","CITY_NAME":"MAPLE RIDGE","LATITUDE":49.220351,"LONGITUDE":-122.59768,"FCODE":"BF12450130","OBJECTID":92}},{"type":"Feature","id":242,"geometry":{"type":"Point","coordinates":[1217233.1549999986,572074.8480000012]},"properties":{"FID":242,"BLDNG_ID":"B0067329","BLDNG_TYPE":"Ambulance","ADDRESS":"7192 Lorimer Rd.","CITY_NAME":"WHISTLER","LATITUDE":50.122506,"LONGITUDE":-122.96097,"FCODE":"BF12450130","OBJECTID":93}},{"type":"Feature","id":243,"geometry":{"type":"Point","coordinates":[1634910.751000001,503225.466]},"properties":{"FID":243,"BLDNG_ID":"B0067342","BLDNG_TYPE":"Ambulance","ADDRESS":"444 Baker Ave.","CITY_NAME":"SALMO","LATITUDE":49.192838,"LONGITUDE":-117.27614,"FCODE":"BF12450130","OBJECTID":94}},{"type":"Feature","id":244,"geometry":{"type":"Point","coordinates":[1247973.7699999989,472706.49500000104]},"properties":{"FID":244,"BLDNG_ID":"B0067471","BLDNG_TYPE":"Office","ADDRESS":"22522 Lougheed Hwy.","CITY_NAME":"MAPLE RIDGE","LATITUDE":49.217072,"LONGITUDE":-122.5983,"FCODE":"BF12450130","OBJECTID":95}},{"type":"Feature","id":245,"geometry":{"type":"Point","coordinates":[1195533.1429999985,386935.6750000017]},"properties":{"FID":245,"BLDNG_ID":"B0067660","BLDNG_TYPE":"Office","ADDRESS":"3939 Quadra St.","CITY_NAME":"SAANICH","LATITUDE":48.465466,"LONGITUDE":-123.36076,"FCODE":"BF12450130","OBJECTID":96}},{"type":"Feature","id":246,"geometry":{"type":"Point","coordinates":[1215205.6579999994,484451.13999999966]},"properties":{"FID":246,"BLDNG_ID":"B0067717","BLDNG_TYPE":"Office","ADDRESS":"1200 Lynn Valley Rd.","CITY_NAME":"NORTH VANCOUVER","LATITUDE":49.33591,"LONGITUDE":-123.04052,"FCODE":"BF12450130","OBJECTID":97}},{"type":"Feature","id":247,"geometry":{"type":"Point","coordinates":[1179472.6420000019,407733.6030000001]},"properties":{"FID":247,"BLDNG_ID":"B0067648","BLDNG_TYPE":"Ambulance","ADDRESS":"955 Shawnigan Mill Bay","CITY_NAME":"MILL BAY","LATITUDE":48.657917,"LONGITUDE":-123.56772,"FCODE":"BF12450130","OBJECTID":98}},{"type":"Feature","id":248,"geometry":{"type":"Point","coordinates":[1226993.0399999998,464657.04400000256]},"properties":{"FID":248,"BLDNG_ID":"B0067928","BLDNG_TYPE":"Office","ADDRESS":"8285 120th St.","CITY_NAME":"DELTA","LATITUDE":49.153377,"LONGITUDE":-122.89057,"FCODE":"BF12450130","OBJECTID":99}},{"type":"Feature","id":249,"geometry":{"type":"Point","coordinates":[1214932.877000001,456798.1020000037]},"properties":{"FID":249,"BLDNG_ID":"B0076786","BLDNG_TYPE":"Ambulance","ADDRESS":"4641 Clarence Taylor Cres.","CITY_NAME":"DELTA","LATITUDE":49.087333,"LONGITUDE":-123.06005,"FCODE":"BF12450130","OBJECTID":100}},{"type":"Feature","id":250,"geometry":{"type":"Point","coordinates":[1168777.901000001,376535.09799999744]},"properties":{"FID":250,"BLDNG_ID":"B0090374","BLDNG_TYPE":"Office","ADDRESS":"2215 Otterpoint Rd.","CITY_NAME":"SOOKE","LATITUDE":48.380157,"LONGITUDE":-123.72613,"FCODE":"BF12450130","OBJECTID":101}},{"type":"Feature","id":251,"geometry":{"type":"Point","coordinates":[1198970.673000001,964992.2890000017]},"properties":{"FID":251,"BLDNG_ID":"B0089904","BLDNG_TYPE":"Industrial Maintenance","ADDRESS":"15875 Hutda Lake Rd.","CITY_NAME":"HUTDA LAKE","LATITUDE":53.651792,"LONGITUDE":-122.98195,"FCODE":"BF12450130","OBJECTID":102}},{"type":"Feature","id":252,"geometry":{"type":"Point","coordinates":[1163075.3910000008,883407.0069999984]},"properties":{"FID":252,"BLDNG_ID":"B0077487","BLDNG_TYPE":"Storage Open","ADDRESS":"9594 Nazko Road\nNazko Black Water","CITY_NAME":"NAZKO","LATITUDE":52.933489,"LONGITUDE":-123.56843,"FCODE":"BF12450130","OBJECTID":103}},{"type":"Feature","id":253,"geometry":{"type":"Point","coordinates":[1359616.2809999997,1212204.9310000008]},"properties":{"FID":253,"BLDNG_ID":"B0083741","BLDNG_TYPE":"Warehouse","ADDRESS":"9000 17th St.","CITY_NAME":"DAWSON CREEK","LATITUDE":55.773689,"LONGITUDE":-120.24913,"FCODE":"BF12450130","OBJECTID":104}},{"type":"Feature","id":254,"geometry":{"type":"Point","coordinates":[593120.7570000002,982294.8290000036]},"properties":{"FID":254,"BLDNG_ID":"B0067214","BLDNG_TYPE":"Ambulance","ADDRESS":"Hemlock Ave. & Park","CITY_NAME":"PORT CLEMENTS","LATITUDE":53.685537,"LONGITUDE":-132.18263,"FCODE":"BF12450130","OBJECTID":105}},{"type":"Feature","id":255,"geometry":{"type":"Point","coordinates":[1198970.673000001,964992.2890000017]},"properties":{"FID":255,"BLDNG_ID":"B0077999","BLDNG_TYPE":"Farm Storage","ADDRESS":"15875 Hutda Lake Rd.","CITY_NAME":"HUTDA LAKE","LATITUDE":53.651792,"LONGITUDE":-122.98195,"FCODE":"BF12450130","OBJECTID":106}},{"type":"Feature","id":256,"geometry":{"type":"Point","coordinates":[1198970.673000001,964992.2890000017]},"properties":{"FID":256,"BLDNG_ID":"B0077996","BLDNG_TYPE":"Storage Small","ADDRESS":"15875 Hutda Lake Rd.","CITY_NAME":"HUTDA LAKE","LATITUDE":53.651792,"LONGITUDE":-122.98195,"FCODE":"BF12450130","OBJECTID":107}},{"type":"Feature","id":257,"geometry":{"type":"Point","coordinates":[1011609.0229999999,1031007.4280000003]},"properties":{"FID":257,"BLDNG_ID":"B0084996","BLDNG_TYPE":"Warehouse","ADDRESS":"Hwy. 16","CITY_NAME":"DECKER LAKE","LATITUDE":54.281172,"LONGITUDE":-125.82127,"FCODE":"BF12450130","OBJECTID":108}},{"type":"Feature","id":258,"geometry":{"type":"Point","coordinates":[1244587.5270000005,460237.6720000021]},"properties":{"FID":258,"BLDNG_ID":"B0067931","BLDNG_TYPE":"Office","ADDRESS":"5714 Glover Rd.","CITY_NAME":"LANGLEY","LATITUDE":49.106416,"LONGITUDE":-122.65277,"FCODE":"BF12450130","OBJECTID":109}},{"type":"Feature","id":259,"geometry":{"type":"Point","coordinates":[1015606.1429999992,1025936.5779999988]},"properties":{"FID":259,"BLDNG_ID":"B0080135","BLDNG_TYPE":"Ambulance","ADDRESS":"741 Center St.","CITY_NAME":"BURNS LAKE","LATITUDE":54.235635,"LONGITUDE":-125.76,"FCODE":"BF12450130","OBJECTID":110}},{"type":"Feature","id":260,"geometry":{"type":"Point","coordinates":[1187313.9810000008,789890.0119999992]},"properties":{"FID":260,"BLDNG_ID":"B0078569","BLDNG_TYPE":"Mobile Home","ADDRESS":"2630 Forest Lane 2  (Lot 2)","CITY_NAME":"ALEXIS CREEK","LATITUDE":52.087544,"LONGITUDE":-123.26127,"FCODE":"BF12450130","OBJECTID":111}},{"type":"Feature","id":261,"geometry":{"type":"Point","coordinates":[1658823.753999999,753695.3730000071]},"properties":{"FID":261,"BLDNG_ID":"B0067418","BLDNG_TYPE":"Ambulance","ADDRESS":"Yoho National Park","CITY_NAME":"FIELD","LATITUDE":51.397706,"LONGITUDE":-116.49165,"FCODE":"BF12450130","OBJECTID":112}},{"type":"Feature","id":262,"geometry":{"type":"Point","coordinates":[1232337.3269999996,475162.27300000004]},"properties":{"FID":262,"BLDNG_ID":"B0077903","BLDNG_TYPE":"Storage Small","ADDRESS":"2601 Lougheed Hwy.","CITY_NAME":"COQUITLAM","LATITUDE":49.2457,"LONGITUDE":-122.81099,"FCODE":"BF12450130","OBJECTID":113}},{"type":"Feature","id":263,"geometry":{"type":"Point","coordinates":[1262625.4419999998,799449.0790000055]},"properties":{"FID":263,"BLDNG_ID":"B0082693","BLDNG_TYPE":"Warehouse","ADDRESS":"1010 Mackenzie Ave.","CITY_NAME":"WILLIAMS LAKE","LATITUDE":52.141792,"LONGITUDE":-122.15441,"FCODE":"BF12450130","OBJECTID":114}},{"type":"Feature","id":264,"geometry":{"type":"Point","coordinates":[1209980.8359999983,993663.7709999997]},"properties":{"FID":264,"BLDNG_ID":"B0083089","BLDNG_TYPE":"Storage Open","ADDRESS":"2000 Ospika Blvd.","CITY_NAME":"PRINCE GEORGE","LATITUDE":53.904125,"LONGITUDE":-122.79549,"FCODE":"BF12450130","OBJECTID":115}},{"type":"Feature","id":265,"geometry":{"type":"Point","coordinates":[1774489.2510000006,543012.5560000008]},"properties":{"FID":265,"BLDNG_ID":"B0075499","BLDNG_TYPE":"Yard Office","ADDRESS":"2260 Jaffray Shop Rd.","CITY_NAME":"JAFFRAY","LATITUDE":49.375793,"LONGITUDE":-115.3026,"FCODE":"BF12450130","OBJECTID":116}},{"type":"Feature","id":266,"geometry":{"type":"Point","coordinates":[834930.3149999992,1059652.922000003]},"properties":{"FID":266,"BLDNG_ID":"B0078588","BLDNG_TYPE":"Weigh Station","ADDRESS":"Hwy 16 & Hwy 37","CITY_NAME":"TERRACE","LATITUDE":54.511239,"LONGITUDE":-128.55613,"FCODE":"BF12450130","OBJECTID":117}},{"type":"Feature","id":267,"geometry":{"type":"Point","coordinates":[1463823.7550000013,516697.9130000016]},"properties":{"FID":267,"BLDNG_ID":"B0078048","BLDNG_TYPE":"Storage Small","ADDRESS":"102 Industrial Pl.","CITY_NAME":"PENTICTON","LATITUDE":49.477622,"LONGITUDE":-119.59512,"FCODE":"BF12450130","OBJECTID":118}},{"type":"Feature","id":268,"geometry":{"type":"Point","coordinates":[1692169.8400000003,499070.99700000044]},"properties":{"FID":268,"BLDNG_ID":"B0078241","BLDNG_TYPE":"Health Unit","ADDRESS":"531 16th Ave. S.","CITY_NAME":"CRESTON","LATITUDE":49.089611,"LONGITUDE":-116.50602,"FCODE":"BF12450130","OBJECTID":119}},{"type":"Feature","id":269,"geometry":{"type":"Point","coordinates":[1318191.4580000003,1262860.7470000014]},"properties":{"FID":269,"BLDNG_ID":"B0078128","BLDNG_TYPE":"Health Unit","ADDRESS":"10115 110th Ave.","CITY_NAME":"FORT ST. JOHN","LATITUDE":56.254778,"LONGITUDE":-120.8503,"FCODE":"BF12450130","OBJECTID":120}},{"type":"Feature","id":270,"geometry":{"type":"Point","coordinates":[1190425.4780000004,397298.3479999965]},"properties":{"FID":270,"BLDNG_ID":"B0092041","BLDNG_TYPE":"Warehouse","ADDRESS":"6578 Bryn Rd","CITY_NAME":"SAANICH","LATITUDE":48.560472,"LONGITUDE":-123.42455,"FCODE":"BF12450130","OBJECTID":121}},{"type":"Feature","id":271,"geometry":{"type":"Point","coordinates":[1195346.1209999986,382364.19000000134]},"properties":{"FID":271,"BLDNG_ID":"B0067594","BLDNG_TYPE":"Office","ADDRESS":"1070 Douglas St.","CITY_NAME":"VICTORIA","LATITUDE":48.42436,"LONGITUDE":-123.36557,"FCODE":"BF12450130","OBJECTID":122}},{"type":"Feature","id":272,"geometry":{"type":"Point","coordinates":[1088356.3699999982,472586.72700000554]},"properties":{"FID":272,"BLDNG_ID":"B0092269","BLDNG_TYPE":"Storage Small","ADDRESS":"4885 Cherry Creek Rd.","CITY_NAME":"PORT ALBERNI","LATITUDE":49.262814,"LONGITUDE":-124.78714,"FCODE":"BF12450130","OBJECTID":123}},{"type":"Feature","id":273,"geometry":{"type":"Point","coordinates":[1471942.2219999984,579517.9310000008]},"properties":{"FID":273,"BLDNG_ID":"B0091603","BLDNG_TYPE":"Ambulance","ADDRESS":"Bottomwood Lake Rd.","CITY_NAME":"DISTRICT OF LAKE COUNTRY","LATITUDE":50.033519,"LONGITUDE":-119.40304,"FCODE":"BF12450130","OBJECTID":124}},{"type":"Feature","id":274,"geometry":{"type":"Point","coordinates":[1213412.7819999987,476184.034]},"properties":{"FID":274,"BLDNG_ID":"B0092001","BLDNG_TYPE":"Office","ADDRESS":"2525 Commercial Dr.","CITY_NAME":"VANCOUVER","LATITUDE":49.262246,"LONGITUDE":-123.06985,"FCODE":"BF12450130","OBJECTID":125}},{"type":"Feature","id":275,"geometry":{"type":"Point","coordinates":[1318473.2620000003,1261395.3780000024]},"properties":{"FID":275,"BLDNG_ID":"B0092013","BLDNG_TYPE":"Office","ADDRESS":"9504 100th Street","CITY_NAME":"FORT ST. JOHN","LATITUDE":56.241498,"LONGITUDE":-120.84748,"FCODE":"BF12450130","OBJECTID":126}},{"type":"Feature","id":276,"geometry":{"type":"Point","coordinates":[1464300.864000001,517821.31599999685]},"properties":{"FID":276,"BLDNG_ID":"B0092404","BLDNG_TYPE":"Office","ADDRESS":"1101 Main St.","CITY_NAME":"PENTICTON","LATITUDE":49.4873,"LONGITUDE":-119.58717,"FCODE":"BF12450130","OBJECTID":127}},{"type":"Feature","id":277,"geometry":{"type":"Point","coordinates":[1053495.6079999995,557306.2650000025]},"properties":{"FID":277,"BLDNG_ID":"B0067836","BLDNG_TYPE":"Office","ADDRESS":"833 14th Ave.","CITY_NAME":"CAMPBELL RIVER","LATITUDE":50.02913,"LONGITUDE":-125.25336,"FCODE":"BF12450130","OBJECTID":128}},{"type":"Feature","id":278,"geometry":{"type":"Point","coordinates":[833446.9899999998,1060114.109000003]},"properties":{"FID":278,"BLDNG_ID":"B0091979","BLDNG_TYPE":"Office","ADDRESS":"192 4450 Greig Ave","CITY_NAME":"TERRACE","LATITUDE":54.514886,"LONGITUDE":-128.57934,"FCODE":"BF12450130","OBJECTID":129}},{"type":"Feature","id":279,"geometry":{"type":"Point","coordinates":[1234940.9010000008,890430.5810000068]},"properties":{"FID":279,"BLDNG_ID":"B0082297","BLDNG_TYPE":"Office","ADDRESS":"322 Johnston Ave.","CITY_NAME":"QUESNEL","LATITUDE":52.969383,"LONGITUDE":-122.49316,"FCODE":"BF12450130","OBJECTID":130}},{"type":"Feature","id":280,"geometry":{"type":"Point","coordinates":[1227889.5569999998,474079.2189999977]},"properties":{"FID":280,"BLDNG_ID":"B0067773","BLDNG_TYPE":"Office","ADDRESS":"906 Roderick & 908","CITY_NAME":"COQUITLAM","LATITUDE":49.237747,"LONGITUDE":-122.87261,"FCODE":"BF12450130","OBJECTID":131}},{"type":"Feature","id":281,"geometry":{"type":"Point","coordinates":[1110849.3479999993,1051839.3739999998]},"properties":{"FID":281,"BLDNG_ID":"B0083451","BLDNG_TYPE":"Industrial Maintenance","ADDRESS":"Stones Bay Rd.","CITY_NAME":"FORT ST. JAMES","LATITUDE":54.455917,"LONGITUDE":-124.286,"FCODE":"BF12450130","OBJECTID":132}},{"type":"Feature","id":282,"geometry":{"type":"Point","coordinates":[1235137.1710000003,477802.3289999999]},"properties":{"FID":282,"BLDNG_ID":"B0092636","BLDNG_TYPE":"Office","ADDRESS":"2062  Manning St","CITY_NAME":"PORT COQUITLAM","LATITUDE":49.268294,"LONGITUDE":-122.77096,"FCODE":"BF12450130","OBJECTID":133}},{"type":"Feature","id":283,"geometry":{"type":"Point","coordinates":[1215630.9120000005,994337.4679999975]},"properties":{"FID":283,"BLDNG_ID":"B0078529","BLDNG_TYPE":"Jail","ADDRESS":"775 Hwy. 16 E.","CITY_NAME":"PRINCE GEORGE","LATITUDE":53.907833,"LONGITUDE":-122.70891,"FCODE":"BF12450130","OBJECTID":134}},{"type":"Feature","id":284,"geometry":{"type":"Point","coordinates":[1213096.9069999997,994861.7449999982]},"properties":{"FID":284,"BLDNG_ID":"B0067215","BLDNG_TYPE":"Office","ADDRESS":"1160 7th Ave.","CITY_NAME":"PRINCE GEORGE","LATITUDE":53.913575,"LONGITUDE":-122.74717,"FCODE":"BF12450130","OBJECTID":135}},{"type":"Feature","id":285,"geometry":{"type":"Point","coordinates":[1227460.738,594526.5280000009]},"properties":{"FID":285,"BLDNG_ID":"B0078180","BLDNG_TYPE":"Ambulance","ADDRESS":"1403 Portage Rd.","CITY_NAME":"PEMBERTON","LATITUDE":50.320056,"LONGITUDE":-122.80391,"FCODE":"BF12450130","OBJECTID":136}},{"type":"Feature","id":286,"geometry":{"type":"Point","coordinates":[1387762.8499999994,937489.9689999977]},"properties":{"FID":286,"BLDNG_ID":"B0091282","BLDNG_TYPE":"Residential Detached","ADDRESS":"745 Dominion St.","CITY_NAME":"MCBRIDE","LATITUDE":53.29998,"LONGITUDE":-120.1625,"FCODE":"BF12450130","OBJECTID":137}},{"type":"Feature","id":287,"geometry":{"type":"Point","coordinates":[1320433.372,491157.62499999907]},"properties":{"FID":287,"BLDNG_ID":"B0078283","BLDNG_TYPE":"Weigh Station","ADDRESS":"Hwy. 1 W. - Hunter Creek","CITY_NAME":"HOPE","LATITUDE":49.346919,"LONGITUDE":-121.59083,"FCODE":"BF12450130","OBJECTID":138}},{"type":"Feature","id":288,"geometry":{"type":"Point","coordinates":[1324736.1900000002,747673.5940000014]},"properties":{"FID":288,"BLDNG_ID":"B0076976","BLDNG_TYPE":"Office","ADDRESS":"300 Cariboo Hwy.","CITY_NAME":"HUNDRED MILE HOUSE","LATITUDE":51.644508,"LONGITUDE":-121.29766,"FCODE":"BF12450130","OBJECTID":139}},{"type":"Feature","id":289,"geometry":{"type":"Point","coordinates":[1208590.2550000013,465997.9920000015]},"properties":{"FID":289,"BLDNG_ID":"B0068188","BLDNG_TYPE":"Courthouse","ADDRESS":"5840 Cedarbridge Way","CITY_NAME":"RICHMOND","LATITUDE":49.172417,"LONGITUDE":-123.14163,"FCODE":"BF12450130","OBJECTID":140}},{"type":"Feature","id":290,"geometry":{"type":"Point","coordinates":[1142376.393,470552.56499999855]},"properties":{"FID":290,"BLDNG_ID":"B0067194","BLDNG_TYPE":"Office","ADDRESS":"6475 Metral Dr.","CITY_NAME":"NANAIMO","LATITUDE":49.233639,"LONGITUDE":-124.04669,"FCODE":"BF12450130","OBJECTID":141}},{"type":"Feature","id":291,"geometry":{"type":"Point","coordinates":[1218157.9169999992,475437.32600000035]},"properties":{"FID":291,"BLDNG_ID":"B0077552","BLDNG_TYPE":"School","ADDRESS":"3405 Willingdon Ave.","CITY_NAME":"BURNABY","LATITUDE":49.253745,"LONGITUDE":-123.00521,"FCODE":"BF12450130","OBJECTID":142}},{"type":"Feature","id":292,"geometry":{"type":"Point","coordinates":[1217948.6659999986,475151.0179999955]},"properties":{"FID":292,"BLDNG_ID":"B0077446","BLDNG_TYPE":"Trailer Office","ADDRESS":"3545 Willingdon Ave.","CITY_NAME":"BURNABY","LATITUDE":49.25125,"LONGITUDE":-123.00825,"FCODE":"BF12450130","OBJECTID":143}},{"type":"Feature","id":293,"geometry":{"type":"Point","coordinates":[926804.4790000011,1086484.574]},"properties":{"FID":293,"BLDNG_ID":"B0078555","BLDNG_TYPE":"Storage Small","ADDRESS":"3333 Tatlow Rd.","CITY_NAME":"SMITHERS","LATITUDE":54.773036,"LONGITUDE":-127.14053,"FCODE":"BF12450130","OBJECTID":144}},{"type":"Feature","id":294,"geometry":{"type":"Point","coordinates":[1191764.501,397782.25299999304]},"properties":{"FID":294,"BLDNG_ID":"B0092413","BLDNG_TYPE":"Office","ADDRESS":"2261 Keating Cross Road","CITY_NAME":"SAANICH","LATITUDE":48.564389,"LONGITUDE":-123.40622,"FCODE":"BF12450130","OBJECTID":145}},{"type":"Feature","id":295,"geometry":{"type":"Point","coordinates":[1479355.7239999988,607975.6720000021]},"properties":{"FID":295,"BLDNG_ID":"B0092296","BLDNG_TYPE":"Office","ADDRESS":"4791 23rd.St.","CITY_NAME":"VERNON","LATITUDE":50.281913,"LONGITUDE":-119.26229,"FCODE":"BF12450130","OBJECTID":146}},{"type":"Feature","id":296,"geometry":{"type":"Point","coordinates":[1324687.5079999992,746760.9740000004]},"properties":{"FID":296,"BLDNG_ID":"B0092167","BLDNG_TYPE":"Trailer Office","ADDRESS":"726 Alpine","CITY_NAME":"HUNDRED MILE HOUSE","LATITUDE":51.636366,"LONGITUDE":-121.29924,"FCODE":"BF12450130","OBJECTID":147}},{"type":"Feature","id":297,"geometry":{"type":"Point","coordinates":[1230250.643999999,469384.6620000005]},"properties":{"FID":297,"BLDNG_ID":"B0091173","BLDNG_TYPE":"Office","ADDRESS":"13680 105a Ave.","CITY_NAME":"SURREY","LATITUDE":49.194592,"LONGITUDE":-122.84312,"FCODE":"BF12450130","OBJECTID":148}},{"type":"Feature","id":298,"geometry":{"type":"Point","coordinates":[1397553.5980000002,643713.906999995]},"properties":{"FID":298,"BLDNG_ID":"B0090921","BLDNG_TYPE":"Office","ADDRESS":"970 Camosun Cres.","CITY_NAME":"KAMLOOPS","LATITUDE":50.665944,"LONGITUDE":-120.36688,"FCODE":"BF12450130","OBJECTID":149}},{"type":"Feature","id":299,"geometry":{"type":"Point","coordinates":[1318385.8419999997,1262571.890999997]},"properties":{"FID":299,"BLDNG_ID":"B0073742","BLDNG_TYPE":"Storage Vehicle","ADDRESS":"10600 100th St.","CITY_NAME":"FORT ST. JOHN","LATITUDE":56.25207,"LONGITUDE":-120.84751,"FCODE":"BF12450130","OBJECTID":150}},{"type":"Feature","id":300,"geometry":{"type":"Point","coordinates":[1191473.9839999992,388329.68700000085]},"properties":{"FID":300,"BLDNG_ID":"B0092338","BLDNG_TYPE":"Industrial Maintenance","ADDRESS":"4300 North Rd.","CITY_NAME":"SAANICH","LATITUDE":48.479369,"LONGITUDE":-123.41481,"FCODE":"BF12450130","OBJECTID":151}},{"type":"Feature","id":301,"geometry":{"type":"Point","coordinates":[1142243.3800000013,470624.82300000265]},"properties":{"FID":301,"BLDNG_ID":"B0090271","BLDNG_TYPE":"Office","ADDRESS":"6551 Aulds Rd.","CITY_NAME":"NANAIMO","LATITUDE":49.234322,"LONGITUDE":-124.04849,"FCODE":"BF12450130","OBJECTID":152}},{"type":"Feature","id":302,"geometry":{"type":"Point","coordinates":[1195414.544999999,382456.2660000026]},"properties":{"FID":302,"BLDNG_ID":"B0067185","BLDNG_TYPE":"Office","ADDRESS":"1175 Douglas St.","CITY_NAME":"VICTORIA","LATITUDE":48.425167,"LONGITUDE":-123.36461,"FCODE":"BF12450130","OBJECTID":153}},{"type":"Feature","id":303,"geometry":{"type":"Point","coordinates":[1467142.5120000006,562613.6989999963]},"properties":{"FID":303,"BLDNG_ID":"B0091852","BLDNG_TYPE":"Office","ADDRESS":"565 Bernard Ave.","CITY_NAME":"KELOWNA","LATITUDE":49.886173,"LONGITUDE":-119.49142,"FCODE":"BF12450130","OBJECTID":154}},{"type":"Feature","id":304,"geometry":{"type":"Point","coordinates":[1373570.4340000004,581118.4179999931]},"properties":{"FID":304,"BLDNG_ID":"B0091906","BLDNG_TYPE":"Ambulance","ADDRESS":"3451 Voght St.","CITY_NAME":"MERRITT","LATITUDE":50.121639,"LONGITUDE":-120.77082,"FCODE":"BF12450130","OBJECTID":155}},{"type":"Feature","id":305,"geometry":{"type":"Point","coordinates":[894578.0069999988,635025.128999996]},"properties":{"FID":305,"BLDNG_ID":"B0092629","BLDNG_TYPE":"Office","ADDRESS":"8755 Gray Street","CITY_NAME":"PORT HARDY","LATITUDE":50.720058,"LONGITUDE":-127.4941,"FCODE":"BF12450130","OBJECTID":156}},{"type":"Feature","id":306,"geometry":{"type":"Point","coordinates":[751360.0289999987,1223168.3379999958]},"properties":{"FID":306,"BLDNG_ID":"B0090090","BLDNG_TYPE":"Ambulance","ADDRESS":"10th & Brightwell St.","CITY_NAME":"STEWART","LATITUDE":55.940056,"LONGITUDE":-129.99062,"FCODE":"BF12450130","OBJECTID":157}},{"type":"Feature","id":307,"geometry":{"type":"Point","coordinates":[1194662.0229999998,385705.73699999787]},"properties":{"FID":307,"BLDNG_ID":"B0092006","BLDNG_TYPE":"Office","ADDRESS":"3491 Saanich Rd.","CITY_NAME":"SAANICH","LATITUDE":48.454682,"LONGITUDE":-123.37312,"FCODE":"BF12450130","OBJECTID":158}},{"type":"Feature","id":308,"geometry":{"type":"Point","coordinates":[1217988.658,475115.6400000006]},"properties":{"FID":308,"BLDNG_ID":"B0078616","BLDNG_TYPE":"Office","ADDRESS":"3655 Willingdon Ave.","CITY_NAME":"BURNABY","LATITUDE":49.250917,"LONGITUDE":-123.00772,"FCODE":"BF12450130","OBJECTID":159}},{"type":"Feature","id":309,"geometry":{"type":"Point","coordinates":[1545271.7310000008,695628.5279999999]},"properties":{"FID":309,"BLDNG_ID":"B0092054","BLDNG_TYPE":"Courthouse","ADDRESS":"1113 West 2nd St.","CITY_NAME":"REVELSTOKE","LATITUDE":51.004528,"LONGITUDE":-118.20761,"FCODE":"BF12450130","OBJECTID":160}},{"type":"Feature","id":310,"geometry":{"type":"Point","coordinates":[1617169.2939999995,590374.1849999949]},"properties":{"FID":310,"BLDNG_ID":"B0091659","BLDNG_TYPE":"Residential Detached","ADDRESS":"407 Slocan Ave.","CITY_NAME":"NEW DENVER","LATITUDE":49.990425,"LONGITUDE":-117.37229,"FCODE":"BF12450130","OBJECTID":161}},{"type":"Feature","id":311,"geometry":{"type":"Point","coordinates":[1191677.8929999983,389079.69800000265]},"properties":{"FID":311,"BLDNG_ID":"B0092322","BLDNG_TYPE":"Laboratory","ADDRESS":"4300 North Rd.","CITY_NAME":"SAANICH","LATITUDE":48.486056,"LONGITUDE":-123.41169,"FCODE":"BF12450130","OBJECTID":162}},{"type":"Feature","id":312,"geometry":{"type":"Point","coordinates":[1387981.2359999993,937602.0099999988]},"properties":{"FID":312,"BLDNG_ID":"B0091281","BLDNG_TYPE":"Residential Detached","ADDRESS":"710 Dominion St.","CITY_NAME":"MCBRIDE","LATITUDE":53.30082,"LONGITUDE":-120.15908,"FCODE":"BF12450130","OBJECTID":163}},{"type":"Feature","id":313,"geometry":{"type":"Point","coordinates":[1208983.5040000014,476166.66400000174]},"properties":{"FID":313,"BLDNG_ID":"B0068068","BLDNG_TYPE":"Office","ADDRESS":"1177 W. Broadway","CITY_NAME":"VANCOUVER","LATITUDE":49.263722,"LONGITUDE":-123.13061,"FCODE":"BF12450130","OBJECTID":164}},{"type":"Feature","id":314,"geometry":{"type":"Point","coordinates":[1209996.72,478547.6740000015]},"properties":{"FID":314,"BLDNG_ID":"B0092681","BLDNG_TYPE":"Office","ADDRESS":"700 W. Pender St.","CITY_NAME":"VANCOUVER","LATITUDE":49.284763,"LONGITUDE":-123.11538,"FCODE":"BF12450130","OBJECTID":165}},{"type":"Feature","id":315,"geometry":{"type":"Point","coordinates":[1473749.1970000002,654250.1730000013]},"properties":{"FID":315,"BLDNG_ID":"B0092308","BLDNG_TYPE":"Courthouse","ADDRESS":"550 2nd. Ave N.E.","CITY_NAME":"SALMON ARM","LATITUDE":50.700583,"LONGITUDE":-119.27905,"FCODE":"BF12450130","OBJECTID":166}},{"type":"Feature","id":316,"geometry":{"type":"Point","coordinates":[1230506.0309999995,469257.38499999885]},"properties":{"FID":316,"BLDNG_ID":"B0092143","BLDNG_TYPE":"Office","ADDRESS":"10475 138th St.,","CITY_NAME":"SURREY","LATITUDE":49.193345,"LONGITUDE":-122.8397,"FCODE":"BF12450130","OBJECTID":167}},{"type":"Feature","id":317,"geometry":{"type":"Point","coordinates":[612855.5699999998,931205.9160000002]},"properties":{"FID":317,"BLDNG_ID":"B0091308","BLDNG_TYPE":"Residential Detached","ADDRESS":"364 Christina Pl.","CITY_NAME":"SANDSPIT","LATITUDE":53.244305,"LONGITUDE":-131.82047,"FCODE":"BF12450130","OBJECTID":168}},{"type":"Feature","id":318,"geometry":{"type":"Point","coordinates":[1206291.2850000001,527545.3090000004]},"properties":{"FID":318,"BLDNG_ID":"B0092466","BLDNG_TYPE":"Storage Small","ADDRESS":"42000 Loggers Lane","CITY_NAME":"SQUAMISH","LATITUDE":49.726569,"LONGITUDE":-123.13904,"FCODE":"BF12450130","OBJECTID":169}},{"type":"Feature","id":319,"geometry":{"type":"Point","coordinates":[1268700.0730000008,455520.09400000237]},